time,pwm1,pwm2,pwm3,pwm4,depth,press,voltage,roll,pitch,yaw,a_x,a_y,a_z,w_row,w_pitch,w_yaw
212456,1100,1100,1100,1100,0.15,605,12.00,6.38,1.80,-73.53,-0.30,0.86,8.64,0.1,0.1,0.1
212456,1100,1100,1100,1100,0.15,605,11.99,6.38,1.80,-73.53,-0.23,0.90,8.55,0.0,0.1,0.1
212456,1198,1198,1198,1198,0.10,600,11.97,6.38,1.81,-73.53,-0.01,0.76,8.76,-0.2,0.2,0.0
212456,1198,1198,1198,1198,0.18,608,11.94,6.44,1.90,-73.52,-0.19,1.40,8.55,3.7,6.8,-0.5
212456,1198,1198,1198,1198,0.10,600,11.87,6.90,2.56,-73.46,-2.43,1.84,7.18,16.3,13.4,-0.4
212456,1198,1198,1198,1198,0.15,605,11.88,8.22,3.62,-73.24,-0.79,1.18,-0.51,28.9,22.6,2.8
212457,1198,1198,1198,1198,0.18,608,11.87,9.39,4.71,-73.08,-7.72,5.30,8.02,13.7,12.6,-2.7
212457,1198,1198,1198,1198,0.18,609,11.89,9.76,5.93,-73.44,-0.82,7.28,6.70,-6.6,-13.1,-10.4
212457,1198,1198,1198,1198,0.22,613,11.86,9.72,5.95,-73.95,-1.05,-2.97,7.51,-10.7,-5.9,-9.9
212457,1198,1198,1198,1198,0.20,611,11.84,9.06,5.83,-74.45,-5.78,-0.70,11.85,-12.9,-6.1,-10.3
212457,1198,1198,1198,1198,0.23,614,11.85,8.45,5.82,-75.06,3.90,2.85,5.41,-11.8,-8.4,-13.4
212457,1198,1198,1198,1198,0.24,615,11.85,7.41,4.50,-75.81,12.81,-2.28,5.68,-13.5,-6.3,-13.5
212457,1198,1198,1198,1198,0.29,620,11.86,6.79,4.09,-76.57,-7.85,6.00,11.27,-13.3,-12.1,-13.6
212457,1198,1198,1198,1198,0.30,621,11.86,6.57,4.26,-77.35,-9.23,4.60,5.55,-13.0,-11.8,-14.6
212457,1198,1198,1198,1198,0.24,615,11.85,6.11,3.82,-78.20,2.27,-4.96,7.92,-10.8,-9.6,-16.7
212457,1198,1198,1198,1198,0.27,618,11.88,5.30,3.71,-79.17,-6.44,-2.14,16.82,-9.4,-9.9,-19.3
212457,1198,1198,1198,1198,0.25,616,11.84,4.53,3.90,-80.22,10.47,-0.02,-1.54,-9.5,-0.2,-20.7
212457,1198,1198,1198,1198,0.24,615,11.85,4.15,3.16,-81.38,-3.14,4.92,10.68,-7.7,3.5,-25.7
212457,1198,1198,1198,1198,0.26,617,11.86,3.83,3.58,-82.65,-6.34,1.66,9.98,-7.6,-8.2,-25.6
212457,1198,1198,1198,1198,0.28,619,11.87,3.38,3.19,-83.96,2.34,-2.67,6.36,-5.0,2.0,-28.0
212457,1198,1198,1198,1198,0.31,622,11.85,3.08,3.34,-85.39,0.72,-1.68,5.68,-4.9,1.2,-28.6
212457,1198,1198,1198,1198,0.29,620,11.87,2.52,3.25,-86.86,4.95,-0.45,2.31,-2.5,7.5,-28.8
212457,1198,1198,1198,1198,0.26,617,11.85,2.52,3.08,-88.26,0.77,-4.93,7.06,-1.4,3.7,-28.3
212457,1198,1198,1198,1198,0.31,622,11.88,2.21,3.10,-89.75,6.01,0.20,7.54,0.1,-3.5,-29.3
212457,1198,1198,1198,1198,0.33,624,11.85,2.07,2.61,-91.22,-0.47,2.81,8.66,2.3,-12.8,-29.2
212457,1198,1198,1198,1198,0.34,625,11.83,2.27,2.86,-92.71,-5.19,0.02,13.91,6.0,-2.0,-31.7
212458,1198,1198,1198,1198,0.35,626,11.86,2.30,2.80,-94.28,-11.27,6.06,5.12,5.3,-4.6,-30.0
212458,1198,1198,1198,1198,0.35,626,11.84,2.54,2.29,-95.85,-12.70,-0.70,12.30,8.9,-3.7,-32.2
212458,1198,1198,1198,1198,0.35,627,11.86,2.64,2.58,-97.45,3.26,0.99,3.16,8.7,0.8,-32.3
212458,1198,1198,1198,1198,0.37,629,11.86,2.84,2.50,-99.06,5.42,-3.08,7.18,6.3,6.2,-32.1
212458,1198,1198,1198,1198,0.36,628,11.86,3.08,3.09,-100.64,-3.12,5.88,13.00,6.3,1.8,-31.3
212458,1198,1198,1198,1198,0.35,626,11.86,3.81,3.17,-102.21,10.52,1.74,-1.14,6.5,3.4,-31.7
212458,1198,1198,1198,1198,0.36,628,11.85,3.95,3.15,-103.75,-4.71,-0.69,13.68,5.1,-2.0,-29.1
212458,1198,1198,1198,1198,0.34,625,11.84,4.01,3.25,-105.31,-4.04,3.39,2.45,5.7,-1.6,-30.0
212458,1198,1198,1198,1198,0.36,628,11.85,4.10,2.74,-106.83,1.72,1.52,8.49,5.6,0.5,-30.2
212458,1198,1198,1198,1198,0.39,631,11.86,4.34,3.02,-108.36,3.66,0.56,8.05,4.5,2.3,-29.4
212458,1198,1198,1198,1198,0.36,628,11.85,4.28,2.93,-109.88,7.68,2.37,0.68,3.5,4.2,-31.4
212458,1198,1198,1198,1198,0.40,632,11.85,4.60,3.03,-111.43,-0.02,-0.46,2.95,5.0,2.8,-31.4
212458,1198,1198,1198,1198,0.41,633,11.86,4.78,3.16,-112.87,1.12,1.21,6.83,2.3,5.0,-29.2
212458,1198,1198,1198,1198,0.41,633,11.84,4.84,4.09,-114.47,-5.09,-2.34,14.51,3.7,-0.3,-32.7
212458,1198,1198,1198,1198,0.40,632,11.85,5.05,4.43,-116.05,-4.47,3.65,4.91,4.6,-0.4,-32.5
212458,1198,1198,1198,1198,0.45,637,11.87,5.23,3.76,-117.58,-5.70,-0.14,9.01,6.2,-9.7,-30.2
212458,1198,1198,1198,1198,0.41,633,11.84,5.62,3.90,-119.14,2.23,2.61,3.12,6.0,-2.4,-32.3
212458,1198,1198,1198,1198,0.40,632,11.86,5.85,3.84,-120.81,-1.90,-2.34,13.07,5.5,-6.2,-33.0
212458,1198,1198,1198,1198,0.41,633,11.87,5.63,3.18,-122.54,13.82,1.02,2.65,2.7,-1.2,-33.9
212458,1198,1198,1198,1198,0.39,631,11.86,5.80,3.48,-124.25,-1.52,4.68,8.10,3.1,-0.2,-33.8
212459,1198,1198,1198,1198,0.45,637,11.85,5.87,3.54,-126.03,-1.10,-0.81,8.78,3.5,3.8,-36.3
212459,1198,1198,1198,1198,0.41,633,11.85,5.92,3.49,-127.85,2.62,-0.48,13.63,2.8,2.4,-36.3
212459,1198,1198,1198,1198,0.41,633,11.87,5.71,3.63,-129.64,3.74,1.95,4.23,1.3,4.8,-35.2
212459,1198,1198,1198,1198,0.42,634,11.86,5.67,3.30,-131.43,0.51,-3.61,9.70,1.2,7.0,-35.3
212459,1198,1198,1198,1198,0.41,633,11.86,5.47,3.79,-133.23,-1.28,-2.38,9.95,1.5,1.2,-37.5
212459,1198,1198,1198,1198,0.44,636,11.84,5.38,4.23,-135.00,5.22,0.21,6.95,0.5,7.9,-35.4
212459,1198,1198,1198,1198,0.43,635,11.84,5.42,4.73,-136.73,7.02,3.94,9.21,0.5,4.2,-35.4
212459,1198,1198,1198,1198,0.43,635,11.85,5.08,4.38,-138.54,3.30,-2.10,11.82,1.5,1.2,-36.6
212459,1198,1198,1198,1198,0.44,636,11.85,4.46,4.45,-140.43,-2.02,2.37,11.26,1.3,-4.8,-37.0
212459,1198,1198,1198,1198,0.48,640,11.83,4.58,4.25,-142.25,-3.27,0.60,6.13,1.8,2.4,-36.0
212459,1198,1198,1198,1198,0.45,637,11.86,4.53,4.70,-144.02,-3.14,1.57,7.43,1.2,-0.2,-35.5
212459,1198,1198,1198,1198,0.46,638,11.85,4.45,4.05,-145.80,-3.44,-0.75,6.54,0.7,-4.5,-36.6
212459,1198,1198,1198,1198,0.44,636,11.86,4.19,4.04,-147.59,-9.80,2.12,13.76,1.0,-8.8,-35.3
212459,1198,1198,1198,1198,0.43,635,11.85,4.11,3.91,-149.43,-3.50,1.10,7.81,1.8,8.7,-35.3
212459,1198,1198,1198,1198,0.47,639,11.85,3.93,3.92,-151.17,7.18,-1.18,-0.06,1.4,4.8,-34.7
212459,1198,1198,1198,1198,0.44,636,11.84,3.69,3.88,-153.00,9.66,-3.10,10.17,1.0,-1.1,-35.9
212459,1198,1198,1198,1198,0.44,636,11.85,3.39,3.97,-154.82,16.88,0.53,-4.88,1.2,7.4,-36.4
212459,1198,1198,1198,1198,0.51,643,11.84,3.52,3.98,-156.72,-7.78,4.65,6.35,-0.4,3.8,-38.5
212459,1198,1198,1198,1198,0.50,642,11.85,3.34,4.39,-158.60,15.71,-0.93,-3.05,1.1,11.5,-36.7
212459,1198,1198,1198,1198,0.41,633,11.85,3.17,3.86,-160.41,-3.21,0.56,11.08,2.4,-9.6,-38.4
212500,1198,1198,1198,1198,0.47,639,11.85,3.14,4.16,-162.25,9.35,3.40,-3.53,0.8,10.6,-37.0
212500,1198,1198,1198,1198,0.50,642,11.84,2.70,3.38,-164.12,-19.60,5.86,19.60,1.3,-12.5,-35.8
212500,1198,1198,1198,1198,0.50,642,11.84,3.18,3.84,-165.84,19.60,-3.01,-3.53,3.1,1.8,-33.9
212500,1198,1198,1198,1198,0.51,643,11.85,3.11,3.65,-167.55,-6.63,-2.79,16.68,4.8,0.1,-32.3
212500,1198,1198,1198,1198,0.50,642,11.83,3.29,4.04,-169.19,10.85,0.21,6.96,5.0,13.0,-32.8
212500,1198,1198,1198,1198,0.51,643,11.84,3.25,3.91,-170.85,-0.32,5.16,6.00,3.6,-0.9,-30.8
212500,1198,1198,1198,1198,0.54,647,11.85,3.79,4.32,-172.34,-2.27,1.97,8.33,3.5,-5.1,-29.7
212500,1198,1198,1198,1198,0.45,637,11.85,3.89,4.01,-173.85,-1.65,-0.97,14.79,3.2,-1.2,-31.6
212500,1198,1198,1198,1198,0.52,644,11.85,4.11,4.51,-175.38,-0.80,3.76,5.33,2.7,4.4,-30.4
212500,1198,1198,1198,1198,0.49,641,11.84,4.05,5.00,-176.93,4.98,2.42,7.88,0.1,2.7,-33.1
212500,1198,1198,1198,1198,0.50,642,11.84,4.13,4.56,-178.57,-1.74,-1.97,5.41,-0.1,5.7,-34.0
212500,1198,1198,1198,1198,0.51,643,11.85,4.01,5.46,179.77,-1.66,1.69,12.92,3.4,-6.9,-34.6
212500,1198,1198,1198,1198,0.50,642,11.84,3.92,5.29,178.10,-0.38,-0.75,11.36,1.8,0.7,-32.3
212500,1198,1198,1198,1198,0.46,638,11.85,3.82,6.03,176.51,-0.51,3.65,9.88,0.9,7.1,-32.5
212500,1198,1198,1198,1198,0.51,643,11.85,3.73,5.27,174.95,1.73,-6.24,9.31,-1.2,12.1,-30.9
212500,1198,1198,1198,1198,0.47,639,11.85,3.15,6.00,173.38,-1.19,1.79,10.25,0.3,11.0,-31.7
212500,1198,1198,1198,1198,0.45,637,11.84,3.01,5.46,171.83,-1.24,-4.68,5.05,-0.9,2.6,-29.9
212500,1198,1198,1198,1198,0.54,647,11.85,2.48,4.88,170.32,3.98,-2.30,5.46,-0.1,12.6,-28.1
212500,1198,1198,1198,1198,0.46,638,11.83,2.51,4.99,168.82,1.68,-1.94,10.06,0.5,5.0,-33.1
212500,1198,1198,1198,1198,0.55,648,11.83,2.27,5.15,167.33,1.29,-0.16,4.91,0.6,2.9,-29.6
212501,1198,1198,1198,1198,0.47,639,11.84,2.15,5.32,165.76,-12.19,1.59,18.08,-0.2,2.7,-32.9
212501,1198,1198,1198,1198,0.48,640,11.86,2.02,5.72,164.20,12.73,-3.38,-2.18,0.0,1.2,-32.8
212501,1198,1198,1198,1198,0.54,647,11.85,1.46,4.93,162.58,-12.28,-1.94,15.26,-1.5,-5.4,-32.2
212501,1198,1198,1198,1198,0.52,644,11.83,1.38,5.35,161.04,8.82,-0.77,1.14,0.5,6.3,-31.9
212501,1198,1198,1198,1198,0.52,645,11.85,1.01,5.21,159.43,-1.37,-0.95,7.68,-0.5,0.4,-30.8
212501,1198,1198,1198,1198,0.51,643,11.83,0.82,5.33,157.86,2.59,-3.00,3.99,1.0,0.4,-30.0
212501,1198,1198,1198,1198,0.53,646,11.85,0.80,5.15,156.31,-3.68,4.63,9.44,2.5,-4.6,-29.7
212501,1198,1198,1198,1198,0.54,647,11.85,1.05,5.12,154.82,-9.46,1.40,12.25,5.4,-0.2,-27.4
212501,1198,1198,1198,1198,0.48,640,11.85,1.17,5.59,153.43,1.05,2.89,2.97,4.4,3.8,-26.9
212501,1198,1198,1198,1198,0.49,641,11.84,1.19,5.30,152.08,4.05,-0.81,5.10,4.5,6.7,-26.4
212501,1198,1198,1198,1198,0.51,643,11.84,1.42,5.55,150.81,-2.21,-0.05,13.01,4.6,2.0,-26.7
212501,1198,1198,1198,1198,0.52,645,11.83,1.32,5.01,149.48,-1.10,2.04,13.58,7.1,10.5,-28.0
212501,1198,1198,1198,1198,0.53,646,11.84,1.37,5.37,148.13,6.55,1.43,6.26,4.6,9.6,-24.6
212501,1198,1198,1198,1198,0.52,645,11.85,1.54,5.10,146.96,-14.39,-1.01,8.53,5.3,-3.4,-23.2
212501,1198,1198,1198,1198,0.51,643,11.85,1.77,6.04,145.88,3.24,1.89,6.17,6.0,3.7,-20.4
212501,1198,1198,1198,1198,0.52,644,11.85,2.01,5.75,144.87,1.84,-3.03,3.27,7.1,4.3,-19.8
212501,1198,1198,1198,1198,0.53,646,11.83,2.32,5.95,143.95,9.43,0.35,3.85,7.8,10.1,-18.4
212501,1198,1198,1198,1198,0.52,645,11.83,2.98,5.54,143.16,0.47,-4.37,1.95,5.1,10.6,-16.1
212501,1198,1198,1198,1198,0.51,643,11.83,3.39,5.85,142.33,-2.73,2.10,10.72,7.7,1.0,-17.6
212501,1198,1198,1198,1198,0.51,643,11.84,3.32,5.59,141.48,-0.21,-2.95,18.23,5.4,4.9,-16.3
212502,1198,1198,1198,1198,0.50,642,11.84,3.65,5.98,140.77,12.44,-0.39,-5.28,5.4,6.3,-13.1
212502,1198,1198,1198,1198,0.50,642,11.85,3.46,5.66,140.04,-4.46,1.67,5.99,4.0,-4.5,-17.2
212502,1198,1198,1198,1198,0.52,645,11.84,3.75,5.53,139.31,5.65,4.08,2.81,2.3,-6.3,-13.1
212502,1198,1198,1198,1198,0.52,645,11.83,4.01,4.76,138.70,-9.06,-1.13,13.08,1.6,-0.2,-13.4
212502,1198,1198,1198,1198,0.54,647,11.84,4.01,5.33,138.08,16.95,-0.67,1.15,0.3,10.9,-12.1
212502,1198,1198,1198,1198,0.48,640,11.82,3.75,4.68,137.45,-3.37,1.44,11.36,2.1,-7.2,-12.4
212502,1198,1198,1198,1198,0.50,642,11.83,3.58,4.30,136.75,4.59,0.38,6.17,1.1,-6.0,-12.3
212502,1198,1198,1198,1198,0.52,645,11.83,3.48,4.34,136.12,-7.59,0.56,16.18,1.9,-7.8,-12.5
212502,1198,1198,1198,1198,0.49,641,11.83,3.65,4.61,135.45,1.04,-3.42,2.68,2.1,1.3,-13.3
212502,1198,1198,1198,1198,0.48,640,11.84,3.49,4.91,134.80,-10.57,-0.82,16.79,0.7,-8.1,-14.2
212502,1198,1198,1198,1198,0.50,642,11.83,3.12,4.98,134.10,-3.50,1.69,10.01,-0.5,5.7,-13.5
212502,1198,1198,1198,1198,0.52,645,11.85,3.23,5.17,133.40,-9.57,1.20,14.74,-0.7,-6.4,-13.5
212502,1198,1198,1198,1198,0.55,648,11.83,2.84,5.14,132.61,16.20,-1.56,10.61,-0.4,4.6,-14.8
212502,1198,1198,1198,1198,0.50,642,11.85,2.64,5.19,131.73,3.93,1.67,11.41,-3.5,1.8,-17.4
212502,1198,1198,1198,1198,0.50,642,11.81,2.48,4.90,130.76,-12.72,-1.92,14.04,-2.6,-2.0,-20.3
212502,1198,1198,1198,1198,0.51,643,11.85,2.24,5.04,129.78,-2.01,1.89,10.79,-1.3,-4.6,-18.0
212502,1198,1198,1198,1198,0.50,642,11.84,2.44,5.44,128.91,-1.16,-3.43,13.86,0.1,4.1,-17.7
212502,1198,1198,1198,1198,0.51,643,11.83,2.43,5.45,127.99,5.30,-2.55,5.44,2.6,6.8,-19.1
212502,1198,1198,1198,1198,0.46,638,11.83,2.51,5.32,127.06,-5.68,-3.14,11.64,0.4,3.4,-19.0
212502,1198,1198,1198,1198,0.48,640,11.82,2.36,5.35,126.16,13.52,-0.38,4.84,1.5,4.2,-18.7
212503,1198,1198,1198,1198,0.49,641,11.83,2.70,5.13,125.32,-18.11,5.86,13.44,0.5,-0.2,-16.1
212503,1198,1198,1198,1198,0.49,641,11.84,2.95,5.25,124.55,15.12,-0.34,5.17,2.1,12.0,-16.5
212503,1198,1198,1198,1198,0.48,640,11.83,2.50,5.18,123.64,-18.30,0.85,18.54,3.9,0.2,-18.3
212503,1198,1198,1198,1198,0.51,643,11.83,2.69,5.50,122.78,15.11,0.88,-4.71,0.6,15.7,-16.4
212503,1198,1198,1198,1198,0.44,636,11.81,2.39,5.00,121.90,-11.26,-1.55,10.64,2.5,6.3,-16.4
212503,1198,1198,1198,1198,0.48,640,11.84,2.70,5.81,121.15,7.32,-0.28,2.08,2.4,7.4,-14.2
212503,1198,1198,1198,1198,0.48,640,11.83,2.75,6.38,120.41,1.73,1.46,5.03,1.5,4.6,-16.4
212503,1198,1198,1198,1198,0.46,638,11.84,3.12,6.78,119.68,14.51,0.46,-3.54,2.3,9.0,-15.3
212503,1198,1198,1198,1198,0.48,640,11.83,2.95,6.40,118.99,-3.46,1.40,11.30,2.8,-8.5,-12.7
212503,1198,1198,1198,1198,0.49,641,11.81,3.01,6.04,118.45,-2.36,-0.87,9.83,6.0,0.7,-13.6
212503,1198,1198,1198,1198,0.45,637,11.84,3.30,6.21,117.79,-3.32,1.74,8.47,4.1,-9.1,-14.2
212503,1198,1198,1198,1198,0.46,638,11.84,3.55,5.64,117.26,-6.57,1.86,13.30,4.8,-3.1,-10.9
212503,1198,1198,1198,1198,0.47,639,11.82,3.34,5.90,116.66,-1.08,3.82,9.46,2.1,-3.8,-8.9
212503,1198,1198,1198,1198,0.35,626,11.83,3.35,5.24,116.17,1.92,-3.70,12.42,4.3,-2.1,-11.0
212503,1198,1198,1198,1198,0.43,635,11.83,3.51,5.43,115.58,-12.08,2.55,12.76,6.2,-7.4,-11.3
212503,1198,1198,1198,1198,0.47,639,11.83,3.67,5.39,115.08,-0.79,4.39,10.53,4.3,-2.1,-9.2
212503,1198,1198,1198,1198,0.40,632,11.83,3.91,5.65,114.64,7.27,2.00,4.34,3.2,10.6,-8.6
212503,1198,1198,1198,1198,0.46,638,11.85,4.13,5.41,114.19,-4.89,-2.48,10.57,3.7,-11.2,-9.9
212503,1198,1198,1198,1198,0.42,634,11.83,4.36,5.64,113.65,0.22,-2.10,7.58,0.4,-4.2,-9.6
212503,1198,1198,1198,1198,0.39,631,11.84,4.07,5.03,113.24,-11.14,-2.14,15.85,-0.7,-2.6,-8.1
212504,1198,1198,1198,1198,0.40,632,11.84,3.96,5.16,112.86,-7.38,1.62,12.77,-0.9,-0.2,-7.9
212504,1198,1198,1198,1198,0.37,629,11.84,3.85,4.95,112.42,-5.25,1.15,14.98,-5.6,-10.6,-8.5
212504,1198,1198,1198,1198,0.41,633,11.83,3.44,4.49,111.90,0.49,-3.86,8.80,-4.4,-4.0,-10.6
212504,1198,1198,1198,1198,0.40,632,11.83,3.32,4.63,111.33,-5.26,-1.10,13.73,-5.5,-8.4,-12.4
212504,1198,1198,1198,1198,0.39,631,11.83,2.94,4.23,110.65,8.97,-1.89,-0.80,-2.0,-0.6,-13.7
212504,1198,1198,1198,1198,0.40,632,11.82,2.80,3.97,110.03,-12.26,-0.67,11.47,-2.1,-7.2,-11.8
212504,1198,1198,1198,1198,0.44,636,11.84,2.93,3.50,109.53,-4.70,-2.01,17.39,-4.0,-3.8,-9.9
212504,1198,1198,1198,1198,0.38,630,11.82,2.49,3.30,109.00,5.92,1.15,4.53,-1.8,3.2,-9.4
212504,1198,1198,1198,1198,0.38,630,11.83,2.68,3.00,108.58,5.78,-1.49,11.13,-1.0,1.8,-8.7
212504,1198,1198,1198,1198,0.39,631,11.83,2.34,2.68,108.05,-2.43,0.92,5.34,0.5,3.9,-10.0
212504,1198,1198,1198,1198,0.37,629,11.82,2.43,2.77,107.60,1.45,-1.61,10.20,1.3,-1.3,-9.0
212504,1198,1198,1198,1198,0.37,629,11.84,2.41,2.59,107.16,7.34,-0.31,0.10,1.8,7.1,-9.0
212504,1198,1198,1198,1198,0.41,633,11.85,2.40,2.41,106.74,1.79,-4.43,12.35,0.1,12.8,-8.7
212504,1198,1198,1198,1198,0.38,630,11.85,2.55,2.40,106.34,4.69,-0.12,6.23,0.4,3.2,-8.9
212504,1198,1198,1198,1198,0.39,631,11.82,2.75,2.74,105.97,-13.29,3.07,14.46,0.7,4.0,-8.4
212504,1198,1198,1198,1198,0.37,629,11.83,2.98,3.00,105.59,-5.46,0.51,10.65,-0.5,7.8,-7.8
212504,1198,1198,1198,1198,0.36,628,11.83,3.04,3.22,105.29,10.51,0.19,8.66,0.9,2.7,-4.5
212504,1198,1198,1198,1198,0.33,624,11.81,3.09,2.79,105.22,-4.68,1.16,6.97,0.7,3.4,-1.2
212504,1198,1198,1198,1198,0.37,629,11.81,3.13,3.37,105.20,6.25,-3.89,2.85,0.7,13.9,0.5
212504,1198,1198,1198,1198,0.36,628,11.83,3.18,3.22,105.20,-0.20,-3.12,12.12,-1.8,2.5,-0.1
212505,1198,1198,1198,1198,0.29,620,11.82,2.71,3.31,105.25,13.59,0.55,3.91,-3.7,9.5,1.7
212505,1198,1198,1198,1198,0.36,628,11.80,2.67,2.94,105.40,-10.19,-2.18,14.76,-4.4,-2.6,3.8
212505,1198,1198,1198,1198,0.32,623,11.84,2.08,2.07,105.59,3.49,0.19,7.22,-1.3,-0.7,4.3
212505,1198,1198,1198,1198,0.36,628,11.81,2.00,1.94,105.79,-2.60,2.70,9.74,-2.8,-8.9,5.3
212505,1198,1198,1198,1198,0.32,623,11.82,1.68,1.16,106.06,-3.75,1.27,4.37,-1.8,-4.2,3.7
212505,1198,1198,1198,1198,0.35,627,11.83,1.79,1.66,106.36,10.28,3.13,-8.12,1.2,-8.3,8.4
212505,1198,1198,1198,1198,0.30,621,11.82,1.67,0.35,106.76,6.17,-3.04,11.97,4.3,-7.6,8.7
212505,1198,1198,1198,1198,0.33,624,11.84,2.13,0.38,107.28,13.57,-3.73,0.84,2.9,1.3,11.7
212505,1198,1198,1198,1198,0.34,625,11.81,2.22,-0.27,107.82,-3.12,2.25,13.74,6.3,-1.2,11.7
212505,1198,1198,1198,1198,0.34,625,11.81,2.56,-0.25,108.36,12.49,-3.53,-3.67,5.1,7.6,12.8
212505,1198,1198,1198,1198,0.29,620,11.83,2.12,-0.93,109.00,-1.54,2.53,4.51,4.1,-1.1,13.7
212505,1198,1198,1198,1198,0.30,621,11.83,2.42,-1.00,109.68,8.99,-1.15,6.40,2.3,4.9,12.9
212505,1198,1198,1198,1198,0.30,621,11.82,2.28,-0.89,110.30,10.79,1.46,2.83,2.9,14.2,10.7
212505,1198,1198,1198,1198,0.32,623,11.83,2.59,-0.71,110.89,-0.29,-3.73,10.32,3.1,7.0,11.2
212505,1198,1198,1198,1198,0.30,621,11.82,3.17,-0.58,111.54,8.42,6.01,8.07,3.3,-2.2,14.2
212505,1198,1198,1198,1198,0.29,620,11.83,3.16,-1.29,112.31,-12.29,-0.35,16.18,5.4,-7.9,18.1
212505,1198,1198,1198,1198,0.39,631,11.83,3.34,-0.99,113.25,7.35,1.36,1.71,3.7,-2.3,20.5
212505,1198,1198,1198,1198,0.29,620,11.82,3.75,-1.70,114.38,-6.92,1.38,12.72,9.0,-7.1,23.7
212505,1198,1198,1198,1198,0.31,622,11.82,3.85,-2.16,115.57,2.53,-0.84,10.40,10.0,2.0,23.4
212505,1198,1198,1198,1198,0.29,620,11.82,4.37,-2.77,116.78,1.63,2.15,5.93,10.9,-4.1,24.6
212506,1198,1198,1198,1198,0.29,620,11.84,4.66,-3.67,118.04,-14.59,3.56,19.60,14.6,-12.9,25.7
212506,1198,1198,1198,1198,0.29,620,11.82,5.52,-3.26,119.30,19.60,2.24,-4.24,15.5,2.5,26.0
212506,1198,1198,1198,1198,0.35,627,11.81,6.42,-4.53,120.73,-7.83,0.24,14.56,16.4,-9.6,29.8
212506,1198,1198,1198,1198,0.32,623,11.82,7.34,-4.76,122.22,-8.64,3.44,15.60,15.4,-7.6,30.9
212506,1198,1198,1198,1198,0.33,624,11.82,8.02,-4.85,123.68,6.66,0.49,7.91,9.7,-7.4,31.1
212506,1198,1198,1198,1198,0.34,625,11.83,8.24,-6.00,125.20,9.60,0.56,1.67,0.9,-4.2,31.1
212506,1198,1198,1198,1198,0.38,630,11.83,8.32,-7.08,126.47,-7.33,5.23,16.23,5.4,-23.9,22.5
212506,1198,1198,1198,1198,0.31,622,11.81,8.13,-7.60,127.28,3.82,1.78,9.67,-6.6,1.1,14.7
212506,1198,1198,1198,1198,0.32,623,11.81,8.08,-7.52,127.76,12.24,-2.62,2.65,-5.4,8.9,4.5
212506,1198,1198,1198,1198,0.34,625,11.83,7.69,-7.58,127.93,-2.22,2.48,9.24,-5.9,4.4,0.5
212506,1198,1198,1198,1198,0.38,630,11.82,7.56,-7.11,127.96,3.23,3.30,7.97,-3.7,5.1,-0.4
