time,pwm1,pwm2,pwm3,pwm4,depth,press,voltage,roll,pitch,yaw,a_x,a_y,a_z,w_row,w_pitch,w_yaw
204932,1100,1100,1100,1100,0.10,606,12.15,6.51,1.68,161.16,-0.26,1.01,8.70,-1.0,-0.9,0.2
204932,1100,1100,1100,1100,0.13,609,12.13,6.46,1.64,161.17,-0.24,1.01,8.64,-1.3,-0.9,0.2
204932,1100,1100,1100,1100,0.12,608,12.13,6.40,1.60,161.17,-0.23,0.96,8.66,-1.5,-0.8,0.2
204932,1100,1100,1100,1100,0.04,600,12.10,6.33,1.58,161.18,-0.29,1.00,8.57,-1.6,-0.6,0.2
204932,1197,1197,1197,1197,0.13,609,12.06,6.26,1.56,161.19,-0.29,0.89,8.41,-1.6,-0.4,0.2
204932,1197,1197,1197,1197,0.12,608,12.00,4.05,3.66,161.08,2.05,0.85,10.36,-18.4,1.4,-7.2
204932,1197,1197,1197,1197,0.13,609,12.00,3.23,2.59,160.73,-7.27,1.94,11.63,-7.3,-6.7,-6.5
204932,1197,1197,1197,1197,0.09,605,12.01,2.67,2.17,160.38,-1.61,-0.96,10.62,-7.8,-13.8,-8.1
204932,1197,1197,1197,1197,0.16,612,12.00,2.06,1.41,160.03,1.60,-1.19,6.32,-6.2,-2.9,-8.1
204932,1197,1197,1197,1197,0.19,616,12.00,1.72,1.30,159.58,-15.91,6.50,18.01,-5.3,-8.1,-8.3
204932,1197,1197,1197,1197,0.19,616,12.00,1.78,1.41,159.08,-6.72,-1.92,7.91,-0.8,-1.1,-11.5
204932,1197,1197,1197,1197,0.19,616,12.00,1.80,1.16,158.53,2.12,-1.92,11.34,1.8,-11.4,-12.2
204932,1197,1197,1197,1197,0.18,615,11.99,1.96,0.72,157.95,-4.86,5.89,10.63,1.4,-6.3,-10.6
204932,1197,1197,1197,1197,0.20,617,12.01,1.68,0.13,157.37,-2.31,2.44,1.43,3.0,-12.3,-14.3
204932,1197,1197,1197,1197,0.23,620,12.00,1.71,-0.32,156.73,4.29,-0.01,7.83,3.3,-10.6,-15.6
204932,1197,1197,1197,1197,0.18,614,12.00,1.74,-0.46,156.05,-13.73,-0.30,13.49,3.1,-1.3,-12.6
204933,1197,1197,1197,1197,0.25,622,12.01,1.92,0.06,155.42,-8.89,5.05,7.90,3.1,-6.4,-13.1
204933,1197,1197,1197,1197,0.24,621,11.99,2.32,-0.19,154.79,8.31,-2.41,-0.39,1.9,-10.9,-12.8
204933,1197,1197,1197,1197,0.21,618,12.00,2.06,-0.78,154.06,-11.88,-0.69,14.90,1.0,-19.3,-16.4
204933,1197,1197,1197,1197,0.26,623,12.02,1.95,-1.17,153.26,-4.95,-2.54,14.39,1.8,-7.7,-16.1
204933,1197,1197,1197,1197,0.24,621,12.02,2.08,-1.03,152.37,0.71,-3.95,5.53,0.7,-2.3,-18.4
204933,1197,1197,1197,1197,0.26,623,12.00,2.08,-1.22,151.48,0.70,-5.68,9.26,1.3,0.9,-18.4
204933,1197,1197,1197,1197,0.31,628,12.01,2.09,-1.28,150.60,12.14,2.88,2.70,2.2,4.0,-18.2
204933,1197,1197,1197,1197,0.28,625,11.99,2.26,-1.14,149.69,-3.88,0.23,8.87,4.9,0.7,-19.8
204933,1197,1197,1197,1197,0.32,629,11.99,2.43,-0.56,148.78,-2.06,4.25,8.48,2.8,9.0,-19.0
204933,1197,1197,1197,1197,0.35,632,11.99,2.72,0.16,147.79,-6.07,2.48,8.29,1.5,2.4,-20.4
204933,1197,1197,1197,1197,0.33,630,11.99,2.91,0.10,146.74,-10.73,-1.67,15.38,2.0,-2.8,-19.6
204933,1197,1197,1197,1197,0.35,632,12.00,2.94,0.83,145.73,3.79,2.46,2.51,2.1,8.7,-18.0
204933,1197,1197,1197,1197,0.31,628,11.99,3.14,0.71,144.71,2.43,-2.82,6.15,2.6,7.8,-20.3
204933,1197,1197,1197,1197,0.33,630,11.99,3.27,1.53,143.64,-7.97,2.65,12.13,3.4,2.6,-21.1
204933,1197,1197,1197,1197,0.36,634,11.99,3.39,1.69,142.56,9.36,-2.73,4.68,3.4,-2.0,-22.4
204933,1197,1197,1197,1197,0.30,627,11.99,3.57,1.47,141.44,2.90,-4.85,13.06,4.2,6.3,-22.6
204933,1197,1197,1197,1197,0.34,631,12.01,3.67,1.62,140.39,-12.25,-1.77,14.38,3.4,0.5,-21.3
204933,1197,1197,1197,1197,0.34,631,12.00,3.59,1.93,139.30,19.40,-1.35,-4.24,2.9,17.8,-22.4
204933,1197,1197,1197,1197,0.34,631,11.99,3.31,1.89,138.18,2.21,-2.33,5.22,2.0,5.4,-22.1
204933,1197,1197,1197,1197,0.35,633,12.01,3.26,2.00,137.03,4.86,2.63,7.00,3.9,-0.1,-23.2
204934,1197,1197,1197,1197,0.36,634,12.01,3.63,2.48,135.88,6.29,2.50,9.58,3.1,5.7,-22.5
204934,1197,1197,1197,1197,0.38,636,12.01,3.52,2.48,134.66,-10.48,0.43,16.87,4.2,-10.2,-24.5
204934,1197,1197,1197,1197,0.35,632,12.00,3.63,2.26,133.40,1.58,-2.11,5.50,3.1,0.9,-26.3
204934,1197,1197,1197,1197,0.39,637,11.98,3.68,2.42,132.03,-9.71,2.54,17.99,3.2,-8.2,-26.6
204934,1197,1197,1197,1197,0.42,640,11.99,3.87,2.96,130.76,-2.31,1.13,5.70,2.4,-4.3,-26.4
204934,1197,1197,1197,1197,0.38,636,11.98,3.67,2.00,129.45,1.83,-4.92,13.66,0.7,4.8,-26.1
204934,1197,1197,1197,1197,0.35,633,11.98,3.87,2.37,128.21,4.88,1.07,7.40,3.6,1.9,-25.3
204934,1197,1197,1197,1197,0.38,636,11.98,4.00,2.57,127.01,11.91,-0.41,6.31,2.3,3.1,-23.7
204934,1197,1197,1197,1197,0.40,638,12.00,3.81,2.08,125.78,7.31,1.44,4.45,3.1,1.8,-24.2
204934,1197,1197,1197,1197,0.41,639,12.00,3.68,1.89,124.67,2.07,0.85,6.15,0.9,-6.0,-20.0
204934,1197,1197,1197,1197,0.41,639,12.01,3.64,1.82,123.52,-3.09,0.15,19.60,2.1,-2.0,-24.9
204934,1197,1197,1197,1197,0.44,642,11.98,3.59,1.79,122.38,-3.11,3.82,11.16,3.7,-0.9,-23.8
204934,1197,1197,1197,1197,0.37,635,11.98,3.91,1.76,121.19,-17.82,-0.64,19.60,5.4,-9.5,-24.8
204934,1197,1197,1197,1197,0.43,641,12.00,4.19,1.99,119.95,0.88,0.93,9.85,4.0,3.5,-26.9
204934,1197,1197,1197,1197,0.43,641,11.99,4.27,1.90,118.63,8.23,-2.23,3.20,3.8,-0.7,-26.7
204934,1197,1197,1197,1197,0.41,639,11.99,4.32,1.95,117.28,1.27,2.51,9.06,4.8,-5.1,-26.7
204934,1197,1197,1197,1197,0.42,640,11.99,4.26,1.42,115.88,7.43,-5.12,4.32,1.5,0.2,-29.3
204934,1197,1197,1197,1197,0.43,641,11.98,4.21,1.20,114.35,-0.74,5.36,8.88,4.4,-4.3,-30.7
204934,1197,1197,1197,1197,0.47,645,12.00,4.24,0.32,112.78,3.90,-0.38,7.80,2.7,-6.8,-28.3
204934,1197,1197,1197,1197,0.45,643,12.01,3.90,-0.17,111.26,0.72,-1.42,10.09,2.1,-9.6,-30.8
204935,1197,1197,1197,1197,0.47,645,11.99,3.92,-0.83,109.77,-2.89,-1.72,7.32,4.2,-7.6,-30.2
204935,1197,1197,1197,1197,0.47,645,11.99,4.36,-0.85,108.20,-6.95,-1.14,18.86,4.8,-2.1,-30.0
204935,1197,1197,1197,1197,0.45,643,12.01,4.30,-0.44,106.68,-4.98,-2.48,12.94,3.8,-6.9,-31.2
204935,1197,1197,1197,1197,0.47,645,12.00,4.48,-0.42,105.07,-2.51,2.16,9.56,3.5,6.9,-32.7
204935,1197,1197,1197,1197,0.40,638,12.00,4.69,-0.17,103.42,14.33,3.36,-1.24,2.0,1.5,-32.0
204935,1197,1197,1197,1197,0.48,646,11.98,4.53,-1.08,101.83,-6.14,-4.43,16.64,1.0,-2.0,-32.2
204935,1197,1197,1197,1197,0.47,645,12.01,4.42,-0.42,100.29,4.48,6.09,2.19,1.4,4.9,-30.2
204935,1197,1197,1197,1197,0.41,639,11.99,4.92,-0.27,98.67,1.98,0.25,13.90,2.3,7.0,-30.3
204935,1197,1197,1197,1197,0.49,647,11.99,5.07,0.09,97.15,-1.02,2.49,2.50,2.3,4.5,-31.7
204935,1197,1197,1197,1197,0.45,643,12.00,5.26,0.71,95.66,2.77,-1.63,6.76,2.4,5.4,-30.3
204935,1197,1197,1197,1197,0.52,650,11.99,4.93,1.12,94.15,-0.09,1.75,5.96,3.2,4.9,-30.8
204935,1197,1197,1197,1197,0.50,648,11.98,4.83,1.14,92.66,1.32,-6.54,16.05,0.5,3.5,-32.0
204935,1197,1197,1197,1197,0.45,643,11.99,4.73,1.36,91.16,-7.04,2.26,12.07,1.1,-1.6,-30.9
204935,1197,1197,1197,1197,0.50,648,12.00,4.49,1.25,89.69,-8.44,2.09,19.60,0.9,-5.9,-28.6
204935,1197,1197,1197,1197,0.45,643,11.99,4.76,1.85,88.24,6.50,0.84,5.60,3.3,-5.8,-30.0
204935,1197,1197,1197,1197,0.51,649,11.99,4.77,1.71,86.82,-4.89,-1.18,14.34,2.9,-0.2,-27.8
204935,1197,1197,1197,1197,0.49,647,11.98,5.35,2.07,85.37,8.15,-1.34,4.10,7.1,2.7,-29.6
204935,1197,1197,1197,1197,0.52,650,11.99,5.57,1.74,83.91,-5.17,1.11,14.29,7.3,-2.5,-29.7
204935,1197,1197,1197,1197,0.52,651,11.98,5.99,2.96,82.38,0.88,6.40,7.67,5.8,8.1,-32.4
204935,1197,1197,1197,1197,0.49,647,11.99,6.37,3.50,80.82,2.78,4.12,11.86,4.8,2.3,-32.2
204936,1197,1197,1197,1197,0.49,647,11.98,6.46,3.86,79.19,-5.51,0.91,5.81,2.9,-2.6,-34.0
204936,1197,1197,1197,1197,0.51,649,11.98,6.49,4.23,77.45,-5.51,0.02,9.33,2.4,2.7,-36.3
204936,1197,1197,1197,1197,0.52,650,11.99,6.28,4.37,75.64,-6.07,-1.41,11.37,-1.1,-8.9,-36.6
204936,1197,1197,1197,1197,0.52,651,11.98,5.99,3.77,73.86,-10.42,-0.34,13.63,-0.8,-5.5,-34.5
204936,1197,1197,1197,1197,0.50,648,11.98,5.56,4.01,72.09,2.09,4.54,7.05,-4.5,-2.7,-33.3
204936,1197,1197,1197,1197,0.51,649,11.99,5.40,3.46,70.37,2.33,-1.71,13.65,-4.5,-8.7,-34.3
204936,1197,1197,1197,1197,0.55,654,12.00,4.93,3.14,68.65,-0.38,2.38,8.70,-4.0,-0.9,-33.6
204936,1197,1197,1197,1197,0.47,645,12.01,4.64,2.55,66.83,-0.86,-2.27,8.33,-6.3,-9.3,-36.6
204936,1197,1197,1197,1197,0.54,653,11.99,4.16,2.21,64.98,13.02,-3.16,8.61,-5.2,4.5,-36.5
204936,1197,1197,1197,1197,0.50,648,11.98,3.73,1.77,63.11,-5.24,-2.26,15.43,-3.5,-7.5,-37.2
204936,1197,1197,1197,1197,0.52,651,11.99,3.48,2.17,61.30,7.52,2.67,3.20,-0.1,7.1,-36.6
204936,1197,1197,1197,1197,0.55,654,11.99,3.10,1.53,59.42,4.82,-0.88,8.64,0.7,2.0,-37.5
204936,1197,1197,1197,1197,0.50,648,12.00,3.09,2.07,57.59,6.35,-2.73,5.31,0.4,6.3,-34.7
204936,1197,1197,1197,1197,0.53,652,11.99,2.90,1.89,55.79,-0.07,2.91,4.40,3.3,3.4,-34.9
204936,1197,1197,1197,1197,0.54,653,11.99,3.19,2.49,54.13,-15.70,3.42,8.40,4.3,-10.5,-32.0
204936,1197,1197,1197,1197,0.58,657,12.00,3.05,2.66,52.43,-1.66,-4.27,12.09,3.8,-2.9,-33.4
204936,1197,1197,1197,1197,0.52,651,12.01,2.77,3.08,50.79,-2.98,0.98,10.47,3.8,0.4,-30.7
204936,1197,1197,1197,1197,0.52,651,11.99,2.85,3.46,49.21,-0.99,-3.61,13.07,2.0,6.2,-31.7
204936,1197,1197,1197,1197,0.52,651,11.99,3.07,3.84,47.65,1.44,-0.73,11.19,4.8,6.3,-31.1
204936,1197,1197,1197,1197,0.52,650,11.98,3.01,3.41,46.10,0.79,0.64,9.35,7.9,5.4,-31.0
204937,1197,1197,1197,1197,0.55,654,11.99,2.99,3.53,44.54,-7.58,1.88,9.80,7.8,4.4,-33.9
204937,1197,1197,1197,1197,0.56,655,11.99,2.92,3.52,42.99,-4.56,-1.76,9.78,5.9,1.3,-32.2
204937,1197,1197,1197,1197,0.56,655,11.99,2.70,3.60,41.47,10.94,-1.25,2.18,4.0,1.4,-30.3
204937,1197,1197,1197,1197,0.53,652,11.99,3.12,3.45,40.04,-5.69,2.57,12.48,4.2,5.5,-28.4
204937,1197,1197,1197,1197,0.57,656,11.99,3.24,4.05,38.67,6.40,-0.84,6.58,4.6,0.5,-27.1
204937,1197,1197,1197,1197,0.52,651,11.99,3.10,3.65,37.32,1.83,-2.83,1.98,2.6,-3.4,-24.0
204937,1197,1197,1197,1197,0.52,650,11.99,3.09,3.47,36.14,12.90,1.88,5.03,2.6,3.4,-22.4
204937,1197,1197,1197,1197,0.58,657,12.00,2.78,3.30,35.02,0.38,1.37,13.58,3.9,5.3,-20.9
204937,1197,1197,1197,1197,0.58,657,11.99,2.86,3.54,33.93,-1.44,0.71,2.88,3.2,4.6,-22.8
204937,1197,1197,1197,1197,0.54,653,11.97,3.01,3.69,32.85,-4.94,-2.45,10.25,1.2,3.8,-22.8
204937,1197,1197,1197,1197,0.54,653,11.97,2.88,3.83,31.73,-9.25,4.73,13.19,2.0,-6.8,-22.5
204937,1197,1197,1197,1197,0.62,661,11.98,2.93,4.07,30.60,-11.87,-2.95,17.46,1.4,1.0,-23.6
204937,1197,1197,1197,1197,0.56,655,11.98,2.97,4.36,29.54,14.53,2.29,2.34,-0.9,13.8,-22.5
204937,1197,1197,1197,1197,0.59,658,11.98,2.78,4.01,28.39,1.30,-1.86,4.91,-1.4,3.6,-22.5
204937,1197,1197,1197,1197,0.60,659,11.98,2.56,4.48,27.21,-7.73,-1.18,19.33,1.0,-1.5,-22.6
204937,1197,1197,1197,1197,0.57,656,11.98,2.61,4.06,26.04,-5.18,-2.47,5.63,0.7,14.5,-23.9
204937,1197,1197,1197,1197,0.58,657,12.00,2.55,4.62,24.82,-7.19,1.75,11.65,1.4,-2.0,-22.6
204937,1197,1197,1197,1197,0.58,657,11.97,2.88,4.81,23.70,-2.60,-0.91,9.12,0.4,-1.5,-21.4
204937,1197,1197,1197,1197,0.67,666,11.99,2.80,4.67,22.60,8.99,-0.36,8.72,1.8,4.8,-19.4
204937,1197,1197,1197,1197,0.58,657,11.98,2.48,3.64,21.54,6.46,-2.22,3.09,0.4,-3.5,-21.7
204938,1197,1197,1197,1197,0.61,660,11.98,2.29,3.71,20.37,-3.83,0.37,12.18,1.8,-4.7,-23.5
204938,1197,1197,1197,1197,0.59,658,11.98,2.26,3.24,19.26,1.37,0.38,5.84,-0.3,-4.1,-21.7
204938,1197,1197,1197,1197,0.62,661,11.98,2.32,3.43,18.25,-10.27,4.69,13.48,2.0,-10.6,-18.6
204938,1197,1197,1197,1197,0.63,662,11.99,2.31,3.42,17.32,5.83,1.40,5.90,2.2,4.3,-20.0
204938,1197,1197,1197,1197,0.61,660,11.99,2.33,3.10,16.40,-10.66,-1.88,18.14,1.2,-7.4,-17.3
204938,1197,1197,1197,1197,0.61,660,11.98,2.37,3.26,15.41,-6.62,2.29,11.60,3.2,-6.5,-19.8
204938,1197,1197,1197,1197,0.55,654,11.98,2.38,3.08,14.48,-0.40,-4.50,14.80,4.0,1.6,-16.0
204938,1197,1197,1197,1197,0.58,657,11.98,2.42,3.10,13.53,-7.28,3.41,16.16,5.0,-3.4,-19.2
204938,1197,1197,1197,1197,0.59,658,11.98,2.58,3.16,12.59,-18.79,0.88,15.84,4.9,-1.6,-18.2
204938,1197,1197,1197,1197,0.60,659,11.98,3.20,3.87,11.76,-2.49,0.45,7.01,5.3,2.9,-17.4
204938,1197,1197,1197,1197,0.61,660,11.99,3.25,3.67,10.87,2.49,-4.52,8.91,4.6,7.5,-19.5
204938,1197,1197,1197,1197,0.57,656,11.99,3.28,4.06,9.97,6.14,1.91,11.22,4.3,5.1,-18.7
204938,1197,1197,1197,1197,0.59,658,11.99,3.03,3.63,9.04,-3.25,-1.83,9.28,1.5,-0.5,-19.2
204938,1197,1197,1197,1197,0.61,660,11.98,2.74,4.14,8.15,2.63,1.97,8.55,2.2,3.6,-18.0
204938,1197,1197,1197,1197,0.60,659,11.98,2.98,4.20,7.25,3.11,-0.77,2.09,4.4,2.8,-18.9
204938,1197,1197,1197,1197,0.61,660,11.97,2.69,3.94,6.29,-1.63,1.95,9.40,3.0,1.5,-20.0
204938,1197,1197,1197,1197,0.63,662,11.99,3.00,3.86,5.39,0.58,1.35,8.28,4.2,4.8,-17.2
204938,1197,1197,1197,1197,0.59,658,11.99,2.91,4.13,4.44,2.23,0.03,11.95,2.1,3.2,-18.3
204938,1197,1197,1197,1197,0.62,661,11.97,2.76,4.00,3.58,-4.94,-2.00,12.20,1.5,-0.2,-17.0
204938,1197,1197,1197,1197,0.61,660,11.99,2.54,4.26,2.79,0.10,-0.85,12.31,1.8,2.4,-15.1
204939,1197,1197,1197,1197,0.59,658,11.97,2.27,3.45,1.89,1.42,-5.37,14.48,4.2,-2.7,-17.2
204939,1197,1197,1197,1197,0.66,665,11.97,2.34,4.09,1.01,-12.67,2.83,11.59,4.4,1.5,-19.3
204939,1197,1197,1197,1197,0.60,659,11.98,2.46,4.08,0.08,7.80,-1.29,4.82,-0.2,0.5,-18.1
204939,1197,1197,1197,1197,0.65,664,11.98,2.58,3.96,-0.86,-1.08,2.24,7.96,4.1,5.7,-19.9
204939,1197,1197,1197,1197,0.60,659,11.99,2.76,3.66,-1.75,6.81,2.90,3.67,3.5,2.9,-16.4
204939,1197,1197,1197,1197,0.59,658,11.99,2.95,3.46,-2.58,5.03,-2.27,11.94,4.2,-4.4,-16.4
204939,1197,1197,1197,1197,0.63,662,11.98,2.89,3.67,-3.46,7.33,-4.19,4.51,2.4,2.0,-16.9
204939,1197,1197,1197,1197,0.66,665,11.98,2.88,2.92,-4.32,6.09,0.61,4.01,2.4,-1.0,-15.1
204939,1197,1197,1197,1197,0.57,656,11.99,2.73,2.88,-5.19,-3.20,4.75,7.97,2.4,-4.0,-17.0
204939,1197,1197,1197,1197,0.62,661,11.97,3.32,3.20,-6.15,-3.32,-2.19,9.62,3.5,-2.3,-20.1
204939,1197,1197,1197,1197,0.62,661,11.99,3.40,3.28,-7.07,-1.90,0.78,4.36,1.1,-6.5,-16.8
204939,1197,1197,1197,1197,0.61,660,11.98,3.19,2.56,-8.04,-6.85,-1.22,11.05,3.4,-5.2,-18.2
204939,1197,1197,1197,1197,0.63,662,11.96,3.35,2.84,-9.05,-0.54,-2.67,12.38,2.6,-3.5,-22.8
204939,1197,1197,1197,1197,0.68,668,11.98,2.94,2.29,-10.18,4.31,-5.39,6.34,0.9,3.2,-21.5
204939,1197,1197,1197,1197,0.60,659,11.99,2.76,2.54,-11.30,5.27,0.89,7.93,-0.4,5.7,-20.5
204939,1197,1197,1197,1197,0.61,660,11.99,2.58,2.08,-12.29,0.67,-1.86,11.70,1.2,-10.9,-18.5
204939,1197,1197,1197,1197,0.59,658,11.98,2.66,2.00,-13.26,7.73,-6.22,4.32,-0.4,1.3,-19.0
204939,1197,1197,1197,1197,0.62,661,11.97,2.66,2.25,-14.11,0.12,1.13,13.80,-1.3,2.1,-17.0
204939,1197,1197,1197,1197,0.61,660,12.00,2.50,1.80,-15.11,7.48,2.31,2.71,0.2,-3.4,-22.0
204939,1197,1197,1197,1197,0.62,661,11.99,2.42,1.51,-16.21,-5.98,1.40,9.23,0.2,-3.5,-22.8
204940,1197,1197,1197,1197,0.67,666,11.97,2.32,2.24,-17.35,5.45,3.90,9.35,-2.6,7.6,-23.4
204940,1197,1197,1197,1197,0.61,660,11.97,2.12,2.01,-18.47,3.55,-0.43,7.97,-0.8,2.2,-23.7
204940,1197,1197,1197,1197,0.62,661,11.98,1.90,2.28,-19.68,5.41,1.92,8.87,1.3,-2.1,-26.1
204940,1197,1197,1197,1197,0.55,654,11.98,1.79,2.03,-21.03,-19.60,5.31,19.60,1.5,-12.2,-27.0
204940,1197,1197,1197,1197,0.59,658,11.97,1.78,2.17,-22.36,1.00,6.65,7.70,1.8,3.7,-25.4
204940,1197,1197,1197,1197,0.63,662,11.98,1.79,2.04,-23.65,-3.59,-2.19,10.80,2.4,1.8,-27.0
204940,1197,1197,1197,1197,0.65,664,11.97,1.65,2.35,-24.99,0.01,-1.88,5.69,2.7,8.7,-27.5
204940,1197,1197,1197,1197,0.60,659,11.98,1.64,2.20,-26.31,-3.87,-3.45,15.78,1.5,-2.9,-29.5
204940,1197,1197,1197,1197,0.60,659,11.96,1.40,2.03,-27.66,13.64,0.36,3.92,3.4,3.4,-26.9
204940,1197,1197,1197,1197,0.66,665,11.98,1.51,1.77,-28.96,-1.01,0.05,1.45,0.7,7.9,-27.3
204940,1197,1197,1197,1197,0.62,661,11.98,1.94,2.11,-30.26,-1.23,0.55,6.32,4.1,3.0,-26.4
204940,1197,1197,1197,1197,0.59,658,11.98,1.79,1.92,-31.55,4.93,0.59,5.09,3.3,9.6,-24.4
204940,1197,1197,1197,1197,0.60,659,11.97,1.88,1.96,-32.76,7.80,0.47,4.32,6.9,9.7,-22.7
204940,1197,1197,1197,1197,0.59,658,11.97,2.02,1.58,-33.98,3.88,-4.21,12.02,4.3,0.4,-22.9
204940,1197,1197,1197,1197,0.62,661,11.97,2.50,2.39,-35.15,1.87,2.77,2.60,5.9,2.1,-23.1
204940,1197,1197,1197,1197,0.59,658,11.97,2.62,1.82,-36.27,-13.97,-3.17,12.79,6.5,-5.3,-21.2
204940,1197,1197,1197,1197,0.63,662,11.98,2.85,1.93,-37.33,6.73,-0.15,3.63,4.4,4.3,-21.2
204940,1197,1197,1197,1197,0.60,659,11.98,3.08,1.99,-38.38,-11.27,4.21,12.28,5.6,-5.1,-20.2
204940,1197,1197,1197,1197,0.60,659,11.97,3.36,2.57,-39.40,8.76,-0.96,3.45,3.7,4.5,-19.4
204940,1197,1197,1197,1197,0.56,655,11.98,3.65,2.32,-40.35,-19.00,6.71,19.60,4.3,-5.4,-18.3
204941,1197,1197,1197,1197,0.62,661,11.98,3.96,3.06,-41.19,3.60,3.53,8.45,1.2,-2.4,-16.4
204941,1197,1197,1197,1197,0.59,658,11.99,4.00,2.52,-42.06,-17.92,0.50,14.13,1.5,-10.4,-17.0
204941,1197,1197,1197,1197,0.60,659,11.98,4.10,3.16,-42.86,1.39,4.57,8.67,0.5,4.9,-14.8
204941,1197,1197,1197,1197,0.57,656,11.98,4.25,3.11,-43.74,-2.44,-1.00,12.47,0.2,3.8,-18.7
204941,1197,1197,1197,1197,0.61,660,11.99,4.35,3.22,-44.71,-2.80,0.11,11.23,1.3,-0.6,-18.9
204941,1197,1197,1197,1197,0.55,654,11.98,4.48,3.65,-45.66,7.60,-0.70,3.01,0.2,6.3,-20.4
204941,1197,1197,1197,1197,0.54,653,11.99,3.90,3.06,-46.63,-2.71,2.86,13.21,0.1,-7.1,-17.5
204941,1197,1197,1197,1197,0.59,658,11.99,4.10,3.69,-47.48,8.35,-0.28,8.18,-3.8,0.2,-17.8
204941,1197,1197,1197,1197,0.58,657,11.97,3.63,3.63,-48.37,-6.05,2.51,12.23,-2.8,0.0,-18.9
204941,1197,1197,1197,1197,0.61,660,11.97,3.61,3.86,-49.37,-1.19,3.02,1.79,-2.8,-1.6,-20.8
204941,1197,1197,1197,1197,0.55,654,11.97,3.12,3.43,-50.46,-15.15,2.25,17.37,-2.6,-12.6,-21.6
204941,1197,1197,1197,1197,0.60,659,11.97,3.18,3.84,-51.56,0.88,5.47,10.79,-1.8,-5.4,-21.9
204941,1197,1197,1197,1197,0.61,660,11.98,3.23,3.60,-52.60,-2.85,-1.62,15.42,0.9,6.2,-19.5
204941,1197,1197,1197,1197,0.60,659,11.99,3.08,3.50,-53.62,3.83,-0.45,4.69,1.4,2.6,-19.5
204941,1197,1197,1197,1197,0.56,655,11.98,2.92,3.58,-54.65,-5.31,2.20,15.41,3.0,-5.1,-19.3
204941,1197,1197,1197,1197,0.55,654,11.98,2.67,3.39,-55.64,-2.74,-1.83,12.76,2.1,0.5,-19.8
204941,1197,1197,1197,1197,0.62,661,11.99,2.66,3.77,-56.60,-5.05,1.56,12.09,2.4,0.0,-17.9
204941,1197,1197,1197,1197,0.52,651,11.97,3.26,4.49,-57.44,2.95,-2.42,5.40,4.2,1.8,-17.9
204941,1197,1197,1197,1197,0.52,650,11.96,3.03,4.37,-58.31,0.69,-3.79,10.50,4.4,5.9,-18.4
204941,1197,1197,1197,1197,0.55,654,11.98,3.05,4.12,-59.16,2.68,0.35,9.73,4.8,2.9,-17.0
204942,1197,1197,1197,1197,0.52,650,11.97,3.05,4.33,-59.99,13.47,-0.10,-2.86,5.4,4.3,-16.9
