time,pwm1,pwm2,pwm3,pwm4,depth,press,voltage,roll,pitch,yaw,a_x,a_y,a_z,w_row,w_pitch,w_yaw
141907,1100,1100,1100,1100,0.06,604,12.26,6.90,0.78,-87.97,-0.04,1.05,8.67,0.4,0.4,0.4
141907,1100,1100,1100,1100,0.05,603,12.25,6.90,0.81,-87.95,-0.18,1.02,8.62,-0.5,0.8,0.2
141908,1197,1197,1197,1197,0.07,605,12.24,6.86,0.87,-87.93,-0.12,1.11,8.72,-1.3,1.2,0.1
141908,1197,1197,1197,1197,0.10,608,12.16,6.78,0.94,-87.91,-0.14,1.09,8.63,-1.6,1.3,0.1
141908,1197,1197,1197,1197,0.09,607,12.11,6.69,1.01,-87.90,-0.19,0.96,8.69,-2.0,1.3,0.2
141908,1197,1197,1197,1197,0.07,605,12.08,6.58,1.09,-87.88,-0.15,1.10,8.54,-2.0,1.2,0.1
141908,1197,1197,1197,1197,0.15,613,12.09,6.50,1.15,-87.87,-0.17,0.95,8.53,-1.5,1.0,0.1
141908,1197,1197,1197,1197,0.11,609,12.08,6.43,1.20,-87.86,-0.23,0.90,8.55,-0.9,0.5,0.2
141908,1197,1197,1197,1197,0.14,612,12.10,6.35,1.79,-87.85,3.04,0.24,9.14,2.6,8.2,-0.6
141908,1197,1197,1197,1197,0.15,613,12.08,6.71,1.80,-87.78,-9.98,-2.10,10.95,11.9,14.9,0.3
141908,1197,1197,1197,1197,0.15,613,12.07,7.76,2.88,-87.55,7.76,4.55,5.07,20.9,33.1,1.5
141908,1197,1197,1197,1197,0.19,618,12.08,8.82,3.38,-87.34,7.32,8.67,2.21,9.3,22.9,-2.6
141908,1197,1197,1197,1197,0.14,612,12.08,9.01,3.71,-87.52,-0.01,-2.45,6.00,-7.0,-1.7,-7.0
141908,1197,1197,1197,1197,0.22,621,12.08,8.61,3.18,-87.91,-4.08,-2.23,17.53,-8.9,-1.3,-7.2
141908,1197,1197,1197,1197,0.18,617,12.09,7.69,3.02,-88.32,-12.36,-2.63,13.48,-10.4,-5.3,-6.7
141908,1197,1197,1197,1197,0.21,620,12.08,7.23,2.56,-88.78,-2.64,3.73,5.67,-9.1,-6.5,-10.1
141908,1197,1197,1197,1197,0.21,620,12.08,7.01,1.99,-89.27,0.70,0.22,3.14,-11.7,-12.3,-9.4
141908,1197,1197,1197,1197,0.24,623,12.09,6.49,1.25,-89.89,-4.32,1.90,9.35,-12.2,-16.5,-12.1
141908,1197,1197,1197,1197,0.24,623,12.10,5.96,0.31,-90.53,-8.95,1.20,4.98,-12.0,-11.6,-12.4
141908,1197,1197,1197,1197,0.28,627,12.09,5.43,0.37,-91.17,-15.70,-0.02,9.83,-12.9,-9.6,-11.9
141908,1197,1197,1197,1197,0.27,626,12.10,4.96,0.28,-91.84,-1.25,2.88,6.96,-12.5,-6.7,-15.3
141908,1197,1197,1197,1197,0.25,624,12.08,4.56,-0.25,-92.61,3.75,1.02,5.69,-9.3,-6.7,-16.2
141909,1197,1197,1197,1197,0.22,621,12.09,4.11,-0.82,-93.50,-2.10,-3.52,6.89,-6.5,-5.6,-17.9
141909,1197,1197,1197,1197,0.24,623,12.10,3.29,-0.12,-102.83,-4.64,-0.38,12.18,6.5,-2.1,-31.4
141909,1197,1197,1197,1197,0.30,629,12.08,3.29,-0.57,-104.30,-2.56,0.78,4.71,4.8,-3.1,-30.5
141909,1197,1197,1197,1197,0.28,627,12.09,3.61,-0.53,-105.73,-3.31,4.75,16.70,4.6,-4.0,-27.1
141909,1197,1197,1197,1197,0.31,630,12.09,3.96,0.27,-107.11,-5.19,0.43,13.82,6.0,2.7,-26.9
141909,1197,1197,1197,1197,0.26,625,12.09,4.17,0.55,-108.43,-1.33,-0.60,13.30,7.1,4.5,-25.8
141909,1197,1197,1197,1197,0.29,628,12.08,4.38,0.61,-109.78,-2.31,-0.71,2.70,5.6,3.4,-27.9
141909,1197,1197,1197,1197,0.30,629,12.08,4.79,0.46,-111.13,8.52,1.73,10.86,6.3,2.3,-30.2
141909,1197,1197,1197,1197,0.34,633,12.11,4.83,0.44,-112.60,7.34,1.77,5.85,2.8,2.3,-28.9
141909,1197,1197,1197,1197,0.31,630,12.10,4.86,0.81,-114.08,-6.57,2.82,7.35,4.2,4.6,-29.7
141909,1197,1197,1197,1197,0.32,631,12.07,4.80,1.81,-115.46,-0.05,-1.01,13.46,1.4,3.5,-29.1
141909,1197,1197,1197,1197,0.33,632,12.07,4.50,3.29,-116.95,-1.46,-3.73,13.11,0.6,5.9,-30.3
141909,1197,1197,1197,1197,0.29,628,12.10,4.44,3.76,-118.40,4.41,-1.02,6.69,0.9,1.5,-29.3
141909,1197,1197,1197,1197,0.33,632,12.08,4.04,4.10,-119.90,3.20,2.83,0.89,4.8,4.8,-30.4
141909,1197,1197,1197,1197,0.35,634,12.09,3.94,4.06,-121.49,-10.25,-4.51,17.87,5.5,-2.9,-30.9
141909,1197,1197,1197,1197,0.33,632,12.08,4.04,3.62,-123.10,-8.67,-2.40,8.72,5.7,2.3,-32.1
141909,1197,1197,1197,1197,0.35,635,12.08,3.76,4.39,-124.78,-10.80,-1.23,16.70,3.5,-2.6,-34.2
141909,1197,1197,1197,1197,0.35,635,12.08,3.81,4.62,-126.54,0.61,2.00,9.47,4.9,-2.5,-37.1
141909,1197,1197,1197,1197,0.36,636,12.10,3.64,4.13,-128.34,12.47,3.05,0.41,4.5,-4.5,-36.3
141909,1197,1197,1197,1197,0.30,629,12.08,3.90,4.08,-130.09,-10.01,2.85,12.91,2.6,-3.2,-35.5
141910,1197,1197,1197,1197,0.35,635,12.09,3.63,4.64,-131.88,4.05,-7.13,13.29,3.4,-1.5,-34.4
141910,1197,1197,1197,1197,0.37,637,12.06,3.39,4.10,-133.64,-0.56,-1.39,7.64,4.9,2.1,-33.8
141910,1197,1197,1197,1197,0.35,635,12.09,3.63,4.42,-135.37,6.01,0.37,5.38,1.0,-1.6,-33.0
141910,1197,1197,1197,1197,0.42,642,12.08,3.47,4.88,-137.10,11.60,0.78,2.22,0.7,-0.7,-33.4
141910,1197,1197,1197,1197,0.41,641,12.09,3.27,3.91,-138.93,3.47,0.85,7.21,2.5,2.4,-36.3
141910,1197,1197,1197,1197,0.37,637,12.10,3.10,3.88,-140.77,-12.20,2.48,13.66,1.2,0.5,-36.1
141910,1197,1197,1197,1197,0.40,640,12.08,3.49,3.66,-142.53,-9.66,-0.83,12.92,2.9,4.9,-38.4
141910,1197,1197,1197,1197,0.36,636,12.09,3.49,3.78,-144.39,-1.90,4.03,8.59,4.2,2.5,-39.1
141910,1197,1197,1197,1197,0.42,642,12.10,3.55,4.42,-146.19,-10.62,-1.08,18.12,4.4,3.3,-34.9
141910,1197,1197,1197,1197,0.39,639,12.11,3.33,4.42,-147.95,6.51,-0.91,11.78,2.6,4.9,-34.6
141910,1197,1197,1197,1197,0.32,631,12.10,2.96,4.77,-149.67,-2.97,3.22,15.03,1.2,7.3,-34.1
141910,1197,1197,1197,1197,0.39,639,12.07,2.97,5.24,-151.44,0.32,3.48,8.02,0.1,4.1,-35.2
141910,1197,1197,1197,1197,0.39,639,12.08,3.09,5.17,-153.17,12.07,5.79,-3.82,-1.2,4.5,-33.8
141910,1197,1197,1197,1197,0.40,640,12.07,2.69,4.17,-154.93,16.60,6.75,-4.25,0.0,-3.7,-35.5
141910,1197,1197,1197,1197,0.41,641,12.08,2.51,3.59,-156.75,-3.05,-1.78,10.31,-1.7,-2.7,-36.4
141910,1197,1197,1197,1197,0.43,643,12.08,2.10,4.09,-158.57,-9.00,-2.56,19.60,-4.0,0.7,-37.0
141910,1197,1197,1197,1197,0.46,646,12.09,1.83,4.65,-160.43,1.69,-3.48,11.57,-3.2,1.9,-37.5
141910,1197,1197,1197,1197,0.41,641,12.10,1.52,4.46,-162.35,-1.60,-2.94,6.74,-1.9,-0.1,-38.6
141910,1197,1197,1197,1197,0.42,642,12.08,1.00,4.51,-164.38,-2.44,5.66,9.02,-2.9,2.3,-37.7
141910,1197,1197,1197,1197,0.46,646,12.08,0.44,5.08,-166.38,-6.99,-5.68,1.04,-1.8,3.2,-39.4
141911,1197,1197,1197,1197,0.39,639,12.09,-0.29,5.55,-168.45,-6.72,1.77,10.40,-2.5,4.2,-38.3
141911,1197,1197,1197,1197,0.45,645,12.07,-0.13,4.40,-170.42,1.29,1.31,9.19,4.1,3.8,-39.9
141911,1197,1197,1197,1197,0.42,642,12.09,-0.02,4.92,-172.34,-5.43,-4.92,10.02,3.3,2.7,-38.3
141911,1197,1197,1197,1197,0.43,643,12.05,-0.15,5.26,-174.31,11.57,1.94,5.57,5.7,3.2,-38.9
141911,1197,1197,1197,1197,0.46,646,12.09,0.02,5.28,-176.22,12.49,1.84,-0.18,5.5,4.7,-36.3
141911,1197,1197,1197,1197,0.47,647,12.08,0.05,4.68,-178.08,-5.46,3.63,11.57,4.0,5.7,-38.0
141911,1197,1197,1197,1197,0.42,642,12.08,0.20,5.42,-179.94,-7.91,-2.46,7.45,3.8,4.3,-35.4
141911,1197,1197,1197,1197,0.47,647,12.08,-0.02,5.25,178.31,-0.34,-1.23,8.56,4.1,5.1,-33.9
141911,1197,1197,1197,1197,0.45,645,12.07,0.03,5.94,176.58,12.09,-0.67,5.23,5.7,5.4,-34.9
141911,1197,1197,1197,1197,0.55,656,12.06,0.01,5.19,174.84,-8.42,-4.05,19.40,4.6,4.2,-33.7
141911,1197,1197,1197,1197,0.47,647,12.08,0.16,4.77,173.10,-9.14,0.88,10.60,6.0,-4.2,-34.9
141911,1197,1197,1197,1197,0.45,645,12.09,0.08,4.97,171.37,-1.37,-3.75,9.32,4.9,3.4,-35.5
141911,1197,1197,1197,1197,0.44,644,12.08,0.21,4.08,169.72,-0.23,1.77,3.90,5.3,2.5,-34.9
141911,1197,1197,1197,1197,0.51,651,12.08,0.26,5.70,168.05,1.24,1.88,5.13,4.1,4.6,-31.6
141911,1197,1197,1197,1197,0.51,651,12.09,0.44,4.72,166.51,5.25,-3.34,3.44,1.2,3.1,-30.7
141911,1197,1197,1197,1197,0.52,653,12.08,0.44,4.24,164.95,-11.00,3.32,13.61,1.3,3.0,-29.1
141911,1197,1197,1197,1197,0.51,651,12.09,0.41,5.00,163.52,-5.74,-0.98,0.65,4.9,0.0,-27.5
141911,1197,1197,1197,1197,0.52,652,12.07,0.10,4.81,162.11,5.38,1.82,11.23,3.4,3.7,-26.4
141911,1197,1197,1197,1197,0.45,645,12.08,0.50,4.13,160.69,-2.20,1.63,10.54,5.6,-0.4,-29.1
141911,1197,1197,1197,1197,0.50,650,12.08,0.86,4.23,159.25,1.24,-1.03,12.25,5.1,1.6,-29.2
141912,1197,1197,1197,1197,0.52,652,12.06,0.63,4.25,157.72,-10.84,-0.85,18.59,3.8,1.3,-31.9
141912,1197,1197,1197,1197,0.51,651,12.07,0.77,4.35,156.22,-2.67,-2.04,14.82,2.6,0.2,-30.8
141912,1197,1197,1197,1197,0.50,650,12.09,0.63,4.65,154.61,4.02,5.85,5.68,0.4,4.0,-32.8
141912,1197,1197,1197,1197,0.48,648,12.07,0.63,4.58,153.04,3.80,0.49,1.20,0.6,3.6,-30.9
141912,1197,1197,1197,1197,0.53,654,12.09,0.57,4.05,151.49,2.69,4.02,0.59,1.5,1.4,-31.3
141912,1197,1197,1197,1197,0.52,652,12.09,0.60,3.93,149.81,-10.32,4.24,16.51,1.6,-1.0,-34.1
141912,1197,1197,1197,1197,0.49,649,12.08,0.74,3.51,148.08,9.45,0.64,5.07,3.3,2.7,-32.7
141912,1197,1197,1197,1197,0.52,653,12.08,0.51,2.96,146.39,-0.99,-2.66,6.57,1.2,0.7,-34.3
141912,1197,1197,1197,1197,0.52,652,12.08,0.56,2.94,144.80,-15.51,1.70,10.92,3.8,2.4,-31.6
141912,1197,1197,1197,1197,0.50,650,12.07,0.59,2.66,143.24,4.29,2.09,0.11,1.2,-2.7,-31.6
141912,1197,1197,1197,1197,0.53,654,12.08,0.54,2.29,141.65,6.88,6.20,-5.18,0.7,-0.2,-32.7
141912,1197,1197,1197,1197,0.53,654,12.07,0.71,2.09,140.05,-14.09,-0.18,14.51,1.7,-3.2,-33.8
141912,1197,1197,1197,1197,0.52,653,12.06,0.65,2.32,138.43,0.36,-3.82,16.57,1.8,2.4,-31.4
141912,1197,1197,1197,1197,0.52,653,12.07,0.40,1.74,136.93,9.07,1.75,0.11,2.8,0.1,-28.7
141912,1197,1197,1197,1197,0.52,653,12.08,0.60,1.90,135.49,-6.59,1.83,14.47,3.4,1.2,-27.3
141912,1197,1197,1197,1197,0.56,657,12.08,0.88,1.73,134.08,4.43,-3.32,12.48,4.3,0.4,-27.0
141912,1197,1197,1197,1197,0.56,657,12.08,0.99,1.58,132.63,-5.90,1.25,14.21,5.4,0.2,-30.1
141912,1197,1197,1197,1197,0.53,654,12.08,1.43,1.58,131.19,15.02,-2.88,-1.94,4.7,-1.2,-28.1
141912,1197,1197,1197,1197,0.59,660,12.07,1.30,1.62,129.89,4.52,0.34,19.60,0.7,0.7,-24.5
141912,1197,1197,1197,1197,0.58,659,12.09,1.36,1.66,128.62,-16.88,3.65,19.60,3.6,-4.0,-27.4
141913,1197,1197,1197,1197,0.57,658,12.08,1.63,2.91,127.35,-12.98,-1.03,12.81,1.3,-0.7,-24.8
141913,1197,1197,1197,1197,0.55,656,12.07,1.54,2.69,126.25,-0.86,0.50,9.88,-0.1,-1.8,-21.5
141913,1197,1197,1197,1197,0.56,657,12.07,1.28,2.89,125.22,14.41,-1.78,0.91,-3.5,0.9,-19.6
141913,1197,1197,1197,1197,0.53,654,12.08,1.33,2.61,124.27,-9.05,-0.63,2.32,0.1,0.5,-18.0
141913,1197,1197,1197,1197,0.56,657,12.07,1.23,3.03,123.24,0.92,2.95,5.68,0.5,1.9,-20.1
141913,1197,1197,1197,1197,0.58,659,12.08,0.87,2.67,122.20,-2.11,2.57,5.75,1.2,-0.2,-20.4
141913,1197,1197,1197,1197,0.56,657,12.07,0.43,2.36,121.17,1.24,-3.63,12.09,2.6,1.7,-20.1
141913,1197,1197,1197,1197,0.54,655,12.08,0.28,2.79,120.21,16.50,-5.50,2.58,0.8,4.4,-20.4
141913,1197,1197,1197,1197,0.59,660,12.07,0.36,1.82,119.32,-11.76,-1.78,14.93,2.5,5.6,-19.0
141913,1197,1197,1197,1197,0.58,659,12.08,0.51,2.06,118.43,-12.68,0.37,17.05,2.7,3.0,-19.8
141913,1197,1197,1197,1197,0.61,662,12.08,0.53,2.03,117.57,-7.57,2.67,16.11,3.6,0.7,-16.8
141913,1197,1197,1197,1197,0.56,657,12.07,0.42,2.04,116.84,-9.97,0.11,10.20,4.5,1.0,-12.0
141913,1197,1197,1197,1197,0.63,664,12.07,0.54,2.51,116.18,-13.94,-0.02,17.64,2.9,2.3,-11.8
141913,1197,1197,1197,1197,0.56,657,12.08,0.98,2.55,115.61,3.43,-5.56,1.46,3.3,3.1,-9.9
141913,1197,1197,1197,1197,0.60,661,12.08,1.25,2.10,115.12,3.69,-1.90,1.81,3.5,1.6,-10.6
141913,1197,1197,1197,1197,0.59,660,12.09,1.15,2.60,114.56,8.53,2.39,15.31,4.1,4.5,-12.0
141913,1197,1197,1197,1197,0.62,663,12.07,1.64,2.48,113.93,7.97,3.64,4.43,3.6,7.7,-14.6
141913,1197,1197,1197,1197,0.62,663,12.09,1.82,2.34,113.23,-4.33,5.27,8.64,3.8,3.0,-14.4
141913,1197,1197,1197,1197,0.61,662,12.08,2.04,3.58,112.63,-0.53,-0.77,11.97,5.2,7.3,-11.5
141913,1197,1197,1197,1197,0.59,660,12.06,1.87,3.52,112.02,-9.15,-0.19,19.60,5.6,-0.5,-11.5
141914,1197,1197,1197,1197,0.62,663,12.07,2.47,3.42,111.47,-12.42,-2.16,13.22,7.3,4.3,-9.9
141914,1197,1197,1197,1197,0.52,653,12.06,2.62,4.46,110.90,-14.12,-3.99,14.38,7.3,3.4,-10.5
141914,1197,1197,1197,1197,0.58,659,12.08,3.10,5.12,110.31,0.28,2.30,6.87,8.4,1.7,-12.8
141914,1197,1197,1197,1197,0.57,658,12.06,3.36,4.89,109.61,7.00,6.44,5.23,5.9,0.4,-12.5
141914,1197,1197,1197,1197,0.64,665,12.09,3.60,4.66,108.87,1.18,-2.99,12.86,4.0,2.4,-16.9
141914,1197,1197,1197,1197,0.59,660,12.08,3.45,4.72,108.06,-0.51,5.79,5.97,1.7,0.4,-15.9
141914,1197,1197,1197,1197,0.64,665,12.06,3.80,4.27,107.36,-7.97,-2.55,10.58,3.0,0.8,-15.3
141914,1197,1197,1197,1197,0.59,660,12.07,3.71,5.55,106.55,-4.51,-0.62,17.17,0.5,3.2,-16.8
141914,1197,1197,1197,1197,0.60,661,12.08,3.39,6.18,105.71,5.52,0.01,7.86,-0.4,0.9,-16.4
141914,1197,1197,1197,1197,0.64,665,12.07,3.11,6.03,104.86,1.39,4.69,6.31,-1.8,3.7,-17.5
141914,1197,1197,1197,1197,0.62,663,12.07,3.08,5.33,104.00,5.27,-1.90,8.38,-2.4,2.4,-18.9
141914,1197,1197,1197,1197,0.59,660,12.08,2.60,5.45,103.12,-6.88,1.60,11.87,-2.1,-1.0,-14.9
141914,1197,1197,1197,1197,0.59,660,12.08,2.18,5.10,102.28,-7.29,-1.67,19.60,0.5,-3.4,-16.1
141914,1197,1197,1197,1197,0.62,663,12.07,1.99,4.78,101.50,5.19,-1.25,6.71,1.7,-0.4,-15.6
141914,1197,1197,1197,1197,0.62,663,12.08,2.04,4.79,100.76,-1.02,2.04,7.04,-1.3,1.8,-14.5
141914,1197,1197,1197,1197,0.58,659,12.07,1.80,5.27,100.14,-12.22,4.21,12.24,1.3,-0.5,-11.8
141914,1197,1197,1197,1197,0.61,662,12.08,1.95,4.65,99.57,-4.57,-1.66,9.68,0.5,-3.1,-10.8
141914,1197,1197,1197,1197,0.63,664,12.09,1.87,4.62,98.99,-2.89,3.01,10.61,0.5,-2.5,-11.0
141914,1197,1197,1197,1197,0.66,667,12.07,2.14,4.39,98.46,-9.81,-5.31,14.75,0.4,-0.5,-10.8
141914,1197,1197,1197,1197,0.57,658,12.07,1.94,4.24,97.83,-3.82,-6.83,11.57,-0.1,-2.1,-13.3
141915,1197,1197,1197,1197,0.60,661,12.07,1.98,4.13,97.20,3.70,3.67,10.20,0.5,0.5,-12.8
141915,1197,1197,1197,1197,0.62,663,12.07,1.99,3.70,96.59,-4.13,-0.10,8.42,-1.8,-3.0,-12.9
141915,1197,1197,1197,1197,0.62,663,12.07,1.74,4.29,95.83,9.49,3.38,6.72,-1.3,-2.0,-17.2
141915,1197,1197,1197,1197,0.58,659,12.08,1.84,3.71,95.11,-5.06,-0.71,6.89,-2.0,-1.2,-14.7
141915,1197,1197,1197,1197,0.67,668,12.09,1.59,4.13,94.36,2.03,-5.12,7.07,-3.1,5.1,-17.7
141915,1197,1197,1197,1197,0.61,662,12.07,1.38,3.72,93.54,3.99,3.12,10.81,-2.8,3.0,-15.0
141915,1197,1197,1197,1197,0.64,665,12.08,1.56,3.56,92.75,-6.32,0.45,10.05,-0.1,-6.3,-15.5
141915,1197,1197,1197,1197,0.62,663,12.06,1.02,3.64,91.88,-1.98,-0.66,14.05,-0.4,-1.5,-15.7
141915,1197,1197,1197,1197,0.61,662,12.07,0.80,2.95,91.06,-14.75,-1.13,11.51,2.5,1.0,-17.9
141915,1197,1197,1197,1197,0.61,662,12.06,0.84,2.58,90.19,9.69,2.03,-1.13,-1.3,-0.8,-17.9
141915,1197,1197,1197,1197,0.61,662,12.06,1.15,1.79,89.32,1.70,-1.46,12.38,2.0,0.1,-20.7
141915,1197,1197,1197,1197,0.63,664,12.08,0.76,2.48,88.35,-7.15,0.35,11.05,0.9,-1.0,-20.4
141915,1197,1197,1197,1197,0.63,664,12.08,0.71,1.88,87.41,7.48,2.73,3.02,1.3,1.5,-18.2
141915,1197,1197,1197,1197,0.60,661,12.08,0.72,1.80,86.53,-7.35,-0.87,15.28,-0.3,3.8,-17.8
141915,1197,1197,1197,1197,0.65,666,12.07,1.01,1.80,85.61,-4.25,-1.15,13.86,-0.1,1.8,-17.3
141915,1197,1197,1197,1197,0.64,665,12.07,1.01,2.05,84.72,4.82,0.71,9.52,2.3,0.4,-16.9
141915,1197,1197,1197,1197,0.68,670,12.07,1.04,1.31,83.84,-2.94,7.50,6.16,3.0,-2.4,-17.5
141915,1197,1197,1197,1197,0.64,665,12.08,1.55,1.50,82.91,12.15,4.64,3.05,1.4,0.2,-17.4
141915,1197,1197,1197,1197,0.65,666,12.07,1.66,1.15,82.07,-2.94,0.70,16.09,4.5,0.3,-15.7
141915,1197,1197,1197,1197,0.64,665,12.07,1.58,1.19,81.27,-2.28,3.93,7.11,4.1,-5.4,-17.0
141916,1197,1197,1197,1197,0.65,666,12.06,1.87,0.82,80.54,9.31,0.64,4.40,4.3,-2.3,-14.7
141916,1197,1197,1197,1197,0.62,663,12.07,2.24,0.57,79.88,-8.03,2.20,5.38,7.7,-0.5,-12.9
141916,1197,1197,1197,1197,0.64,665,12.07,2.50,0.93,79.37,3.06,-4.80,9.21,8.3,2.9,-7.7
141916,1197,1197,1197,1197,0.64,665,12.08,2.95,0.57,79.00,5.66,3.92,3.96,9.1,7.4,-7.4
141916,1197,1197,1197,1197,0.64,665,12.07,3.93,0.17,78.72,-9.22,1.00,8.38,8.2,-1.2,-3.8
141916,1197,1197,1197,1197,0.60,661,12.07,4.10,0.54,78.50,-0.87,-3.46,9.70,6.9,2.6,-4.1
141916,1197,1197,1197,1197,0.61,662,12.07,4.27,1.27,78.31,-9.05,-2.18,12.67,4.3,8.1,-3.3
141916,1197,1197,1197,1197,0.68,669,12.08,4.68,1.11,78.15,6.14,-0.35,6.87,6.5,5.4,-4.6
141916,1197,1197,1197,1197,0.65,666,12.08,5.20,0.94,78.05,1.05,0.32,9.98,5.6,3.4,-2.5
141916,1197,1197,1197,1197,0.64,665,12.05,5.42,1.44,78.05,-3.34,-2.48,7.98,5.8,3.7,-0.1
141916,1197,1197,1197,1197,0.65,666,12.06,5.53,1.42,78.14,-2.70,3.16,12.34,7.1,2.2,1.8
141916,1197,1197,1197,1197,0.61,662,12.07,5.71,2.03,78.26,-4.00,-1.50,12.99,5.0,4.1,1.8
141916,1197,1197,1197,1197,0.64,665,12.08,5.62,2.69,78.37,9.29,-3.64,5.74,3.1,10.2,4.0
141916,1197,1197,1197,1197,0.63,664,12.08,5.48,2.27,78.50,-5.08,0.12,9.04,1.3,-0.3,1.5
141916,1197,1197,1197,1197,0.62,663,12.07,5.41,2.87,78.58,19.60,2.10,3.97,-1.4,2.0,0.7
141916,1197,1197,1197,1197,0.68,669,12.08,5.78,1.87,78.59,8.41,-0.12,6.21,-3.0,1.5,-2.0
141916,1197,1197,1197,1197,0.60,661,12.08,5.63,1.80,78.49,-1.23,5.64,7.27,-1.1,-1.8,-2.4
141916,1197,1197,1197,1197,0.65,666,12.08,5.56,1.78,78.27,9.03,3.04,6.94,-3.1,-3.5,-5.4
141916,1197,1197,1197,1197,0.67,668,12.06,5.37,0.70,78.03,15.55,2.20,1.38,-6.7,-5.6,-4.4
141916,1197,1197,1197,1197,0.63,664,12.07,5.35,0.47,77.72,-11.36,-2.10,19.60,-4.2,-1.9,-7.7
141917,1197,1197,1197,1197,0.64,665,12.07,4.90,0.81,77.25,10.33,-2.34,-1.91,-4.4,-3.1,-9.4
141917,1197,1197,1197,1197,0.61,662,12.07,4.96,-0.22,76.62,-10.48,3.16,13.35,-3.7,-3.1,-12.8
141917,1197,1197,1197,1197,0.61,662,12.08,4.84,-0.13,75.90,-14.02,0.10,12.80,-2.7,-4.2,-12.3
141917,1197,1197,1197,1197,0.65,666,12.07,4.63,0.51,75.21,5.63,3.55,-0.11,-1.0,-4.6,-13.9
141917,1197,1197,1197,1197,0.67,668,12.06,4.80,0.13,74.36,1.62,-0.84,14.66,-1.8,0.8,-18.2
141917,1197,1197,1197,1197,0.68,670,12.06,5.16,-0.64,73.47,1.50,-3.82,6.69,-2.6,2.3,-17.9
141917,1197,1197,1197,1197,0.63,664,12.06,4.78,-0.24,72.57,-1.77,2.14,16.11,-4.0,0.5,-19.0
141917,1197,1197,1197,1197,0.64,665,12.07,4.32,0.27,71.63,9.52,-2.16,4.51,-2.2,0.5,-21.0
141917,1197,1197,1197,1197,0.62,663,12.05,4.16,-0.48,70.60,-10.32,1.72,19.60,-1.8,0.9,-19.2
141917,1197,1197,1197,1197,0.63,664,12.07,4.16,-0.07,69.63,-5.46,0.98,16.57,-0.6,2.7,-18.2
141917,1197,1197,1197,1197,0.55,656,12.07,4.12,-0.44,68.74,6.08,-0.30,5.51,3.1,3.1,-18.9
141917,1197,1197,1197,1197,0.59,660,12.08,4.50,-0.35,67.66,-5.57,1.01,16.47,0.6,0.8,-21.5
141917,1197,1197,1197,1197,0.57,658,12.08,4.57,0.07,66.67,7.30,-0.76,2.23,1.6,1.8,-20.1
141917,1197,1197,1197,1197,0.64,665,12.06,4.29,0.30,65.58,2.72,-0.44,4.22,1.2,2.3,-23.0
