time,pwm1,pwm2,pwm3,pwm4,depth,press,voltage,roll,pitch,yaw,a_x,a_y,a_z,w_row,w_pitch,w_yaw
144648,1100,1100,1100,1100,0.15,598,12.16,6.50,1.62,135.27,-0.19,1.00,8.81,0.2,-0.5,0.0
144648,1100,1100,1100,1100,0.15,598,12.13,6.51,1.61,135.27,-0.24,1.01,8.74,-0.1,-0.1,0.0
144648,1197,1197,1197,1197,0.15,598,12.13,6.50,1.63,135.27,-1.75,1.04,9.03,1.3,1.5,-0.1
144648,1197,1197,1197,1197,0.11,594,12.12,6.56,1.88,135.28,-1.78,0.94,9.33,1.3,4.9,0.0
144648,1197,1197,1197,1197,0.17,600,12.03,6.59,2.36,135.32,6.95,4.74,0.91,3.7,7.7,-0.2
144648,1197,1197,1197,1197,0.19,603,12.01,7.19,2.29,135.43,-9.02,-0.96,10.29,6.0,11.2,-0.7
144649,1197,1197,1197,1197,0.17,600,12.00,7.21,2.67,135.39,-11.71,-1.04,15.70,-2.9,4.6,-4.2
144649,1197,1197,1197,1197,0.20,604,12.00,6.77,3.06,135.14,-3.41,1.52,11.73,-6.9,-0.9,-8.9
144649,1197,1197,1197,1197,0.17,600,12.01,6.69,3.24,134.78,-6.50,1.54,16.74,-6.8,-4.9,-7.6
144649,1197,1197,1197,1197,0.22,606,11.99,6.49,3.11,134.39,-0.43,1.96,14.32,-6.8,0.4,-7.4
144649,1197,1197,1197,1197,0.19,603,12.01,6.43,2.30,133.98,-16.71,0.02,16.58,-4.2,-8.9,-8.9
144649,1197,1197,1197,1197,0.18,601,12.01,5.81,2.46,133.43,3.79,5.53,8.32,-4.9,-7.3,-11.5
144649,1197,1197,1197,1197,0.26,610,12.00,5.32,2.80,132.79,-5.09,1.37,11.34,-5.7,-5.9,-13.7
144649,1197,1197,1197,1197,0.22,606,12.00,4.67,3.17,132.07,1.11,-2.23,11.14,-5.9,-5.8,-15.0
144649,1197,1197,1197,1197,0.24,608,12.01,3.87,3.41,131.31,3.31,3.58,6.85,-6.0,-4.2,-15.0
144649,1197,1197,1197,1197,0.29,613,12.00,3.70,3.19,130.46,-8.97,-4.17,17.90,-6.5,-2.0,-19.5
144649,1197,1197,1197,1197,0.23,607,11.99,3.03,2.62,129.48,0.40,1.52,9.42,-7.6,-5.6,-19.5
144649,1197,1197,1197,1197,0.28,612,12.00,2.73,2.34,128.36,4.99,3.03,8.68,-4.4,-7.3,-21.9
144649,1197,1197,1197,1197,0.23,607,12.01,2.57,2.42,127.15,-6.41,-4.43,9.13,-2.1,-10.3,-23.1
144649,1197,1197,1197,1197,0.33,617,12.00,2.20,1.94,125.87,3.45,-0.84,5.93,-0.9,-3.7,-25.6
144649,1197,1197,1197,1197,0.33,617,12.02,1.62,1.51,124.54,-4.59,6.95,8.66,-2.7,-6.9,-25.5
144649,1197,1197,1197,1197,0.35,620,12.00,1.74,0.69,123.15,-10.50,-3.12,12.99,-1.6,-6.0,-28.3
144649,1197,1197,1197,1197,0.34,618,12.00,1.26,1.29,121.71,7.76,-2.65,9.52,0.5,-1.1,-28.7
144649,1197,1197,1197,1197,0.33,617,11.99,1.40,0.98,120.27,4.83,-4.90,11.07,4.3,-3.2,-29.6
144649,1197,1197,1197,1197,0.35,619,12.00,1.24,1.09,118.83,1.82,-1.51,6.79,2.9,-2.5,-27.7
144649,1197,1197,1197,1197,0.35,619,12.00,1.19,0.97,117.39,5.74,3.48,8.60,2.6,-4.5,-28.9
144650,1197,1197,1197,1197,0.35,620,12.00,1.27,0.67,115.89,-0.83,1.19,7.41,2.2,-4.0,-29.5
144650,1197,1197,1197,1197,0.32,616,12.01,1.22,0.78,114.34,-4.30,-1.11,11.77,2.9,-1.5,-30.4
144650,1197,1197,1197,1197,0.37,622,11.99,1.55,0.70,112.82,1.89,-1.52,12.26,2.4,-2.1,-28.6
144650,1197,1197,1197,1197,0.36,621,12.01,1.42,0.65,111.34,2.46,-5.82,7.24,1.8,-2.4,-30.4
144650,1197,1197,1197,1197,0.35,620,12.00,1.43,0.96,109.84,3.04,-0.21,9.67,4.0,0.0,-30.3
144650,1197,1197,1197,1197,0.41,626,12.00,1.16,1.20,108.33,-10.10,0.45,15.48,5.5,2.8,-30.4
144650,1197,1197,1197,1197,0.37,622,12.00,1.30,1.35,106.79,-0.34,-2.00,12.14,5.8,-1.3,-31.2
144650,1197,1197,1197,1197,0.38,623,12.00,1.43,1.68,105.20,-3.24,0.68,11.68,3.2,1.3,-32.5
144650,1197,1197,1197,1197,0.39,624,12.00,1.71,1.52,103.62,2.24,-0.77,12.23,4.2,3.4,-32.8
144650,1197,1197,1197,1197,0.42,627,12.00,2.11,1.30,102.03,1.88,-7.08,7.05,3.4,-0.7,-32.3
144650,1197,1197,1197,1197,0.36,621,12.02,2.19,1.83,100.50,8.24,2.88,-0.85,4.5,7.0,-31.7
144650,1197,1197,1197,1197,0.43,628,12.01,2.70,1.91,98.90,8.80,1.33,7.34,4.0,-0.4,-31.4
144650,1197,1197,1197,1197,0.42,627,12.01,2.69,2.14,97.26,3.79,3.84,5.98,5.6,3.7,-32.3
144650,1197,1197,1197,1197,0.46,631,12.01,2.94,2.05,95.66,0.24,-1.44,9.12,3.5,0.4,-33.8
144650,1197,1197,1197,1197,0.43,628,12.00,3.07,2.45,94.03,10.59,0.74,1.39,4.5,2.9,-32.0
144650,1197,1197,1197,1197,0.42,627,12.00,2.96,3.04,92.46,4.39,-0.49,0.79,6.8,0.4,-33.3
144650,1197,1197,1197,1197,0.42,627,12.00,3.46,2.57,90.82,-5.54,-0.59,11.27,3.8,3.1,-33.1
144650,1197,1197,1197,1197,0.42,627,12.00,4.06,2.43,89.24,1.16,-4.59,13.96,3.8,2.2,-33.1
144650,1197,1197,1197,1197,0.48,633,12.01,4.11,2.62,87.53,-0.50,0.30,7.67,2.3,3.0,-34.4
144650,1197,1197,1197,1197,0.45,630,12.00,3.96,2.43,85.89,7.60,2.89,4.96,2.3,0.9,-32.9
144651,1197,1197,1197,1197,0.43,628,12.00,4.14,1.55,84.22,-12.48,4.93,12.37,2.9,-0.2,-34.8
144651,1197,1197,1197,1197,0.45,630,12.00,4.49,1.10,82.57,-12.17,-2.87,15.66,2.2,-2.6,-32.3
144651,1197,1197,1197,1197,0.44,629,12.00,4.65,0.78,80.93,9.77,4.99,2.84,1.5,-4.2,-32.3
144651,1197,1197,1197,1197,0.44,629,12.00,4.65,0.34,79.33,-8.55,0.22,9.83,-0.3,-0.1,-31.4
144651,1197,1197,1197,1197,0.48,633,12.00,4.33,0.59,77.72,-15.27,-0.78,19.60,-0.9,-1.0,-33.0
144651,1197,1197,1197,1197,0.48,633,12.00,4.23,0.52,76.06,2.84,0.55,5.20,0.5,-3.6,-31.6
144651,1197,1197,1197,1197,0.45,630,12.00,4.23,0.79,74.48,8.45,1.34,-0.54,1.5,-1.0,-33.6
144651,1197,1197,1197,1197,0.48,633,12.01,4.51,0.83,72.81,-3.96,4.19,11.70,-0.2,5.2,-33.3
144651,1197,1197,1197,1197,0.48,633,12.00,4.49,0.51,71.13,-13.86,-0.36,18.08,-0.2,-0.5,-33.8
144651,1197,1197,1197,1197,0.49,634,12.01,3.79,1.34,69.44,-7.06,3.48,13.24,-0.9,3.2,-32.9
144651,1197,1197,1197,1197,0.48,633,12.00,3.75,0.94,67.72,-4.00,4.48,7.61,-2.6,-2.3,-36.6
144651,1197,1197,1197,1197,0.49,634,11.99,3.67,1.03,65.94,-0.36,3.51,11.85,1.0,2.4,-37.9
144651,1197,1197,1197,1197,0.48,633,12.01,3.78,1.10,64.09,3.73,0.32,4.29,-1.5,-1.0,-36.1
144651,1197,1197,1197,1197,0.49,634,11.98,3.71,1.39,62.25,1.16,4.42,8.42,-0.2,3.8,-37.9
144651,1197,1197,1197,1197,0.47,632,12.01,3.43,1.54,60.43,-7.73,1.56,12.21,-1.0,3.8,-34.6
144651,1197,1197,1197,1197,0.52,637,12.00,3.23,1.50,58.67,3.28,-2.96,11.08,0.0,10.1,-34.5
144651,1197,1197,1197,1197,0.50,635,12.01,3.01,1.45,56.93,-8.65,2.70,9.91,-1.2,-2.6,-32.8
144651,1197,1197,1197,1197,0.55,641,12.02,2.88,1.47,55.19,4.45,1.34,9.25,-0.3,-0.1,-36.4
144651,1197,1197,1197,1197,0.54,640,12.00,2.82,1.59,53.36,-1.06,0.11,10.47,0.9,2.0,-34.6
144651,1197,1197,1197,1197,0.52,637,11.99,2.76,2.01,51.66,2.98,-1.00,13.28,2.1,6.8,-33.4
144652,1197,1197,1197,1197,0.50,635,11.99,2.91,1.83,49.99,-17.05,-3.01,16.53,3.9,3.5,-33.6
144652,1197,1197,1197,1197,0.53,639,12.00,2.43,2.36,48.32,-7.98,3.25,18.95,2.7,6.9,-33.7
144652,1197,1197,1197,1197,0.53,639,12.00,2.47,2.51,46.71,-11.70,-0.19,14.39,3.1,5.8,-34.1
144652,1197,1197,1197,1197,0.55,641,11.99,2.56,2.82,45.03,-2.53,0.30,10.98,0.9,9.5,-33.9
144652,1197,1197,1197,1197,0.54,640,12.01,2.37,3.54,43.42,6.40,1.61,2.26,0.1,1.5,-33.1
144652,1197,1197,1197,1197,0.55,641,11.99,1.83,3.83,41.82,-4.45,1.23,12.45,-1.5,3.4,-31.0
144652,1197,1197,1197,1197,0.57,643,12.00,1.72,3.91,40.29,-7.38,-2.64,14.31,-1.9,7.8,-30.6
144652,1197,1197,1197,1197,0.54,640,11.99,1.57,3.45,38.72,-19.60,3.21,19.60,-0.5,3.1,-30.6
144652,1197,1197,1197,1197,0.56,642,11.99,1.63,3.22,37.20,-13.39,-4.89,14.48,4.4,-2.9,-31.3
144652,1197,1197,1197,1197,0.55,641,12.00,1.58,3.40,35.63,1.57,-3.21,13.14,5.9,0.7,-31.1
144652,1197,1197,1197,1197,0.54,640,11.99,1.48,3.57,33.99,-2.76,-1.47,12.43,3.1,1.3,-34.2
144652,1197,1197,1197,1197,0.55,641,11.99,1.42,3.93,32.25,7.96,-2.94,3.30,3.9,-5.1,-34.9
144652,1197,1197,1197,1197,0.56,642,11.99,1.18,3.70,30.53,6.03,-1.59,6.09,4.3,1.7,-34.5
144652,1197,1197,1197,1197,0.56,642,12.00,1.18,3.54,28.88,5.25,-0.42,6.45,4.6,-2.5,-33.3
144652,1197,1197,1197,1197,0.52,638,11.99,1.40,3.74,27.22,11.51,-1.28,-2.12,3.8,7.5,-33.3
144652,1197,1197,1197,1197,0.57,643,12.00,1.47,4.01,25.69,9.97,-0.23,10.14,6.6,7.8,-28.8
144652,1197,1197,1197,1197,0.54,640,12.00,1.44,3.80,24.19,-1.14,-3.19,13.91,5.2,-0.5,-28.7
144652,1197,1197,1197,1197,0.58,644,12.01,1.61,3.86,22.78,15.28,4.38,0.69,6.3,3.2,-25.9
144652,1197,1197,1197,1197,0.56,642,12.00,1.64,3.48,21.40,-12.11,-6.01,11.31,5.8,2.6,-26.1
144652,1197,1197,1197,1197,0.55,641,11.99,1.59,3.63,20.15,-2.68,-2.11,10.60,5.9,0.4,-22.6
144653,1197,1197,1197,1197,0.56,642,11.99,1.67,3.65,18.89,2.32,-2.64,6.10,4.8,0.7,-25.9
144653,1197,1197,1197,1197,0.57,643,11.99,2.23,3.40,17.64,17.66,-0.39,-5.23,1.2,6.6,-25.6
144653,1197,1197,1197,1197,0.59,645,12.00,2.35,3.49,16.43,5.46,0.60,7.94,2.4,1.6,-24.5
144653,1197,1197,1197,1197,0.57,643,11.99,2.20,3.60,15.17,3.24,-2.82,10.77,1.8,1.8,-24.7
144653,1197,1197,1197,1197,0.60,646,12.00,2.40,3.60,13.95,-2.86,-1.83,16.63,0.8,5.4,-24.8
144653,1197,1197,1197,1197,0.54,640,12.01,2.14,3.51,12.71,8.78,4.41,5.79,0.2,9.6,-24.1
144653,1197,1197,1197,1197,0.55,641,12.00,2.07,3.35,11.54,-5.82,-4.02,9.74,3.2,0.6,-23.1
144653,1197,1197,1197,1197,0.62,648,11.99,2.15,3.44,10.44,-2.56,3.61,9.44,1.6,4.8,-21.9
144653,1197,1197,1197,1197,0.61,647,12.00,2.09,3.79,9.34,-7.61,3.52,15.49,1.5,2.0,-21.5
144653,1197,1197,1197,1197,0.60,646,11.99,2.08,3.50,8.27,-2.41,-1.16,9.08,2.1,0.1,-22.0
144653,1197,1197,1197,1197,0.59,645,12.00,2.00,3.64,7.12,8.64,-2.97,3.90,1.0,-4.0,-22.9
144653,1197,1197,1197,1197,0.61,647,11.99,2.03,2.84,6.15,-9.69,-1.24,8.09,-0.7,-3.8,-20.0
144653,1197,1197,1197,1197,0.56,642,11.99,1.88,3.24,5.15,14.25,0.01,0.74,0.9,2.9,-21.6
144653,1197,1197,1197,1197,0.59,645,11.99,2.01,2.97,4.05,4.95,-2.73,7.18,0.7,1.2,-23.3
144653,1197,1197,1197,1197,0.57,643,11.99,1.80,3.20,2.98,16.43,-1.64,-3.41,1.9,4.8,-20.5
144653,1197,1197,1197,1197,0.62,648,11.98,1.79,3.20,1.97,7.34,-3.92,3.23,-0.9,8.7,-20.1
144653,1197,1197,1197,1197,0.58,644,12.00,1.55,3.17,0.98,10.72,-4.79,6.00,0.9,6.8,-22.0
144653,1197,1197,1197,1197,0.60,646,11.98,1.33,3.30,-0.06,-0.36,1.40,11.22,0.2,8.1,-20.3
144653,1197,1197,1197,1197,0.59,645,12.00,1.54,3.22,-1.03,-2.17,2.90,6.41,0.5,5.6,-20.3
144653,1197,1197,1197,1197,0.58,644,11.99,1.55,3.48,-2.01,13.01,0.78,1.73,0.6,6.3,-20.0
144654,1197,1197,1197,1197,0.61,647,11.98,1.52,3.43,-2.96,-10.07,3.46,8.61,0.1,3.4,-20.7
144654,1197,1197,1197,1197,0.59,645,11.99,1.50,3.68,-3.88,-5.80,3.58,7.84,3.7,1.5,-17.9
144654,1197,1197,1197,1197,0.61,647,11.98,2.00,3.57,-4.71,2.86,3.28,14.16,5.1,-3.1,-17.1
144654,1197,1197,1197,1197,0.62,648,11.99,1.84,4.27,-5.54,10.82,2.23,0.07,3.4,4.6,-15.0
144654,1197,1197,1197,1197,0.58,644,11.99,1.75,4.63,-6.27,0.70,1.07,6.11,5.2,3.8,-13.1
144654,1197,1197,1197,1197,0.62,648,11.98,1.98,4.68,-6.90,-8.90,1.10,14.55,3.6,5.7,-13.1
144654,1197,1197,1197,1197,0.63,649,11.99,2.14,5.17,-7.58,-5.51,-0.34,13.47,4.1,1.6,-14.1
144654,1197,1197,1197,1197,0.63,649,11.99,2.32,4.98,-8.20,-5.78,-0.87,9.30,5.4,3.6,-11.8
144654,1197,1197,1197,1197,0.60,646,11.99,2.47,5.20,-8.76,5.46,1.05,5.13,4.5,0.0,-11.0
144654,1197,1197,1197,1197,0.61,647,12.00,2.67,4.53,-9.21,-11.24,0.53,18.35,4.4,-2.5,-7.1
144654,1197,1197,1197,1197,0.58,644,12.00,2.72,4.63,-9.52,-1.69,-3.52,16.01,4.0,-0.2,-5.6
144654,1197,1197,1197,1197,0.60,646,11.99,3.03,4.64,-9.76,1.90,2.92,10.46,4.6,-7.6,-4.6
144654,1197,1197,1197,1197,0.64,650,11.98,3.25,4.32,-9.93,-5.93,-1.47,9.49,4.6,-5.6,-3.2
144654,1197,1197,1197,1197,0.63,649,11.98,3.39,3.93,-10.12,-6.07,-0.99,12.68,6.1,-8.2,-2.7
144654,1197,1197,1197,1197,0.60,646,12.00,3.87,3.45,-10.29,-6.53,-1.45,10.68,8.1,-3.6,-4.3
144654,1197,1197,1197,1197,0.63,649,12.00,4.22,2.98,-10.50,6.13,6.35,3.14,6.8,-5.6,-3.1
144654,1197,1197,1197,1197,0.61,647,11.99,4.78,2.95,-10.69,15.43,1.21,-0.40,5.4,-1.9,-3.8
144654,1197,1197,1197,1197,0.59,645,11.98,5.16,2.41,-10.80,0.69,1.86,7.21,3.5,-5.6,-0.6
144654,1197,1197,1197,1197,0.63,649,12.00,5.15,2.62,-10.87,8.28,4.31,1.75,1.5,-7.4,-0.6
144654,1197,1197,1197,1197,0.61,647,11.98,5.15,2.22,-11.12,0.65,3.58,9.88,3.3,-0.5,-5.6
144655,1197,1197,1197,1197,0.62,648,11.99,5.19,2.18,-11.44,-2.20,-1.84,16.43,1.5,-4.1,-6.0
144655,1197,1197,1197,1197,0.63,649,12.00,5.12,2.24,-11.82,-14.90,-1.85,16.20,3.1,-4.2,-9.3
144655,1197,1197,1197,1197,0.65,651,11.98,5.08,2.40,-12.24,6.16,2.02,8.50,-1.3,0.7,-7.6
144655,1197,1197,1197,1197,0.64,650,11.99,4.89,1.84,-12.72,-1.64,-0.84,8.72,-3.1,-3.2,-9.2
144655,1197,1197,1197,1197,0.62,648,11.99,4.32,2.05,-13.24,0.70,1.75,7.46,-3.3,-4.1,-11.5
144655,1197,1197,1197,1197,0.63,649,11.99,4.01,2.44,-14.04,8.69,-2.85,-1.71,-4.9,0.2,-17.3
144655,1197,1197,1197,1197,0.63,649,11.99,3.84,2.23,-14.94,-15.26,2.34,11.98,-2.3,-0.9,-18.6
144655,1197,1197,1197,1197,0.66,652,11.99,3.52,2.71,-15.91,0.90,-2.78,4.93,-3.2,-1.2,-19.5
144655,1197,1197,1197,1197,0.65,651,11.99,3.00,3.49,-16.96,2.79,2.85,4.38,-3.4,7.6,-21.7
144655,1197,1197,1197,1197,0.62,648,11.98,2.56,3.93,-18.04,-4.11,2.22,7.59,-2.9,1.3,-22.3
144655,1197,1197,1197,1197,0.63,649,11.99,2.74,3.21,-19.11,-11.58,0.41,17.46,-1.5,-1.6,-24.3
144655,1197,1197,1197,1197,0.63,649,11.98,2.33,3.34,-20.28,-6.66,-2.04,8.53,-0.6,1.9,-22.2
144655,1197,1197,1197,1197,0.63,649,11.99,1.83,3.85,-21.47,13.74,-4.24,5.63,2.1,4.2,-23.7
144655,1197,1197,1197,1197,0.64,650,11.99,1.95,3.21,-22.59,4.32,1.36,6.06,2.2,1.7,-22.1
144655,1197,1197,1197,1197,0.60,646,11.98,2.21,2.93,-23.64,-5.42,-0.27,8.91,2.9,-2.1,-20.4
144655,1197,1197,1197,1197,0.60,646,11.99,2.65,2.94,-24.62,-1.88,-0.92,14.70,5.5,-0.6,-20.6
144655,1197,1197,1197,1197,0.63,649,12.00,2.61,3.03,-25.65,10.96,-2.20,6.82,4.9,-0.4,-17.6
144655,1197,1197,1197,1197,0.63,649,11.99,2.81,2.37,-26.53,-9.92,4.09,10.63,5.9,-3.0,-17.7
144655,1197,1197,1197,1197,0.63,649,11.99,3.39,2.52,-27.31,-0.34,-0.93,7.60,4.6,-3.5,-15.4
144655,1197,1197,1197,1197,0.64,650,11.98,3.50,2.45,-28.02,-2.67,-2.95,10.72,3.8,5.4,-14.3
144656,1197,1197,1197,1197,0.59,645,11.98,3.47,2.28,-28.67,-2.93,1.56,9.25,3.4,1.5,-13.3
144656,1197,1197,1197,1197,0.65,651,11.97,3.62,2.58,-29.22,-11.68,-2.02,15.65,4.8,4.3,-11.0
144656,1197,1197,1197,1197,0.65,651,11.98,3.58,3.12,-29.79,13.60,-2.81,3.43,3.7,-0.9,-10.5
144656,1197,1197,1197,1197,0.68,654,11.99,3.80,3.24,-30.28,11.91,-4.34,3.88,6.7,4.4,-10.0
144656,1197,1197,1197,1197,0.63,649,11.99,4.09,2.83,-30.73,-10.23,2.46,16.86,2.3,7.6,-9.4
144656,1197,1197,1197,1197,0.61,647,11.98,4.16,3.07,-31.13,-2.33,1.04,7.97,3.4,4.5,-6.8
144656,1197,1197,1197,1197,0.66,652,11.99,4.16,3.63,-31.41,-2.14,2.99,5.83,3.7,4.8,-5.7
144656,1197,1197,1197,1197,0.62,648,11.98,4.05,3.71,-31.72,-6.83,-0.76,15.72,4.6,3.7,-6.2
144656,1197,1197,1197,1197,0.65,651,11.98,4.22,3.71,-32.12,1.09,-3.85,8.98,3.4,1.1,-9.3
144656,1197,1197,1197,1197,0.59,645,11.98,4.58,3.92,-32.44,-2.26,5.53,9.77,2.1,-1.8,-6.7
144656,1197,1197,1197,1197,0.64,650,11.98,4.31,4.46,-32.83,4.06,0.92,6.27,1.6,5.6,-8.2
144656,1197,1197,1197,1197,0.64,650,11.97,4.58,3.98,-33.22,-4.97,3.71,8.05,0.7,-0.3,-7.5
144656,1197,1197,1197,1197,0.60,646,11.98,4.93,3.65,-33.48,-1.96,1.11,8.46,0.9,2.2,-8.6
144656,1197,1197,1197,1197,0.65,651,11.98,4.62,4.50,-33.91,-0.33,2.83,4.84,-0.1,2.4,-7.8
144656,1197,1197,1197,1197,0.64,650,11.99,4.63,4.85,-34.32,7.98,0.21,3.01,-0.3,-2.5,-8.4
144656,1197,1197,1197,1197,0.63,649,11.98,4.64,4.69,-34.77,4.44,1.72,6.19,-1.5,-0.3,-8.5
144656,1197,1197,1197,1197,0.62,648,11.98,4.53,4.36,-35.26,9.19,3.47,0.90,0.9,-4.0,-8.0
144656,1197,1197,1197,1197,0.63,649,11.98,5.00,3.69,-35.69,5.91,1.63,7.08,0.7,-5.8,-9.2
144656,1197,1197,1197,1197,0.64,650,11.99,4.66,3.67,-36.28,-0.46,-2.87,7.06,0.6,-8.3,-10.3
144656,1197,1197,1197,1197,0.64,650,11.98,4.95,2.99,-36.86,-5.27,0.15,10.59,-1.7,-2.4,-11.6
144657,1197,1197,1197,1197,0.62,648,11.98,4.70,3.02,-37.44,-8.04,-2.98,12.31,-1.2,-4.5,-9.9
144657,1197,1197,1197,1197,0.60,646,11.99,4.47,3.18,-37.99,-4.96,2.73,8.43,-2.0,0.5,-10.8
144657,1197,1197,1197,1197,0.62,648,11.98,4.64,2.64,-38.57,0.61,-0.32,6.26,-2.0,-7.8,-12.1
144657,1197,1197,1197,1197,0.60,646,11.97,4.35,2.96,-39.16,-1.24,2.18,5.21,-4.2,0.5,-11.4
144657,1197,1197,1197,1197,0.60,646,11.98,4.14,3.21,-39.78,-4.53,-2.47,13.97,-3.7,2.0,-12.4
144657,1197,1197,1197,1197,0.61,647,11.98,4.33,2.85,-40.46,-5.35,0.59,8.95,-0.9,-0.1,-15.2
144657,1197,1197,1197,1197,0.63,649,11.99,4.06,3.06,-41.21,0.78,1.46,1.23,-0.9,-1.4,-14.2
144657,1197,1197,1197,1197,0.59,645,11.97,4.00,2.95,-41.95,14.56,2.18,0.51,0.7,8.4,-14.5
144657,1197,1197,1197,1197,0.63,649,11.98,4.24,2.67,-42.67,-1.44,-0.49,17.61,0.9,-0.1,-15.3
144657,1197,1197,1197,1197,0.58,644,11.99,4.12,2.78,-43.37,6.31,-3.33,11.28,0.7,3.3,-11.7
144657,1197,1197,1197,1197,0.65,651,11.98,4.00,2.54,-44.09,-19.60,-1.56,19.60,3.5,1.6,-15.1
144657,1197,1197,1197,1197,0.62,648,11.98,4.04,3.56,-44.83,3.54,-1.49,0.57,3.7,1.6,-16.5
144657,1197,1197,1197,1197,0.63,649,11.98,3.93,4.29,-45.58,5.64,1.56,3.44,1.8,7.1,-14.5
144657,1197,1197,1197,1197,0.59,645,11.98,3.99,4.03,-46.27,7.55,-0.55,7.08,1.3,2.9,-14.5
144657,1197,1197,1197,1197,0.57,643,11.99,3.75,3.92,-47.00,0.53,3.71,11.89,1.2,2.0,-14.4
144657,1197,1197,1197,1197,0.56,642,11.99,3.66,4.05,-47.59,-4.21,2.34,14.37,-1.5,2.4,-12.5
144657,1197,1197,1197,1197,0.57,643,11.97,3.68,3.99,-48.25,-4.46,6.49,11.85,0.9,3.2,-11.9
144657,1197,1197,1197,1197,0.57,643,11.98,4.04,4.56,-48.75,12.82,1.78,4.52,1.5,3.0,-11.0
144657,1197,1197,1197,1197,0.57,643,11.98,4.14,4.14,-49.22,-2.77,-0.08,11.22,-0.1,-1.8,-9.3
144657,1197,1197,1197,1197,0.54,640,11.96,3.98,3.79,-49.62,-9.22,-0.86,10.50,0.5,-0.1,-7.1
144658,1197,1197,1197,1197,0.53,639,11.98,3.82,4.19,-50.05,-5.04,-6.94,13.67,0.5,1.7,-9.6
144658,1197,1197,1197,1197,0.54,640,11.98,3.69,4.35,-50.54,5.61,1.11,0.49,-0.4,-1.8,-8.1
144658,1197,1197,1197,1197,0.56,642,11.99,3.50,4.19,-51.00,-1.28,0.62,7.31,-1.6,-0.7,-8.9
144658,1197,1197,1197,1197,0.55,641,11.98,3.11,4.74,-51.40,2.04,-1.10,10.19,-2.9,3.1,-7.3
144658,1197,1197,1197,1197,0.55,641,11.98,2.96,4.66,-51.76,-15.19,-2.13,16.51,-2.6,4.5,-6.2
144658,1197,1197,1197,1197,0.52,638,12.00,2.88,4.64,-52.02,-6.24,5.95,10.64,-0.1,-2.0,-4.6
144658,1197,1197,1197,1197,0.54,640,11.98,2.57,5.11,-52.21,3.84,3.46,13.41,0.2,7.1,-2.3
144658,1197,1197,1197,1197,0.52,638,11.97,2.96,4.45,-52.33,1.66,-0.29,2.57,0.8,1.4,-5.9
144658,1197,1197,1197,1197,0.53,639,11.98,3.19,3.87,-52.53,-5.30,0.25,12.38,-0.8,-0.1,-5.7
144658,1197,1197,1197,1197,0.55,641,11.99,3.25,3.98,-52.69,-2.87,2.40,10.85,0.9,0.3,-4.0
