time,pwm1,pwm2,pwm3,pwm4,depth,press,voltage,roll,pitch,yaw,a_x,a_y,a_z,w_row,w_pitch,w_yaw
201814,1100,1100,1100,1100,0.11,596,12.20,6.69,1.62,21.17,-0.26,1.05,8.60,0.5,-0.1,0.1
201814,1100,1100,1100,1100,0.15,600,12.18,6.71,1.61,21.18,-0.25,1.06,8.77,0.4,-0.1,0.0
201814,1100,1100,1100,1100,0.09,594,12.17,6.74,1.61,21.18,-0.22,1.03,8.50,0.5,0.0,0.1
201814,1100,1100,1100,1100,0.10,595,12.16,6.77,1.62,21.19,-0.22,1.02,8.62,0.4,0.2,0.1
201814,1197,1197,1197,1197,0.14,599,12.10,6.79,1.63,21.20,-0.29,1.01,8.49,0.5,0.2,0.1
201814,1197,1197,1197,1197,0.16,601,12.06,6.81,1.64,21.21,-0.24,1.00,8.58,0.4,0.2,0.2
201814,1197,1197,1197,1197,0.16,601,12.06,6.83,1.66,21.23,-1.33,1.19,9.12,0.3,3.3,0.1
201814,1197,1197,1197,1197,0.16,601,12.05,6.99,1.76,21.24,-1.54,2.67,9.49,0.6,9.6,-1.3
201814,1197,1197,1197,1197,0.18,603,12.04,7.05,2.51,21.26,2.76,3.40,5.33,-3.3,10.4,-0.7
201814,1197,1197,1197,1197,0.19,605,12.04,6.88,2.54,21.21,0.31,-1.58,10.03,-7.3,3.0,-1.2
201814,1197,1197,1197,1197,0.18,603,12.03,6.64,2.02,20.97,1.83,4.06,3.99,-6.7,-8.9,-5.2
201814,1197,1197,1197,1197,0.17,602,12.04,6.31,1.92,20.76,-2.24,-1.33,12.81,-7.7,-9.4,-5.9
201814,1197,1197,1197,1197,0.17,602,12.03,5.68,1.75,20.34,1.73,-1.50,10.46,-5.9,-10.2,-9.6
201814,1197,1197,1197,1197,0.16,601,12.02,5.50,1.33,19.95,0.08,1.09,9.36,-5.7,-4.8,-5.9
201814,1197,1197,1197,1197,0.23,609,12.06,5.17,1.68,19.62,17.93,-0.59,-1.94,-4.7,-4.8,-7.8
201814,1197,1197,1197,1197,0.23,609,12.04,4.77,1.66,19.24,-7.68,-3.89,12.24,-5.2,-4.9,-5.9
201814,1197,1197,1197,1197,0.25,611,12.04,4.43,1.36,18.78,-6.96,2.34,9.38,-3.6,-4.0,-9.8
201814,1197,1197,1197,1197,0.31,617,12.05,4.46,1.44,18.19,10.78,2.57,-1.13,-3.5,-2.6,-12.5
201814,1197,1197,1197,1197,0.26,612,12.04,4.22,1.34,17.50,-2.70,-1.57,19.42,-4.0,-6.2,-14.5
201814,1197,1197,1197,1197,0.26,612,12.06,4.18,0.77,16.73,-6.68,3.99,7.91,-4.0,-2.7,-16.6
201815,1197,1197,1197,1197,0.27,613,12.06,4.38,0.10,15.88,0.02,2.15,11.44,-3.2,-5.6,-18.8
201815,1197,1197,1197,1197,0.32,618,12.03,4.05,0.05,14.93,-1.60,-0.12,3.70,-1.5,-2.2,-20.3
201815,1197,1197,1197,1197,0.32,618,12.04,3.77,0.45,13.90,0.84,1.13,8.60,0.5,-5.8,-23.4
201815,1197,1197,1197,1197,0.30,616,12.06,3.63,-0.29,12.79,-16.72,-0.68,19.60,1.1,-5.2,-24.7
201815,1197,1197,1197,1197,0.30,616,12.06,3.71,0.29,11.55,-1.40,-1.78,14.30,1.5,-3.2,-25.2
201815,1197,1197,1197,1197,0.35,621,12.04,3.62,0.15,10.29,3.13,3.11,6.09,2.2,-6.4,-24.0
201815,1197,1197,1197,1197,0.32,618,12.02,3.80,-0.44,9.04,-5.67,-4.51,10.33,1.8,-2.1,-24.8
201815,1197,1197,1197,1197,0.36,623,12.05,3.82,-0.48,7.84,7.39,1.90,-0.87,3.6,-5.7,-24.2
201815,1197,1197,1197,1197,0.32,618,12.04,4.02,-0.77,6.69,7.31,-1.33,12.79,4.9,-10.0,-21.4
201815,1197,1197,1197,1197,0.35,621,12.04,4.07,-0.74,5.67,1.27,1.64,4.56,3.1,-3.0,-20.4
201815,1197,1197,1197,1197,0.32,618,12.05,4.32,-0.95,4.65,9.41,1.38,5.60,4.6,-3.7,-20.4
201815,1197,1197,1197,1197,0.37,624,12.04,4.35,-0.83,3.64,8.65,0.51,-2.98,4.6,-7.4,-22.5
201815,1197,1197,1197,1197,0.37,624,12.05,4.58,-1.30,2.51,-5.12,-0.10,16.38,4.1,-4.5,-21.4
201815,1197,1197,1197,1197,0.36,623,12.04,4.71,-1.28,1.46,-14.24,2.37,13.48,4.5,4.2,-22.0
201815,1197,1197,1197,1197,0.37,624,12.04,4.80,-0.52,0.36,-2.11,-2.66,9.91,3.2,-2.0,-21.7
201815,1197,1197,1197,1197,0.35,622,12.05,5.06,-0.56,-0.75,-9.36,0.97,11.90,4.3,2.1,-22.4
201815,1197,1197,1197,1197,0.39,626,12.05,5.18,-0.81,-1.88,5.53,-0.56,5.03,2.1,5.7,-23.7
201815,1197,1197,1197,1197,0.42,629,12.05,5.58,-1.04,-3.11,-9.38,-0.82,13.77,1.2,2.1,-24.7
201815,1197,1197,1197,1197,0.39,626,12.04,5.34,-0.87,-4.39,-10.26,2.94,10.69,0.9,1.6,-26.2
201815,1197,1197,1197,1197,0.41,628,12.04,5.23,-0.84,-5.66,-11.40,0.05,10.63,2.0,2.4,-25.0
201816,1197,1197,1197,1197,0.43,630,12.04,5.43,-1.31,-6.92,0.96,2.33,8.25,0.5,1.6,-26.7
201816,1197,1197,1197,1197,0.41,628,12.03,5.35,-0.74,-8.19,8.28,-0.95,12.08,1.3,-0.4,-27.3
201816,1197,1197,1197,1197,0.41,628,12.03,5.31,-0.46,-9.48,-6.11,2.66,15.93,2.4,0.3,-26.4
201816,1197,1197,1197,1197,0.45,632,12.03,5.18,-0.11,-10.77,0.93,0.69,16.21,2.0,-0.4,-24.4
201816,1197,1197,1197,1197,0.37,624,12.03,4.84,0.23,-12.00,4.84,2.59,7.17,2.7,-2.5,-25.4
201816,1197,1197,1197,1197,0.41,628,12.04,5.16,0.12,-13.35,-8.62,0.19,13.59,-0.3,-6.5,-27.0
201816,1197,1197,1197,1197,0.43,630,12.04,4.85,0.14,-14.76,9.28,1.71,1.58,1.5,-5.8,-27.5
201816,1197,1197,1197,1197,0.44,631,12.04,4.88,0.14,-16.20,-9.86,-3.70,17.54,-0.3,-6.0,-28.9
201816,1197,1197,1197,1197,0.44,631,12.03,4.33,0.52,-17.64,2.02,3.27,10.32,-1.2,-0.7,-29.4
201816,1197,1197,1197,1197,0.44,631,12.03,4.40,0.01,-19.08,6.08,0.72,3.16,0.8,-1.8,-29.8
201816,1197,1197,1197,1197,0.48,635,12.03,4.31,-0.32,-20.62,6.90,-4.04,10.74,-1.7,0.3,-32.5
201816,1197,1197,1197,1197,0.43,630,12.04,4.10,-0.27,-22.18,7.80,2.13,-0.12,1.3,1.3,-33.3
201816,1197,1197,1197,1197,0.40,627,12.04,4.37,-1.01,-23.81,-12.74,1.83,19.60,1.3,-2.4,-33.0
201816,1197,1197,1197,1197,0.49,636,12.04,4.56,-1.33,-25.49,-9.23,0.83,12.84,1.0,0.7,-33.9
201816,1197,1197,1197,1197,0.45,632,12.03,4.36,-0.37,-27.21,7.03,4.42,6.01,0.6,8.8,-34.0
201816,1197,1197,1197,1197,0.47,634,12.04,4.68,-0.03,-28.88,-2.36,-1.11,11.29,1.6,-1.3,-33.3
201816,1197,1197,1197,1197,0.47,634,12.06,4.17,0.70,-30.60,-2.58,1.20,14.48,-0.9,8.6,-35.0
201816,1197,1197,1197,1197,0.49,636,12.04,4.08,1.16,-32.34,9.83,2.25,-0.89,-2.1,7.1,-34.8
201816,1197,1197,1197,1197,0.44,631,12.04,3.48,1.68,-34.04,-0.54,0.61,6.09,-2.8,3.4,-33.3
201816,1197,1197,1197,1197,0.49,636,12.03,3.47,1.98,-35.63,-4.63,3.75,13.32,-3.7,1.7,-29.8
201817,1197,1197,1197,1197,0.48,635,12.05,3.36,2.04,-37.10,-3.97,1.82,15.50,-4.8,3.8,-29.5
201817,1197,1197,1197,1197,0.47,634,12.03,3.08,2.32,-38.53,7.13,-0.63,3.64,-3.0,3.6,-28.6
201817,1197,1197,1197,1197,0.46,633,12.03,2.69,3.05,-39.94,-4.76,-4.38,9.55,-2.1,0.5,-27.2
201817,1197,1197,1197,1197,0.50,637,12.02,2.15,3.52,-41.31,5.17,2.15,5.34,-0.3,0.5,-27.6
201817,1197,1197,1197,1197,0.47,634,12.03,2.39,3.55,-42.71,-5.01,0.36,13.58,1.4,7.9,-28.3
201817,1197,1197,1197,1197,0.50,637,12.02,2.06,3.33,-44.18,-6.39,1.44,12.58,3.5,6.0,-29.7
201817,1197,1197,1197,1197,0.57,645,12.05,2.21,3.50,-45.69,1.54,-2.67,11.84,3.7,7.9,-30.4
201817,1197,1197,1197,1197,0.52,639,12.04,2.30,3.52,-47.17,6.90,1.08,8.80,1.5,1.9,-28.9
201817,1197,1197,1197,1197,0.47,634,12.03,2.25,2.87,-48.60,-5.41,0.29,9.41,0.3,2.1,-29.4
201817,1197,1197,1197,1197,0.52,640,12.04,2.23,3.11,-50.10,-4.82,1.81,14.38,-0.9,0.9,-31.2
201817,1197,1197,1197,1197,0.50,637,12.04,2.26,3.02,-51.58,-2.10,-1.35,9.71,0.9,-0.2,-28.9
201817,1197,1197,1197,1197,0.52,640,12.04,2.29,3.07,-53.01,-2.41,1.61,11.76,-0.2,5.8,-29.2
201817,1197,1197,1197,1197,0.52,639,12.04,2.30,2.00,-54.42,-5.92,-0.30,7.66,1.3,-1.0,-29.0
201817,1197,1197,1197,1197,0.52,639,12.04,2.23,1.89,-55.84,8.30,1.03,2.01,2.3,3.7,-28.1
201817,1197,1197,1197,1197,0.52,640,12.02,2.56,1.35,-57.28,0.45,-2.68,9.88,1.8,4.2,-29.7
201817,1197,1197,1197,1197,0.53,641,12.04,2.43,1.81,-58.78,10.94,-2.59,4.62,4.2,9.4,-29.4
201817,1197,1197,1197,1197,0.56,644,12.04,2.57,1.49,-60.23,3.80,0.30,9.94,5.1,3.7,-27.9
201817,1197,1197,1197,1197,0.52,639,12.04,2.87,2.00,-61.66,-5.01,-6.00,13.09,3.3,6.2,-28.6
201817,1197,1197,1197,1197,0.53,641,12.04,2.86,1.55,-63.10,-9.20,-2.86,11.99,2.3,-1.0,-27.8
201817,1197,1197,1197,1197,0.53,641,12.04,2.91,1.64,-64.46,1.99,-2.37,13.06,1.7,0.5,-26.7
201818,1197,1197,1197,1197,0.53,641,12.05,2.81,1.76,-65.77,3.15,-1.89,10.68,3.2,-4.0,-26.7
201818,1197,1197,1197,1197,0.57,645,12.04,2.67,1.82,-67.09,5.08,-1.67,9.82,-0.2,0.2,-27.6
201818,1197,1197,1197,1197,0.57,645,12.04,2.55,1.48,-68.43,-4.63,0.71,7.86,0.6,-3.6,-27.3
201818,1197,1197,1197,1197,0.56,644,12.03,2.29,1.93,-69.75,2.16,0.12,2.52,-2.0,0.4,-25.6
201818,1197,1197,1197,1197,0.51,638,12.03,2.19,1.71,-71.02,-1.67,-3.24,9.11,-0.5,-1.3,-25.4
201818,1197,1197,1197,1197,0.56,644,12.04,2.09,2.00,-72.20,0.88,-1.26,9.98,-1.3,2.7,-21.1
201818,1197,1197,1197,1197,0.51,638,12.04,1.84,1.34,-73.26,1.88,1.48,14.25,-2.7,1.5,-19.9
201818,1197,1197,1197,1197,0.58,646,12.03,1.64,1.73,-74.33,7.34,0.62,0.23,1.8,-0.5,-23.4
201818,1197,1197,1197,1197,0.54,642,12.04,1.51,1.41,-75.54,-4.06,5.20,8.36,3.4,0.9,-23.5
201818,1197,1197,1197,1197,0.59,647,12.04,1.80,1.83,-76.67,2.45,-0.05,12.28,1.3,-0.1,-22.8
201818,1197,1197,1197,1197,0.56,644,12.03,1.76,2.23,-77.85,6.20,2.59,0.33,-0.4,4.1,-23.9
201818,1197,1197,1197,1197,0.58,646,12.02,1.93,1.53,-79.04,10.70,-1.38,3.18,2.7,4.7,-25.9
201818,1197,1197,1197,1197,0.58,646,12.02,2.00,1.98,-80.27,11.85,0.70,4.11,1.6,9.5,-25.2
201818,1197,1197,1197,1197,0.57,645,12.03,2.01,2.01,-81.54,5.07,-4.58,12.27,3.1,5.8,-26.4
201818,1197,1197,1197,1197,0.57,645,12.02,1.87,2.91,-82.79,-4.80,-0.50,12.71,3.4,5.7,-25.7
201818,1197,1197,1197,1197,0.56,644,12.04,1.63,3.73,-84.00,-11.96,2.95,17.75,3.7,4.2,-23.1
201818,1197,1197,1197,1197,0.62,650,12.03,1.94,4.00,-85.21,-7.93,5.53,10.82,4.5,7.9,-25.1
201818,1197,1197,1197,1197,0.58,646,12.04,2.10,4.06,-86.37,10.30,-2.42,6.00,5.5,2.3,-23.2
201818,1197,1197,1197,1197,0.60,648,12.03,2.30,4.20,-87.53,1.07,1.86,8.47,4.6,1.1,-21.9
201818,1197,1197,1197,1197,0.59,647,12.02,2.24,4.00,-88.63,1.33,-0.36,15.09,5.6,-1.0,-22.3
201819,1197,1197,1197,1197,0.62,650,12.03,2.63,4.73,-89.72,17.11,4.96,-0.97,7.0,4.4,-19.8
201819,1197,1197,1197,1197,0.61,649,12.04,2.98,4.31,-90.68,-9.36,2.54,11.98,7.8,-0.1,-18.2
201819,1197,1197,1197,1197,0.59,647,12.02,3.22,4.87,-91.54,3.72,-0.21,6.35,6.0,0.7,-17.5
201819,1197,1197,1197,1197,0.62,650,12.03,3.96,4.43,-92.30,-6.71,3.16,7.88,7.3,2.1,-15.7
201819,1197,1197,1197,1197,0.63,651,12.04,4.41,4.50,-93.09,2.77,2.48,11.65,5.2,-1.8,-15.4
201819,1197,1197,1197,1197,0.64,652,12.03,4.82,4.25,-98.13,10.91,4.29,-1.07,0.9,1.7,-13.5
201819,1197,1197,1197,1197,0.65,653,12.02,5.10,3.25,-98.75,-0.62,2.08,15.71,2.3,-4.5,-14.4
201819,1197,1197,1197,1197,0.64,652,12.03,5.32,3.68,-99.39,-8.84,1.44,12.20,0.5,0.3,-12.8
201819,1197,1197,1197,1197,0.65,653,12.03,5.27,2.97,-100.04,-7.55,0.56,9.06,0.5,1.5,-13.0
201819,1197,1197,1197,1197,0.61,649,12.02,5.23,2.58,-100.72,-15.59,2.91,15.21,-0.7,3.3,-12.9
201819,1197,1197,1197,1197,0.61,649,12.04,5.15,2.98,-101.44,-2.76,0.63,6.60,-0.8,-0.7,-14.3
201819,1197,1197,1197,1197,0.67,655,12.02,5.31,3.22,-102.23,-2.42,-0.54,4.21,0.4,3.3,-19.2
201819,1197,1197,1197,1197,0.64,652,12.02,4.99,4.16,-103.14,-7.83,-4.15,15.22,-0.7,2.7,-18.9
201819,1197,1197,1197,1197,0.65,653,12.02,4.57,4.26,-104.12,4.59,-1.79,9.59,-2.1,2.1,-19.4
201819,1197,1197,1197,1197,0.62,650,12.03,4.37,3.84,-105.09,-1.05,4.45,-0.19,-0.2,-5.3,-20.4
201819,1197,1197,1197,1197,0.64,652,12.02,4.18,4.34,-106.10,-0.59,-4.41,12.99,-2.6,4.0,-20.9
201819,1197,1197,1197,1197,0.58,646,12.03,3.85,4.34,-107.20,-0.76,6.95,3.26,-4.0,-3.0,-18.9
201819,1197,1197,1197,1197,0.66,654,12.03,3.62,4.04,-108.13,-6.47,1.92,9.16,-1.4,-1.8,-16.8
201819,1197,1197,1197,1197,0.63,651,12.03,3.53,3.61,-109.08,2.60,3.28,1.20,-1.6,-0.7,-17.0
201819,1197,1197,1197,1197,0.65,653,12.03,3.46,3.76,-110.00,2.82,-0.31,7.35,-2.1,2.2,-18.5
201820,1197,1197,1197,1197,0.68,656,12.02,3.30,3.62,-111.03,7.73,-2.82,2.40,0.1,-0.5,-20.0
201820,1197,1197,1197,1197,0.64,652,12.03,3.04,3.36,-112.14,-5.43,1.16,7.53,0.4,4.8,-22.1
201820,1197,1197,1197,1197,0.64,652,12.01,2.66,3.38,-113.38,-12.37,6.09,14.46,-0.6,0.4,-24.0
201820,1197,1197,1197,1197,0.67,655,12.03,2.62,3.14,-114.55,-0.12,-1.22,7.77,1.8,-4.0,-24.8
201820,1197,1197,1197,1197,0.64,652,12.04,2.58,2.81,-115.74,-6.13,-4.16,11.60,-0.1,-2.1,-25.4
201820,1197,1197,1197,1197,0.64,652,12.01,2.29,2.55,-116.99,-1.79,0.36,10.71,1.6,5.1,-25.3
201820,1197,1197,1197,1197,0.63,651,12.03,2.23,2.58,-118.16,1.40,-0.45,8.74,1.8,-1.3,-24.7
201820,1197,1197,1197,1197,0.62,650,12.03,2.36,2.55,-119.40,10.84,0.33,0.89,2.3,4.0,-25.0
201820,1197,1197,1197,1197,0.63,651,12.03,2.73,2.65,-120.60,-4.37,-1.89,13.30,2.1,2.0,-23.6
201820,1197,1197,1197,1197,0.69,658,12.03,2.77,2.30,-121.89,-3.66,-0.05,8.36,4.4,6.9,-25.1
201820,1197,1197,1197,1197,0.73,662,12.03,2.93,2.69,-123.12,-0.59,3.42,5.57,4.7,2.3,-22.8
201820,1197,1197,1197,1197,0.69,658,12.02,2.77,2.92,-124.25,-0.94,1.63,11.73,2.3,4.3,-23.6
201820,1197,1197,1197,1197,0.64,652,12.02,3.13,3.07,-125.32,9.90,2.69,-1.23,3.4,8.5,-23.1
201820,1197,1197,1197,1197,0.68,656,12.02,3.40,2.34,-126.37,1.35,0.71,9.04,4.8,0.7,-22.4
201820,1197,1197,1197,1197,0.65,653,12.03,3.60,2.82,-127.42,7.21,-5.49,3.52,3.4,5.5,-21.9
201820,1197,1197,1197,1197,0.68,657,12.03,3.72,2.76,-128.36,-9.44,-0.12,11.03,2.8,4.6,-17.9
201820,1197,1197,1197,1197,0.68,656,12.03,3.63,2.79,-129.31,-6.01,-1.07,12.29,0.6,-4.1,-19.3
201820,1197,1197,1197,1197,0.64,652,12.02,3.37,3.52,-130.26,-0.30,-2.11,7.42,2.9,0.4,-17.6
201820,1197,1197,1197,1197,0.67,655,12.02,3.52,2.90,-131.22,-2.93,2.45,14.79,3.0,-3.2,-18.4
201820,1197,1197,1197,1197,0.65,653,12.02,3.52,2.90,-132.15,-3.02,-4.10,17.61,3.5,-4.6,-17.6
201821,1197,1197,1197,1197,0.66,654,12.03,3.44,2.85,-133.05,-11.87,3.17,17.47,4.5,-10.1,-16.6
201821,1197,1197,1197,1197,0.68,657,12.02,3.64,2.27,-133.93,-4.09,3.15,7.03,3.2,-6.2,-17.5
201821,1197,1197,1197,1197,0.69,658,12.02,3.81,2.51,-134.85,-4.63,2.11,13.32,6.3,-5.9,-16.2
201821,1197,1197,1197,1197,0.61,649,12.03,4.08,2.68,-135.68,4.82,-1.05,4.32,4.6,-4.5,-17.3
201821,1197,1197,1197,1197,0.71,660,12.02,4.21,2.49,-136.55,13.41,-1.18,9.71,4.0,2.0,-16.5
201821,1197,1197,1197,1197,0.68,656,12.04,4.39,2.33,-137.35,-3.34,2.22,3.77,2.1,2.6,-17.3
201821,1197,1197,1197,1197,0.70,659,12.03,4.40,1.81,-138.16,-19.60,2.40,16.22,2.3,-1.7,-16.1
201821,1197,1197,1197,1197,0.67,655,12.03,4.31,1.86,-138.95,4.92,0.67,13.06,1.5,1.9,-15.6
201821,1197,1197,1197,1197,0.68,656,12.01,4.24,1.98,-139.74,-4.59,0.39,10.32,2.4,1.9,-15.5
201821,1197,1197,1197,1197,0.71,660,12.03,4.32,2.25,-140.50,-1.96,2.00,12.29,1.9,3.1,-14.8
201821,1197,1197,1197,1197,0.68,657,12.02,4.29,2.13,-141.33,0.40,1.77,4.98,0.7,4.2,-18.7
201821,1197,1197,1197,1197,0.69,658,12.04,4.56,2.47,-142.21,-4.10,-2.59,13.74,1.5,0.2,-16.9
201821,1197,1197,1197,1197,0.67,655,12.02,4.55,2.40,-143.04,-5.10,-1.03,13.91,-2.5,-3.0,-17.5
201821,1197,1197,1197,1197,0.63,651,12.02,4.81,2.47,-143.93,2.33,-5.07,18.69,-0.4,2.0,-18.6
201821,1197,1197,1197,1197,0.70,659,12.01,4.09,2.80,-144.82,-2.17,2.81,11.62,-2.1,5.5,-17.6
201821,1197,1197,1197,1197,0.68,656,12.00,3.97,2.46,-145.75,-2.59,-0.55,12.96,-1.0,2.1,-20.3
201821,1197,1197,1197,1197,0.69,658,12.02,3.94,3.27,-146.74,-3.09,-1.13,9.66,0.2,8.2,-22.5
201821,1197,1197,1197,1197,0.68,657,12.01,3.73,3.30,-147.77,-1.65,3.52,2.69,-2.1,5.3,-21.5
201821,1197,1197,1197,1197,0.68,657,12.03,3.34,4.24,-148.89,2.34,0.11,6.99,-3.1,7.3,-23.2
201821,1197,1197,1197,1197,0.71,660,12.02,3.00,4.00,-150.01,8.06,2.36,8.06,-1.7,6.4,-23.8
201822,1197,1197,1197,1197,0.66,654,12.02,2.83,3.96,-151.15,-0.09,-0.49,8.03,0.2,1.2,-20.4
201822,1197,1197,1197,1197,0.70,659,12.02,2.40,3.90,-152.23,11.61,-3.74,8.62,-0.8,2.9,-20.9
201822,1197,1197,1197,1197,0.68,656,12.02,2.26,3.70,-153.32,4.54,-1.51,7.10,1.2,1.0,-19.1
201822,1197,1197,1197,1197,0.70,659,12.03,1.95,3.59,-154.38,0.95,2.09,8.52,3.7,-0.5,-22.5
201822,1197,1197,1197,1197,0.66,654,12.02,2.09,3.26,-155.40,-2.06,3.30,7.56,0.9,1.6,-20.1
201822,1197,1197,1197,1197,0.68,657,12.00,2.02,4.05,-156.33,1.97,-0.23,8.80,2.1,4.6,-17.8
201822,1197,1197,1197,1197,0.68,656,12.02,2.52,3.95,-157.15,-7.28,5.16,9.51,5.1,2.4,-17.5
201822,1197,1197,1197,1197,0.71,660,12.02,2.45,4.37,-158.09,-2.58,0.65,7.93,1.6,0.5,-19.2
201822,1197,1197,1197,1197,0.67,655,12.02,2.60,4.74,-158.99,0.97,5.21,5.79,1.0,5.6,-17.5
201822,1197,1197,1197,1197,0.64,652,12.01,3.02,4.90,-159.89,3.85,-2.48,9.18,2.9,-0.3,-17.6
201822,1197,1197,1197,1197,0.66,654,12.02,2.60,5.51,-160.80,-2.53,4.47,6.14,-0.7,-0.2,-17.5
201822,1197,1197,1197,1197,0.72,661,12.02,2.62,4.96,-161.77,-9.36,1.27,7.65,1.8,-0.1,-19.9
201822,1197,1197,1197,1197,0.68,657,12.03,2.19,5.89,-162.86,12.70,3.05,5.53,3.1,1.6,-19.4
201822,1197,1197,1197,1197,0.67,655,12.02,2.22,5.63,-163.82,-10.09,-2.18,12.36,2.6,-1.1,-16.7
201822,1197,1197,1197,1197,0.69,658,12.03,2.29,5.36,-164.79,3.37,-0.45,6.30,4.8,1.2,-20.1
201822,1197,1197,1197,1197,0.73,662,12.04,2.26,5.66,-165.75,-0.83,0.56,16.56,4.9,3.1,-18.3
201822,1197,1197,1197,1197,0.68,656,12.03,1.74,6.12,-166.63,-4.36,-1.97,7.98,1.8,-0.9,-15.6
201822,1197,1197,1197,1197,0.69,658,12.03,1.80,5.77,-167.32,3.70,-2.15,12.85,2.5,0.1,-15.9
201822,1197,1197,1197,1197,0.67,655,12.03,1.78,5.26,-168.03,-5.87,4.54,0.31,1.3,-5.9,-12.8
201822,1197,1197,1197,1197,0.66,654,12.02,2.28,5.27,-168.57,-3.32,-3.47,9.02,4.3,-3.2,-12.5
201823,1197,1197,1197,1197,0.68,657,12.02,2.11,5.19,-169.23,-4.54,1.91,5.17,3.2,4.8,-11.8
201823,1197,1197,1197,1197,0.68,656,12.03,2.33,4.85,-169.80,8.24,2.01,-1.92,3.4,-4.2,-11.9
201823,1197,1197,1197,1197,0.67,655,12.03,2.39,4.82,-170.40,4.55,8.04,-0.17,1.2,4.5,-12.3
201823,1197,1197,1197,1197,0.71,660,12.03,2.41,4.94,-170.98,2.57,1.13,9.22,0.1,2.4,-11.8
201823,1197,1197,1197,1197,0.67,655,12.02,2.39,5.04,-171.55,-7.13,0.23,16.15,-1.0,0.9,-9.8
201823,1197,1197,1197,1197,0.70,659,12.01,2.10,5.21,-171.99,-0.89,0.05,8.71,-0.7,-3.4,-7.7
201823,1197,1197,1197,1197,0.71,660,12.02,2.18,4.37,-172.26,0.25,0.10,8.18,1.3,1.3,-6.3
201823,1197,1197,1197,1197,0.68,656,12.01,2.35,4.14,-172.56,0.77,3.79,2.75,2.7,-1.0,-5.2
201823,1197,1197,1197,1197,0.67,655,12.00,2.47,4.11,-172.80,6.61,2.78,6.34,1.2,1.3,-5.1
201823,1197,1197,1197,1197,0.69,658,12.02,2.83,4.10,-172.99,0.34,0.09,9.47,2.6,2.0,-3.8
201823,1197,1197,1197,1197,0.65,653,12.01,2.65,3.67,-173.18,2.45,6.06,6.97,1.9,-1.0,-3.3
201823,1197,1197,1197,1197,0.65,653,12.01,2.95,3.83,-173.27,-2.17,0.58,11.01,0.9,0.1,-1.8
201823,1197,1197,1197,1197,0.70,659,12.03,2.90,3.65,-173.41,-6.46,0.88,13.56,-1.2,-0.5,-2.1
201823,1197,1197,1197,1197,0.68,656,12.01,3.15,3.40,-173.45,3.38,-0.01,2.77,-2.2,-1.8,0.1
201823,1197,1197,1197,1197,0.70,659,12.01,3.15,2.86,-173.47,-19.50,0.64,19.60,-0.3,2.5,-1.5
201823,1197,1197,1197,1197,0.68,657,12.02,3.05,2.61,-173.67,7.31,-0.45,12.92,-1.2,-2.3,-5.0
