time,pwm1,pwm2,pwm3,pwm4,depth,press,voltage,roll,pitch,yaw,a_x,a_y,a_z,w_row,w_pitch,w_yaw
150249,1100,1100,1100,1100,0.09,596,12.09,6.55,1.48,-165.41,-0.20,1.03,8.64,0.2,-1.3,0.3
150249,1100,1100,1100,1100,0.15,602,12.07,6.57,1.42,-165.40,-0.22,1.01,8.62,0.4,-1.2,0.3
150249,1199,1199,1199,1199,0.10,597,12.05,6.59,1.38,-165.38,-0.22,0.96,8.56,0.6,-0.8,0.4
150249,1199,1199,1199,1199,0.13,600,12.01,6.63,1.36,-165.36,-0.27,1.06,8.57,0.6,-0.5,0.4
150249,1199,1199,1199,1199,0.14,601,11.94,6.67,1.34,-165.34,-0.21,0.99,8.58,0.5,-0.1,0.5
150249,1199,1199,1199,1199,0.16,603,11.95,6.70,1.35,-165.32,-0.15,0.91,8.69,0.4,0.2,0.4
150250,1199,1199,1199,1199,0.13,600,11.94,6.70,1.36,-165.30,-0.27,1.05,8.69,0.1,0.5,0.4
150250,1199,1199,1199,1199,0.16,603,11.94,6.69,1.40,-165.28,-0.39,1.09,8.80,-0.8,0.0,0.1
150250,1199,1199,1199,1199,0.18,605,11.94,6.61,1.55,-165.33,2.84,-0.44,10.18,-3.7,1.6,-2.6
150250,1199,1199,1199,1199,0.16,603,11.94,6.29,1.48,-165.49,-1.14,1.56,4.44,-4.5,-0.6,-4.1
150250,1199,1199,1199,1199,0.21,609,11.92,5.67,1.41,-165.84,-2.15,3.12,6.87,-9.6,-3.0,-7.5
150250,1199,1199,1199,1199,0.27,615,11.94,5.28,1.02,-166.33,3.82,0.40,2.99,-10.4,-7.0,-11.4
150250,1199,1199,1199,1199,0.21,609,11.93,5.09,0.41,-166.88,4.67,2.66,9.32,-8.4,0.4,-11.9
150250,1199,1199,1199,1199,0.20,608,11.95,5.03,0.02,-167.48,7.93,3.55,7.83,-8.4,-3.3,-10.7
150250,1199,1199,1199,1199,0.18,606,11.93,4.66,-0.07,-168.04,-13.45,-3.81,11.19,-4.8,2.4,-11.7
150250,1199,1199,1199,1199,0.20,608,11.93,4.23,0.41,-168.62,-4.96,-0.88,14.29,-6.9,1.3,-15.0
150250,1199,1199,1199,1199,0.25,613,11.92,3.95,-0.08,-169.36,-1.31,0.97,10.14,-6.8,-4.3,-14.9
150250,1199,1199,1199,1199,0.25,613,11.93,3.65,0.54,-170.08,7.33,0.43,7.28,-4.7,-4.3,-14.2
150250,1199,1199,1199,1199,0.29,617,11.94,3.32,0.88,-170.83,4.79,0.80,3.68,-6.5,-2.8,-15.2
150250,1199,1199,1199,1199,0.23,611,11.94,3.12,0.37,-171.65,-9.04,-3.12,18.79,-5.9,-2.4,-17.0
150250,1199,1199,1199,1199,0.23,611,11.93,2.76,0.54,-172.46,-7.71,0.76,13.04,-5.6,-0.4,-15.8
150250,1199,1199,1199,1199,0.26,614,11.92,2.76,0.35,-173.34,2.67,-1.39,4.97,-2.5,1.6,-17.9
150250,1199,1199,1199,1199,0.30,618,11.93,2.42,0.81,-174.29,-1.72,5.45,0.09,0.1,-0.1,-19.5
150250,1199,1199,1199,1199,0.33,621,11.93,2.56,1.40,-175.33,-0.39,-1.75,1.53,0.6,-2.9,-24.0
150250,1199,1199,1199,1199,0.32,620,11.92,2.54,1.50,-176.49,8.20,0.27,8.04,-0.4,3.2,-22.6
150250,1199,1199,1199,1199,0.33,621,11.93,2.34,1.75,-177.69,1.00,-0.45,4.51,-1.0,0.7,-23.8
150251,1199,1199,1199,1199,0.36,625,11.94,3.17,0.74,173.66,-8.19,0.78,10.80,6.1,2.3,-28.0
150251,1199,1199,1199,1199,0.29,617,11.95,3.54,1.07,172.35,7.28,-0.33,10.27,6.0,1.3,-25.8
150251,1199,1199,1199,1199,0.34,622,11.93,3.63,1.30,171.07,9.40,-0.70,7.12,5.4,2.8,-26.8
150251,1199,1199,1199,1199,0.40,629,11.95,3.75,1.52,169.75,0.37,-4.30,5.68,6.5,2.2,-27.3
150251,1199,1199,1199,1199,0.32,620,11.92,3.95,1.73,168.41,-7.94,-0.36,16.11,4.9,1.9,-25.8
150251,1199,1199,1199,1199,0.37,626,11.93,4.20,1.23,167.01,-3.42,-4.43,8.95,6.1,1.4,-29.1
150251,1199,1199,1199,1199,0.35,624,11.94,4.58,1.68,165.60,9.69,0.82,2.69,5.6,2.4,-28.1
150251,1199,1199,1199,1199,0.38,627,11.94,4.60,1.87,164.21,18.40,3.38,-0.22,5.0,-1.8,-27.6
150251,1199,1199,1199,1199,0.39,628,11.94,4.83,2.22,162.81,-2.80,1.59,8.07,3.0,3.5,-30.4
150251,1199,1199,1199,1199,0.40,629,11.94,5.07,2.50,161.32,-11.26,2.34,10.89,4.6,2.6,-30.6
150251,1199,1199,1199,1199,0.39,628,11.93,5.49,2.55,159.87,10.96,-0.21,0.98,6.0,0.3,-29.0
150251,1199,1199,1199,1199,0.35,623,11.93,5.94,2.32,158.45,0.24,1.66,11.50,6.1,0.1,-30.3
150251,1199,1199,1199,1199,0.38,627,11.93,5.97,2.01,156.98,-6.73,4.38,6.78,3.7,-2.7,-29.5
150251,1199,1199,1199,1199,0.36,625,11.95,5.96,3.12,155.48,11.33,6.83,3.60,3.8,-0.4,-30.9
150251,1199,1199,1199,1199,0.38,627,11.92,6.27,2.43,153.90,5.65,0.65,5.71,5.7,-1.5,-31.8
150251,1199,1199,1199,1199,0.35,624,11.92,6.27,2.82,152.33,-2.36,-0.56,12.53,2.6,2.9,-30.4
150251,1199,1199,1199,1199,0.41,630,11.92,6.45,2.55,150.73,2.78,1.76,8.76,2.9,-3.2,-33.6
150251,1199,1199,1199,1199,0.45,634,11.93,6.33,2.95,148.98,-6.75,4.79,6.54,1.8,-5.1,-33.3
150251,1199,1199,1199,1199,0.42,631,11.93,6.35,2.60,147.26,-7.77,-1.82,6.17,3.1,0.5,-35.3
150251,1199,1199,1199,1199,0.44,633,11.94,6.24,2.70,145.50,4.50,0.42,5.82,2.0,-4.2,-35.3
150252,1199,1199,1199,1199,0.42,631,11.92,6.03,3.03,143.72,-4.46,1.43,4.53,2.3,-0.7,-37.6
150252,1199,1199,1199,1199,0.35,624,11.93,5.85,2.88,141.87,9.00,-0.49,5.62,0.1,0.5,-37.9
150252,1199,1199,1199,1199,0.44,633,11.92,5.51,2.38,140.09,6.15,5.70,4.74,0.0,2.0,-35.1
150252,1199,1199,1199,1199,0.46,635,11.93,5.39,2.12,138.26,0.59,2.99,9.98,2.6,0.8,-36.5
150252,1199,1199,1199,1199,0.44,633,11.94,5.50,1.88,136.41,-0.04,2.70,9.66,-1.5,2.0,-37.5
150252,1199,1199,1199,1199,0.44,633,11.93,5.87,1.94,134.66,-2.61,-3.12,13.62,-0.2,3.3,-34.2
150252,1199,1199,1199,1199,0.41,630,11.93,5.29,2.20,132.85,-2.29,-2.26,9.16,-1.5,-1.3,-36.7
150252,1199,1199,1199,1199,0.46,635,11.93,4.99,2.48,131.07,1.53,-2.98,13.75,-3.8,3.1,-34.8
150252,1199,1199,1199,1199,0.45,634,11.92,4.62,2.60,129.31,-2.81,0.34,10.47,-2.7,5.7,-37.5
150252,1199,1199,1199,1199,0.46,635,11.94,4.33,2.82,127.47,-1.70,-1.67,13.17,-1.1,3.3,-36.4
150252,1199,1199,1199,1199,0.48,637,11.93,4.25,2.59,125.73,5.12,2.79,-0.20,1.0,1.6,-34.5
150252,1199,1199,1199,1199,0.43,632,11.92,4.06,2.86,123.94,0.67,1.78,10.46,-1.0,4.6,-37.4
150252,1199,1199,1199,1199,0.46,635,11.92,4.02,2.54,122.13,-10.80,-1.99,15.90,-1.2,0.1,-35.4
150252,1199,1199,1199,1199,0.46,635,11.94,3.59,2.75,120.35,-7.13,1.81,8.84,1.1,0.8,-35.8
150252,1199,1199,1199,1199,0.44,633,11.93,3.39,2.68,118.50,-3.47,-2.50,8.99,1.0,-0.9,-38.0
150252,1199,1199,1199,1199,0.41,630,11.93,2.96,3.10,116.56,-6.16,-2.76,11.81,0.0,2.7,-38.1
150252,1199,1199,1199,1199,0.45,634,11.91,2.92,3.07,114.73,-15.13,-2.02,8.94,0.4,3.7,-35.5
150252,1199,1199,1199,1199,0.43,632,11.92,2.68,2.90,112.94,2.76,-0.34,7.22,2.0,0.0,-35.4
150252,1199,1199,1199,1199,0.47,636,11.93,2.51,2.95,111.11,15.71,0.42,1.10,2.5,0.9,-36.1
150252,1199,1199,1199,1199,0.45,634,11.92,2.40,2.78,109.34,1.22,1.56,12.15,0.2,2.7,-35.7
150253,1199,1199,1199,1199,0.40,629,11.91,2.48,2.88,107.66,10.37,-0.38,2.76,1.8,1.6,-34.8
150253,1199,1199,1199,1199,0.48,637,11.94,2.43,3.20,105.88,5.95,3.93,5.89,0.9,3.5,-35.6
150253,1199,1199,1199,1199,0.46,635,11.93,2.62,2.67,104.19,-11.69,1.35,17.54,1.0,2.6,-34.5
150253,1199,1199,1199,1199,0.47,636,11.94,2.80,2.71,102.49,-1.11,-1.33,7.40,1.3,4.8,-31.8
150253,1199,1199,1199,1199,0.46,635,11.93,2.76,2.69,100.90,6.20,-0.50,4.36,3.1,4.0,-32.9
150253,1199,1199,1199,1199,0.50,639,11.91,2.41,3.19,99.26,-1.90,-0.05,10.38,2.3,3.1,-33.9
150253,1199,1199,1199,1199,0.47,636,11.91,2.38,2.73,97.71,-3.94,-1.44,10.55,1.1,5.9,-31.1
150253,1199,1199,1199,1199,0.49,638,11.91,2.00,2.74,96.18,0.00,1.96,9.64,3.5,7.0,-31.0
150253,1199,1199,1199,1199,0.51,640,11.93,2.51,2.72,94.70,-5.58,-1.16,2.72,4.5,5.8,-31.1
150253,1199,1199,1199,1199,0.51,640,11.92,2.74,2.42,93.23,-8.45,-0.02,10.47,3.5,7.7,-29.9
150253,1199,1199,1199,1199,0.49,638,11.93,3.05,2.73,91.84,-2.61,0.52,13.18,4.6,14.4,-27.2
150253,1199,1199,1199,1199,0.53,643,11.91,3.28,2.95,90.49,-2.39,-0.11,16.86,4.5,4.9,-27.1
150253,1199,1199,1199,1199,0.51,640,11.92,3.16,3.47,89.18,-0.90,0.40,1.60,3.9,4.6,-25.3
150253,1199,1199,1199,1199,0.52,641,11.92,3.08,3.90,87.89,8.46,0.48,4.32,2.5,6.0,-26.4
150253,1199,1199,1199,1199,0.48,637,11.92,3.09,4.02,86.63,-4.76,-2.22,9.43,2.1,6.8,-24.6
150253,1199,1199,1199,1199,0.52,641,11.92,3.48,3.96,85.45,-8.84,-4.01,7.98,2.6,4.0,-25.3
150253,1199,1199,1199,1199,0.51,640,11.91,3.31,4.82,84.25,12.15,2.29,5.25,3.2,2.9,-25.9
150253,1199,1199,1199,1199,0.54,644,11.92,3.46,4.47,83.01,6.07,1.44,-0.70,4.2,0.5,-25.0
150253,1199,1199,1199,1199,0.53,643,11.92,3.47,4.58,81.78,-3.35,-1.30,4.34,1.4,1.0,-25.0
150253,1199,1199,1199,1199,0.52,641,11.90,3.46,4.63,80.66,3.56,-2.72,4.39,2.3,2.2,-20.7
150254,1199,1199,1199,1199,0.49,638,11.92,3.33,4.41,79.58,-2.23,0.35,5.85,2.9,-1.2,-21.1
150254,1199,1199,1199,1199,0.52,641,11.91,3.37,4.61,78.47,6.98,-1.03,3.90,0.5,3.6,-21.5
150254,1199,1199,1199,1199,0.51,640,11.91,3.32,3.78,77.38,-3.07,2.27,7.24,2.4,-2.2,-20.5
150254,1199,1199,1199,1199,0.51,640,11.93,3.57,3.92,76.38,-0.69,1.48,8.24,2.7,-2.7,-19.5
150254,1199,1199,1199,1199,0.56,646,11.92,3.58,4.13,75.35,-3.11,-2.27,7.57,-0.1,-3.4,-20.2
150254,1199,1199,1199,1199,0.48,637,11.92,3.34,4.05,74.37,3.37,-1.50,7.93,2.7,0.5,-19.2
150254,1199,1199,1199,1199,0.49,638,11.92,3.05,4.60,73.49,2.25,3.28,9.43,2.4,-0.4,-16.2
150254,1199,1199,1199,1199,0.53,643,11.92,3.30,4.10,72.73,-4.60,-0.64,12.87,1.8,-0.4,-15.3
150254,1199,1199,1199,1199,0.50,639,11.91,3.06,4.63,72.08,-10.97,-1.71,14.98,2.7,3.2,-13.7
150254,1199,1199,1199,1199,0.52,642,11.93,2.96,4.95,71.37,-9.67,-0.56,11.68,3.7,0.0,-13.7
150254,1199,1199,1199,1199,0.49,638,11.91,2.84,4.86,70.68,6.25,-1.29,6.37,2.3,4.6,-13.7
150254,1199,1199,1199,1199,0.53,643,11.91,2.85,4.85,70.00,3.80,2.75,1.74,4.8,3.6,-14.3
150254,1199,1199,1199,1199,0.53,643,11.91,2.79,4.90,69.32,3.52,2.51,4.23,3.7,6.4,-12.2
150254,1199,1199,1199,1199,0.51,640,11.93,3.39,4.68,68.70,-0.88,-2.89,8.21,3.4,3.8,-13.2
150254,1199,1199,1199,1199,0.50,639,11.91,3.42,5.10,68.08,-1.17,-1.12,11.09,3.2,7.3,-13.7
150254,1199,1199,1199,1199,0.52,642,11.91,3.26,5.40,67.42,7.21,4.60,1.97,1.3,-1.0,-12.1
150254,1199,1199,1199,1199,0.49,638,11.93,3.19,5.52,66.73,3.58,-0.25,9.58,1.2,4.3,-15.1
150254,1199,1199,1199,1199,0.51,640,11.90,3.23,5.67,66.07,-9.21,1.52,16.70,2.1,0.7,-15.2
150254,1199,1199,1199,1199,0.57,647,11.91,3.18,6.19,65.34,0.72,2.46,4.12,5.1,2.7,-14.0
150254,1199,1199,1199,1199,0.55,645,11.91,3.43,6.44,64.58,14.11,2.19,2.70,4.8,3.2,-15.1
150255,1199,1199,1199,1199,0.51,640,11.91,3.39,6.71,63.80,0.44,-3.32,4.60,2.4,4.2,-14.9
150255,1199,1199,1199,1199,0.52,641,11.92,3.42,6.15,63.01,-4.25,-2.48,9.18,3.6,1.0,-15.6
150255,1199,1199,1199,1199,0.49,638,11.92,3.39,6.24,62.17,4.43,1.76,-2.10,5.1,-1.5,-15.9
150255,1199,1199,1199,1199,0.53,643,11.93,3.74,5.70,61.32,-2.02,-0.92,14.84,5.4,-3.5,-18.4
150255,1199,1199,1199,1199,0.53,643,11.93,3.79,5.48,60.34,-1.54,-1.11,5.74,5.3,-1.8,-19.5
150255,1199,1199,1199,1199,0.53,643,11.92,4.08,4.53,59.30,0.21,3.39,7.41,2.9,-4.8,-20.1
150255,1199,1199,1199,1199,0.53,643,11.92,4.31,4.54,58.24,13.45,1.84,2.88,4.2,-4.0,-21.4
150255,1199,1199,1199,1199,0.47,636,11.92,4.49,4.39,57.15,6.93,0.81,3.58,3.8,-3.6,-21.9
150255,1199,1199,1199,1199,0.52,642,11.92,4.74,3.97,56.12,3.33,1.44,6.69,4.4,-5.1,-21.8
150255,1199,1199,1199,1199,0.52,641,11.91,4.90,3.15,55.01,0.36,6.36,4.45,4.4,-4.8,-21.2
150255,1199,1199,1199,1199,0.54,644,11.91,5.08,2.86,53.92,9.89,1.26,6.63,1.3,-3.2,-21.8
150255,1199,1199,1199,1199,0.53,643,11.90,5.10,2.71,52.82,-15.20,0.02,14.28,4.3,0.8,-23.1
150255,1199,1199,1199,1199,0.52,642,11.90,4.94,2.80,51.69,1.39,-1.76,10.71,2.7,0.0,-21.5
150255,1199,1199,1199,1199,0.52,641,11.91,5.06,2.62,50.52,-8.61,-0.48,10.29,4.0,1.5,-23.8
150255,1199,1199,1199,1199,0.52,642,11.90,4.86,2.76,49.24,2.48,0.60,3.65,3.7,1.4,-25.9
150255,1199,1199,1199,1199,0.52,641,11.91,4.88,2.97,48.04,2.91,-2.62,5.40,3.2,1.0,-25.0
150255,1199,1199,1199,1199,0.52,642,11.91,4.50,3.38,46.75,-0.89,-2.43,10.13,2.1,2.6,-25.6
150255,1199,1199,1199,1199,0.52,642,11.92,4.27,3.89,45.54,3.83,-0.77,15.03,4.2,1.9,-25.0
150255,1199,1199,1199,1199,0.52,642,11.93,4.39,3.79,44.23,-0.05,-2.39,11.14,3.5,1.2,-28.6
150255,1199,1199,1199,1199,0.52,641,11.91,4.18,4.02,42.91,-5.98,1.77,9.57,0.4,-0.7,-25.7
150256,1199,1199,1199,1199,0.49,638,11.91,3.80,4.97,41.71,10.38,-1.96,7.91,1.0,4.0,-22.6
150256,1199,1199,1199,1199,0.51,640,11.90,3.83,4.80,40.54,1.81,-0.76,14.74,2.7,1.7,-23.8
150256,1199,1199,1199,1199,0.50,639,11.91,3.75,4.57,39.29,2.34,4.81,0.37,4.3,-1.3,-24.8
150256,1199,1199,1199,1199,0.49,638,11.91,3.78,4.85,37.99,-1.12,1.18,10.97,0.8,1.1,-24.8
150256,1199,1199,1199,1199,0.49,638,11.91,3.78,4.73,36.74,-5.11,-0.82,14.31,2.3,1.6,-24.8
150256,1199,1199,1199,1199,0.50,639,11.92,3.66,4.13,35.40,-2.27,0.82,14.57,0.4,-0.9,-26.9
150256,1199,1199,1199,1199,0.53,643,11.91,3.45,4.05,34.02,-3.65,0.39,15.45,-0.5,-2.5,-27.8
150256,1199,1199,1199,1199,0.49,638,11.91,3.40,4.09,32.66,-4.02,4.00,8.02,1.8,0.6,-27.8
150256,1199,1199,1199,1199,0.51,640,11.91,3.12,4.55,31.26,-1.49,-3.35,7.28,-0.3,-0.4,-27.8
150256,1199,1199,1199,1199,0.48,637,11.91,3.08,4.35,29.91,-4.69,-1.88,14.97,-0.9,0.4,-28.1
150256,1199,1199,1199,1199,0.50,639,11.90,2.92,4.62,28.58,-0.47,-0.99,8.32,1.3,3.1,-25.2
150256,1199,1199,1199,1199,0.45,634,11.91,2.68,4.22,27.26,-2.02,1.45,5.58,-0.4,-1.7,-25.3
150256,1199,1199,1199,1199,0.50,639,11.92,2.58,4.16,26.10,-0.66,0.81,7.82,-0.1,-1.2,-21.7
150256,1199,1199,1199,1199,0.50,639,11.92,2.43,4.08,24.99,-4.45,4.05,12.87,0.9,-0.7,-20.8
150256,1199,1199,1199,1199,0.46,635,11.92,2.55,3.96,24.01,-7.50,-1.57,12.08,3.2,-3.3,-19.2
150256,1199,1199,1199,1199,0.50,639,11.91,2.52,3.35,23.02,0.12,-2.23,13.25,4.6,0.2,-19.2
150256,1199,1199,1199,1199,0.48,637,11.91,2.39,3.18,22.16,-2.44,1.64,3.77,3.1,-5.3,-15.5
150256,1199,1199,1199,1199,0.47,636,11.93,2.93,1.97,21.41,8.32,-0.02,15.08,1.8,-2.0,-14.6
150256,1199,1199,1199,1199,0.43,632,11.89,2.84,1.65,20.69,3.34,-1.87,5.23,-0.6,-2.7,-13.3
150256,1199,1199,1199,1199,0.45,634,11.91,2.82,1.13,19.98,-3.80,0.12,11.45,0.7,-5.9,-14.5
150257,1199,1199,1199,1199,0.44,633,11.89,2.87,1.12,19.38,-3.61,-1.44,8.15,0.5,-4.2,-10.7
150257,1199,1199,1199,1199,0.39,628,11.91,2.95,0.84,18.79,2.40,-3.21,7.94,-1.5,-4.1,-12.1
150257,1199,1199,1199,1199,0.44,633,11.91,2.66,0.47,18.27,6.12,-1.22,6.73,0.1,2.1,-10.5
150257,1199,1199,1199,1199,0.43,632,11.90,2.53,0.41,17.75,0.14,2.99,-0.69,0.6,-1.3,-11.7
150257,1199,1199,1199,1199,0.43,632,11.92,2.60,0.58,17.15,-1.50,0.38,13.65,-2.1,1.3,-11.7
150257,1199,1199,1199,1199,0.41,630,11.90,2.52,0.21,16.61,-2.63,2.84,12.21,-4.5,1.5,-9.8
150257,1199,1199,1199,1199,0.42,631,11.90,2.53,0.32,16.10,0.38,3.15,8.22,-2.9,1.6,-10.7
150257,1199,1199,1199,1199,0.44,633,11.91,2.37,0.62,15.61,-1.35,-2.33,13.29,0.4,-1.7,-8.9
150257,1199,1199,1199,1199,0.41,630,11.91,2.31,0.89,15.19,13.99,5.59,-2.74,-0.3,0.7,-9.1
150257,1199,1199,1199,1199,0.39,628,11.91,2.12,1.11,14.66,-9.97,-0.12,8.45,-1.0,5.8,-10.0
150257,1199,1199,1199,1199,0.42,631,11.91,2.05,1.30,14.15,-3.55,-1.40,10.57,0.0,1.6,-9.5
150257,1199,1199,1199,1199,0.41,630,11.91,1.97,1.49,13.84,-4.88,2.74,11.49,0.4,3.2,-4.3
150257,1199,1199,1199,1199,0.40,629,11.90,2.00,1.54,13.63,2.34,-3.07,17.23,1.0,2.6,-6.0
150257,1199,1199,1199,1199,0.43,632,11.91,2.07,1.59,13.42,-1.96,2.14,2.95,1.0,0.7,-2.3
150257,1199,1199,1199,1199,0.38,627,11.89,2.22,1.51,13.43,4.73,0.88,4.75,1.7,4.9,2.8
150257,1199,1199,1199,1199,0.44,633,11.91,2.27,1.82,13.69,0.30,1.87,7.67,4.9,6.0,5.4
150257,1199,1199,1199,1199,0.42,631,11.88,2.48,1.43,13.91,4.29,-0.61,7.74,0.8,4.3,5.4
150257,1199,1199,1199,1199,0.39,628,11.89,2.57,1.44,14.21,-1.63,-0.28,10.57,1.8,3.0,6.7
150257,1199,1199,1199,1199,0.36,625,11.90,2.37,1.85,14.56,14.68,0.34,7.02,-0.5,0.5,6.9
150257,1199,1199,1199,1199,0.38,627,11.91,2.18,2.58,15.11,-6.57,-1.16,10.56,0.5,4.8,12.6
150258,1199,1199,1199,1199,0.36,625,11.91,2.36,2.52,15.82,5.76,4.97,-0.13,0.7,3.7,15.3
150258,1199,1199,1199,1199,0.39,628,11.91,2.16,2.82,16.58,-0.10,0.01,14.63,-0.6,3.5,13.9
150258,1199,1199,1199,1199,0.38,627,11.90,2.35,2.72,17.29,1.12,0.13,8.70,0.8,6.5,14.3
150258,1199,1199,1199,1199,0.35,624,11.91,2.33,2.85,18.01,-10.72,-1.33,13.97,1.6,1.5,14.4
150258,1199,1199,1199,1199,0.34,622,11.89,2.19,3.51,18.61,4.67,-0.02,13.72,4.5,4.5,11.6
150258,1199,1199,1199,1199,0.31,619,11.91,2.85,3.45,19.23,-3.09,3.88,6.35,7.9,1.0,10.9
150258,1199,1199,1199,1199,0.36,625,11.92,3.63,3.24,19.86,5.71,1.78,7.07,8.4,2.6,12.8
150258,1199,1199,1199,1199,0.34,622,11.91,4.23,2.71,20.48,-9.39,-0.85,10.19,6.8,0.9,12.0
150258,1199,1199,1199,1199,0.35,624,11.90,4.82,3.17,21.07,7.11,2.41,0.93,11.7,-0.3,11.7
150258,1199,1199,1199,1199,0.35,623,11.91,5.53,2.89,21.54,-17.60,1.24,17.30,16.1,-0.2,7.3
150258,1199,1199,1199,1199,0.32,620,11.89,6.25,3.27,21.98,2.82,-0.52,8.84,14.2,-1.0,8.3
150258,1199,1199,1199,1199,0.35,624,11.91,6.99,3.31,22.43,4.95,3.18,8.25,13.2,-1.2,8.1
150258,1199,1199,1199,1199,0.31,619,11.91,7.66,2.68,22.78,3.90,0.79,7.94,14.2,-5.6,5.4
150258,1199,1199,1199,1199,0.31,619,11.92,8.71,1.68,23.12,-2.77,5.52,13.07,11.8,-3.2,9.3
150258,1199,1199,1199,1199,0.34,622,11.92,9.50,1.41,23.52,-0.97,-0.31,11.60,12.1,-5.8,8.2
150258,1199,1199,1199,1199,0.32,620,11.89,10.31,1.45,23.82,4.07,1.64,8.41,10.9,-2.4,5.9
150258,1199,1199,1199,1199,0.28,616,11.91,10.64,1.04,23.92,6.98,-0.05,9.79,9.5,-1.8,0.4
150258,1199,1199,1199,1199,0.31,619,11.91,11.24,0.60,23.89,-2.26,1.33,6.68,8.4,-1.1,-2.9
150258,1199,1199,1199,1199,0.23,611,11.90,11.56,0.69,23.73,-3.05,1.89,10.75,5.7,0.1,-4.3
150258,1199,1199,1199,1199,0.33,621,11.92,12.01,0.69,23.46,-1.08,0.01,7.41,1.2,2.7,-4.1
150259,1199,1199,1199,1199,0.28,616,11.92,11.92,1.19,23.29,10.91,-4.81,6.41,-1.2,1.4,-2.5
150259,1199,1199,1199,1199,0.32,620,11.91,11.94,0.96,22.96,-8.12,-0.12,11.51,-2.9,-1.5,-8.7
150259,1199,1199,1199,1199,0.32,620,11.92,12.10,1.04,22.48,-12.48,5.42,14.15,-3.3,2.7,-9.6
150259,1199,1199,1199,1199,0.34,622,11.91,11.99,1.17,22.03,-3.56,0.72,8.59,-4.5,1.2,-10.4
150259,1199,1199,1199,1199,0.29,617,11.91,11.59,0.99,21.54,-6.50,1.21,12.24,-4.3,3.3,-12.1
150259,1199,1199,1199,1199,0.29,617,11.91,11.33,1.44,21.00,-10.49,1.29,15.97,-3.6,4.9,-15.2
150259,1199,1199,1199,1199,0.36,625,11.90,11.11,1.85,20.27,-2.89,1.12,3.82,-1.1,3.7,-18.9
150259,1199,1199,1199,1199,0.32,620,11.92,11.05,2.81,19.38,-3.38,3.13,10.15,-1.3,3.7,-20.8
150259,1199,1199,1199,1199,0.33,621,11.92,10.84,2.79,18.31,4.20,0.35,12.17,-1.2,4.8,-24.3
