time,pwm1,pwm2,pwm3,pwm4,depth,press,voltage,roll,pitch,yaw,a_x,a_y,a_z,w_row,w_pitch,w_yaw
160219,1100,1100,1100,1100,-0.02,605,12.12,6.24,-1.07,-174.02,0.05,0.94,8.64,0.4,-0.1,0.5
160219,1100,1100,1100,1100,-0.02,605,12.12,6.26,-1.07,-173.99,0.12,0.89,8.80,0.5,-0.2,0.6
160220,1184,1184,1184,1184,-0.02,605,12.11,6.27,-1.09,-173.96,0.12,0.90,8.73,0.4,-0.3,0.7
160220,1184,1184,1184,1184,-0.02,605,12.06,6.28,-1.10,-173.92,0.11,1.02,8.61,0.3,-0.2,0.6
160220,1184,1184,1184,1184,0.00,607,12.02,6.28,-1.10,-173.89,0.17,0.97,8.64,0.3,-0.1,0.7
160220,1184,1184,1184,1184,0.02,609,12.02,6.28,-1.11,-173.86,0.16,0.90,8.61,0.2,-0.1,0.6
160220,1184,1184,1184,1184,0.04,611,12.01,6.28,-1.11,-173.83,0.07,0.88,8.71,0.0,-0.1,0.5
160220,1184,1184,1184,1184,0.05,612,12.00,6.22,-1.22,-173.83,0.86,1.43,8.53,-2.0,-1.6,-0.9
160220,1184,1184,1184,1184,0.03,610,12.01,5.95,-1.39,-173.93,6.80,-0.53,2.16,-5.1,-6.7,-2.6
160220,1184,1184,1184,1184,0.05,612,12.01,5.54,-2.54,-174.19,0.29,-0.81,9.52,-11.0,-16.7,-5.4
160220,1184,1184,1184,1184,0.06,613,11.98,4.81,-3.53,-174.57,0.80,2.44,8.39,-11.7,-21.4,-6.8
160220,1184,1184,1184,1184,0.08,616,12.01,4.60,-4.41,-175.15,6.89,1.22,9.81,-5.5,-6.5,-10.0
160220,1184,1184,1184,1184,0.09,617,12.00,4.36,-5.19,-175.57,-6.76,0.26,17.86,-4.9,-11.5,-7.0
160220,1184,1184,1184,1184,0.10,618,12.00,3.96,-5.07,-176.02,2.26,-0.15,1.25,-2.9,3.0,-10.2
160220,1184,1184,1184,1184,0.12,620,12.00,3.99,-5.19,-176.47,4.34,-4.87,8.83,-1.9,7.0,-7.9
160220,1184,1184,1184,1184,0.08,616,12.01,4.07,-4.72,-176.84,-7.81,-3.07,10.20,-1.9,4.2,-7.4
160220,1184,1184,1184,1184,0.10,618,11.99,4.25,-3.87,-177.30,3.78,-0.04,1.69,-2.0,19.9,-8.5
160220,1184,1184,1184,1184,0.13,621,12.00,4.01,-3.86,-177.77,-14.10,1.69,16.77,-1.3,-6.4,-9.9
160220,1184,1184,1184,1184,0.12,620,12.00,4.09,-3.32,-178.26,4.45,2.16,10.20,-1.6,-2.1,-9.0
160220,1184,1184,1184,1184,0.13,621,12.00,3.92,-3.50,-178.79,-6.81,-1.58,8.05,-2.0,1.9,-11.0
160220,1184,1184,1184,1184,0.13,621,12.00,4.36,-2.53,-179.43,2.68,5.95,3.16,-1.4,12.3,-12.7
160220,1184,1184,1184,1184,0.18,626,11.99,4.48,-2.29,179.89,9.31,-6.35,4.78,-0.9,17.0,-15.4
160221,1184,1184,1184,1184,0.17,625,11.99,4.48,-1.95,179.05,0.62,-0.38,7.93,0.4,-1.5,-17.3
160221,1184,1184,1184,1184,0.19,627,12.00,4.21,-1.39,178.19,6.72,-0.88,14.75,1.3,-3.5,-17.2
160221,1184,1184,1184,1184,0.19,627,12.00,4.32,-2.01,177.24,5.98,-2.89,5.52,2.7,10.1,-20.6
160221,1184,1184,1184,1184,0.18,626,11.99,4.77,-1.43,176.17,1.98,2.56,5.07,2.1,-3.3,-20.5
160221,1184,1184,1184,1184,0.19,627,12.00,4.82,-1.43,175.15,6.17,-0.52,8.81,3.1,12.0,-21.2
160221,1184,1184,1184,1184,0.20,628,11.99,4.81,-2.06,174.06,-5.77,-4.15,19.60,4.3,1.6,-24.0
160221,1184,1184,1184,1184,0.21,629,12.00,4.93,-1.81,172.91,12.58,0.34,5.63,5.3,11.9,-23.3
160221,1184,1184,1184,1184,0.19,627,12.00,5.28,-1.50,171.79,-5.76,-0.55,12.24,5.6,-2.4,-23.9
160221,1184,1184,1184,1184,0.21,629,11.99,5.46,-1.91,170.58,-13.68,3.24,13.61,7.3,-9.3,-25.3
160221,1184,1184,1184,1184,0.22,630,12.00,6.00,-1.87,169.39,-3.85,1.23,9.52,6.7,-2.3,-22.6
160221,1184,1184,1184,1184,0.22,630,12.00,6.60,-1.43,168.22,-5.90,0.98,16.67,8.0,3.5,-23.9
160221,1184,1184,1184,1184,0.23,631,11.99,6.80,-1.19,166.93,3.95,-3.22,3.63,5.2,6.4,-28.0
160221,1184,1184,1184,1184,0.20,628,12.00,6.88,-1.47,165.60,-2.90,0.07,7.41,7.4,-12.6,-25.5
160221,1184,1184,1184,1184,0.25,634,12.00,7.05,-1.35,164.26,3.27,2.23,-1.00,8.4,-9.7,-29.1
160221,1184,1184,1184,1184,0.25,633,12.00,7.40,-1.44,162.84,3.33,2.13,3.45,7.1,-0.8,-29.7
160221,1184,1184,1184,1184,0.24,632,11.99,7.57,-1.46,161.41,0.04,5.53,7.50,4.7,-7.9,-27.6
160221,1184,1184,1184,1184,0.23,631,12.01,8.10,-0.94,160.09,0.19,0.03,5.74,4.4,2.0,-29.1
160221,1184,1184,1184,1184,0.26,635,12.00,7.82,-1.08,158.62,2.01,1.16,10.05,2.1,-0.7,-30.8
160221,1184,1184,1184,1184,0.25,634,11.99,7.94,-0.65,157.17,3.86,4.17,8.82,3.5,6.2,-28.9
160221,1184,1184,1184,1184,0.25,634,11.99,8.04,-0.44,155.72,-5.35,-1.30,8.94,3.2,1.4,-32.8
160222,1184,1184,1184,1184,0.24,632,12.01,8.35,-0.13,154.19,-15.74,0.23,16.58,1.1,-11.3,-30.9
160222,1184,1184,1184,1184,0.25,633,12.01,8.41,0.21,152.75,7.79,-4.59,14.00,2.1,-2.3,-32.1
160222,1184,1184,1184,1184,0.27,636,12.01,8.35,0.16,151.18,9.83,-1.11,-7.56,3.4,13.9,-32.5
160222,1184,1184,1184,1184,0.25,633,11.98,8.20,0.48,149.69,-0.96,-0.42,-1.63,2.5,1.3,-34.0
160222,1184,1184,1184,1184,0.30,639,11.98,8.05,0.57,148.16,0.70,0.71,7.12,-0.5,-4.3,-30.9
160222,1184,1184,1184,1184,0.28,637,12.00,7.66,0.73,146.54,-8.03,-0.30,15.37,-3.0,-8.7,-33.3
160222,1184,1184,1184,1184,0.30,639,11.99,7.44,0.98,144.90,16.09,0.33,4.54,-1.7,-3.4,-33.6
160222,1184,1184,1184,1184,0.28,637,12.01,7.08,0.53,143.29,-8.87,1.74,13.64,-2.6,-6.2,-33.6
160222,1184,1184,1184,1184,0.29,638,12.00,7.05,0.41,141.63,-1.00,3.47,13.07,-3.2,5.4,-34.5
160222,1184,1184,1184,1184,0.28,637,11.99,6.73,0.43,139.91,-11.89,-1.79,12.39,-3.5,0.3,-34.5
160222,1184,1184,1184,1184,0.27,636,11.98,6.17,0.70,138.19,5.31,0.82,10.91,-3.7,-2.9,-33.6
160222,1184,1184,1184,1184,0.30,639,12.01,6.22,0.46,136.48,-1.29,4.52,19.47,-3.8,5.4,-34.9
160222,1184,1184,1184,1184,0.31,640,11.99,6.39,0.57,134.78,6.97,-3.24,10.21,-5.3,-2.7,-34.5
160222,1184,1184,1184,1184,0.30,639,12.00,6.54,0.66,133.06,4.01,2.06,9.47,0.2,5.1,-33.9
160222,1184,1184,1184,1184,0.29,638,12.00,6.52,0.59,131.38,-12.00,2.77,15.20,-0.6,-3.3,-31.2
160222,1184,1184,1184,1184,0.31,640,11.99,6.15,0.29,129.78,-5.14,-3.55,16.06,0.5,-6.0,-31.2
160222,1184,1184,1184,1184,0.32,641,12.00,5.99,0.76,128.15,3.28,0.23,4.30,0.9,9.8,-32.6
160222,1184,1184,1184,1184,0.33,642,12.00,6.06,0.83,126.54,-5.65,3.62,3.74,-0.3,15.4,-32.8
160222,1184,1184,1184,1184,0.31,640,11.98,6.06,1.02,124.86,-3.01,-0.31,9.56,0.0,2.7,-34.0
160222,1184,1184,1184,1184,0.34,643,12.00,5.87,1.06,123.17,-9.57,0.64,12.72,-1.0,-8.5,-33.6
160223,1184,1184,1184,1184,0.29,638,11.98,5.56,1.06,121.54,-13.27,1.37,16.59,-0.9,-11.5,-31.8
160223,1184,1184,1184,1184,0.35,644,12.00,5.42,1.66,119.98,1.93,0.14,2.32,-2.1,12.2,-33.0
160223,1184,1184,1184,1184,0.32,641,11.99,5.43,1.82,118.45,-6.92,6.31,4.96,0.5,-4.5,-31.3
160223,1184,1184,1184,1184,0.33,642,12.01,5.28,1.92,116.93,9.05,-4.98,4.65,0.3,-0.4,-30.1
160223,1184,1184,1184,1184,0.30,639,11.98,4.89,1.89,115.44,9.12,2.07,2.54,-0.7,2.5,-28.9
160223,1184,1184,1184,1184,0.32,641,12.01,4.52,2.17,113.96,11.50,-1.67,0.10,1.2,18.5,-30.2
160223,1184,1184,1184,1184,0.34,643,11.99,4.82,1.76,112.49,-14.78,-6.04,19.60,-1.3,-12.1,-29.1
160223,1184,1184,1184,1184,0.32,641,11.99,4.72,2.53,110.96,2.08,-7.54,14.48,1.3,7.1,-29.5
160223,1184,1184,1184,1184,0.35,644,11.98,4.01,2.11,109.45,-0.98,-0.10,10.68,-1.1,6.3,-27.0
160223,1184,1184,1184,1184,0.38,647,11.98,3.88,2.11,108.06,10.39,0.78,5.66,-0.5,-1.0,-28.4
160223,1184,1184,1184,1184,0.39,648,12.00,3.79,1.61,106.50,3.54,-1.77,5.93,-0.5,11.6,-29.4
160223,1184,1184,1184,1184,0.37,646,11.98,3.97,1.35,105.09,2.87,-3.01,0.66,0.9,11.0,-28.0
160223,1184,1184,1184,1184,0.32,641,11.99,3.63,1.25,103.60,1.67,-0.24,10.25,0.7,4.7,-29.0
160223,1184,1184,1184,1184,0.34,643,12.00,3.36,0.89,102.17,-9.76,5.38,18.05,1.6,-2.8,-28.4
160223,1184,1184,1184,1184,0.37,646,11.99,3.37,1.12,100.73,10.05,1.31,8.88,2.3,0.4,-27.4
160223,1184,1184,1184,1184,0.38,647,11.99,3.64,0.90,99.32,-6.45,2.31,12.23,2.1,-0.5,-28.8
160223,1184,1184,1184,1184,0.37,646,12.00,3.72,1.53,97.86,-6.92,-4.38,13.40,3.2,6.8,-27.9
160223,1184,1184,1184,1184,0.39,648,11.99,3.32,1.46,96.44,-5.34,3.76,16.04,2.1,-4.3,-28.1
160223,1184,1184,1184,1184,0.43,653,11.98,3.14,1.57,94.98,-6.88,4.73,11.44,2.2,2.6,-28.7
160223,1184,1184,1184,1184,0.42,652,11.99,2.91,1.81,93.56,6.45,-4.24,7.12,5.2,4.8,-27.1
160224,1184,1184,1184,1184,0.42,652,11.99,3.10,1.82,92.25,12.29,-3.57,7.22,2.9,5.2,-27.2
160224,1184,1184,1184,1184,0.42,652,11.99,2.97,2.03,90.82,-4.89,-4.36,13.74,1.6,7.6,-28.3
160224,1184,1184,1184,1184,0.41,650,12.00,2.66,1.52,89.49,0.20,0.90,10.72,4.2,-1.3,-25.8
160224,1184,1184,1184,1184,0.43,653,11.99,3.07,1.72,88.12,7.82,0.45,7.77,4.2,1.8,-27.7
160224,1184,1184,1184,1184,0.42,651,11.98,3.15,1.98,86.74,-6.56,-0.82,12.56,2.3,-6.4,-25.7
160224,1184,1184,1184,1184,0.43,653,11.99,3.15,2.14,85.36,4.36,-2.97,8.74,3.3,-3.2,-26.9
160224,1184,1184,1184,1184,0.42,652,11.99,3.89,2.80,74.78,3.75,-0.55,1.49,2.2,1.8,-32.4
160224,1184,1184,1184,1184,0.42,652,11.98,3.82,2.44,73.14,4.03,0.60,13.33,3.0,-1.3,-32.0
160224,1184,1184,1184,1184,0.47,657,11.99,3.49,2.49,71.52,3.59,2.77,-2.08,0.2,3.6,-29.8
160224,1184,1184,1184,1184,0.43,653,11.98,3.49,2.34,69.98,2.87,0.18,11.23,2.0,-2.4,-30.9
160224,1184,1184,1184,1184,0.43,653,11.98,3.60,1.91,68.45,-2.27,-3.30,17.05,1.4,1.9,-30.8
160224,1184,1184,1184,1184,0.45,655,11.99,3.44,1.94,66.90,-1.61,-0.17,10.36,0.9,-5.2,-32.2
160224,1184,1184,1184,1184,0.45,655,11.98,3.36,1.48,65.33,-0.65,-0.19,11.43,0.9,-5.3,-30.9
160224,1184,1184,1184,1184,0.43,653,12.00,3.43,1.63,63.75,7.42,4.86,1.31,0.8,-6.2,-31.9
160224,1184,1184,1184,1184,0.45,655,11.98,3.77,1.26,62.14,-0.35,-1.88,8.55,-0.2,-6.0,-31.9
160224,1184,1184,1184,1184,0.45,655,12.00,3.65,1.55,60.58,1.95,1.50,4.87,0.9,6.2,-30.4
160224,1184,1184,1184,1184,0.45,655,11.98,3.81,1.29,59.03,-19.60,0.09,17.70,1.1,-3.2,-29.6
160224,1184,1184,1184,1184,0.47,657,11.98,3.80,1.09,57.55,-4.29,-0.38,5.00,2.1,-4.5,-29.2
160224,1184,1184,1184,1184,0.48,658,11.98,3.73,1.47,56.10,13.66,-1.85,12.63,0.4,19.1,-29.5
160224,1184,1184,1184,1184,0.49,659,11.99,3.70,1.32,54.71,-1.10,0.78,8.63,2.0,7.1,-27.2
160225,1184,1184,1184,1184,0.49,659,11.99,3.64,1.48,53.26,19.60,-0.69,6.55,1.5,14.2,-29.2
160225,1184,1184,1184,1184,0.47,657,11.98,3.60,1.40,51.78,-6.65,-0.14,14.63,2.6,-2.0,-29.1
160225,1184,1184,1184,1184,0.47,657,11.98,3.40,1.59,50.26,-2.65,1.38,7.02,1.3,-3.4,-29.8
160225,1184,1184,1184,1184,0.49,659,11.99,3.56,1.80,48.81,-9.28,1.37,5.44,2.6,-2.4,-27.6
160225,1184,1184,1184,1184,0.50,660,11.98,3.79,1.75,47.34,-5.45,2.20,8.80,1.3,5.4,-30.2
160225,1184,1184,1184,1184,0.48,658,11.99,3.77,2.39,45.91,-3.85,3.67,8.38,1.8,-4.2,-26.9
160225,1184,1184,1184,1184,0.55,665,11.99,3.68,2.68,44.50,-4.25,-3.31,14.07,2.7,-12.0,-27.1
160225,1184,1184,1184,1184,0.51,661,11.97,3.65,2.75,43.06,11.61,-4.20,2.17,3.6,4.5,-28.4
160225,1184,1184,1184,1184,0.50,660,11.99,3.83,2.73,41.73,12.97,2.90,0.10,4.5,11.6,-26.2
160225,1184,1184,1184,1184,0.52,662,11.98,4.22,2.65,40.37,2.17,-5.15,11.89,2.1,-8.1,-27.2
160225,1184,1184,1184,1184,0.49,659,11.99,3.94,2.74,39.01,-3.34,-0.12,17.06,1.3,0.6,-26.2
160225,1184,1184,1184,1184,0.50,660,11.98,3.62,2.85,37.68,6.05,-0.96,6.14,-1.3,6.7,-26.6
160225,1184,1184,1184,1184,0.51,661,11.98,3.66,2.88,36.44,3.94,-0.72,8.88,-0.1,8.2,-24.1
160225,1184,1184,1184,1184,0.50,660,12.00,3.46,2.74,35.23,0.89,0.60,-1.44,1.1,1.0,-24.7
160225,1184,1184,1184,1184,0.54,664,11.98,3.08,2.84,33.99,7.03,1.36,5.31,0.4,21.4,-25.7
160225,1184,1184,1184,1184,0.50,660,11.99,2.61,2.48,32.68,-4.27,1.34,5.47,0.7,-0.5,-25.3
160225,1184,1184,1184,1184,0.51,661,11.99,2.40,3.03,31.42,8.16,1.56,1.85,-2.0,15.7,-24.2
160225,1184,1184,1184,1184,0.56,666,12.00,2.24,3.22,30.17,2.35,-1.38,4.86,-2.7,1.5,-25.0
160225,1184,1184,1184,1184,0.53,663,11.99,2.13,3.69,28.95,1.42,3.37,2.64,-2.2,7.7,-22.6
160225,1184,1184,1184,1184,0.53,663,12.00,1.85,3.43,27.76,-16.46,-0.53,19.60,-0.9,-1.6,-23.4
160226,1184,1184,1184,1184,0.55,665,11.98,1.76,3.45,26.58,-10.50,-0.49,16.76,-2.3,-3.9,-24.2
160226,1184,1184,1184,1184,0.53,663,12.00,1.77,3.39,25.39,0.30,-0.45,11.74,-0.2,2.9,-23.7
160226,1184,1184,1184,1184,0.55,665,11.99,1.59,3.67,24.29,0.56,-4.51,4.57,3.7,-1.2,-21.5
160226,1184,1184,1184,1184,0.56,666,12.00,1.42,3.42,23.26,-2.08,-7.65,13.31,2.7,-2.4,-20.6
160226,1184,1184,1184,1184,0.57,667,11.98,1.03,2.94,22.23,7.14,1.41,0.45,6.7,0.7,-20.4
160226,1184,1184,1184,1184,0.54,664,11.99,1.53,2.96,21.25,6.40,0.83,8.29,7.2,19.6,-19.8
160226,1184,1184,1184,1184,0.54,664,11.98,1.70,2.52,20.31,-1.93,-2.49,8.45,7.4,1.4,-19.0
160226,1184,1184,1184,1184,0.55,665,11.98,2.18,2.84,19.42,-5.38,-3.98,4.00,8.1,4.0,-18.4
160226,1184,1184,1184,1184,0.54,664,11.99,2.19,2.63,18.51,-1.61,-3.19,17.09,7.0,-3.0,-16.7
160226,1184,1184,1184,1184,0.58,668,11.99,2.60,2.62,17.72,1.44,-2.64,4.48,8.5,-4.7,-16.2
160226,1184,1184,1184,1184,0.58,668,11.98,3.01,2.95,16.93,3.23,-3.11,-3.21,4.8,-0.4,-15.8
160226,1184,1184,1184,1184,0.54,664,11.99,2.93,2.29,16.24,-7.24,1.00,16.61,2.6,-4.3,-14.0
160226,1184,1184,1184,1184,0.51,661,11.97,3.12,2.33,15.53,0.46,-2.32,14.22,3.2,-8.5,-14.0
160226,1184,1184,1184,1184,0.56,666,11.99,3.16,2.25,14.86,12.54,0.01,5.50,4.3,15.3,-14.0
160226,1184,1184,1184,1184,0.60,671,11.98,3.35,2.38,14.21,0.21,0.76,15.14,2.5,9.7,-12.3
160226,1184,1184,1184,1184,0.54,664,11.98,3.61,2.63,13.57,-0.06,-6.81,13.58,3.1,11.2,-14.9
160226,1184,1184,1184,1184,0.57,667,11.98,3.22,2.88,12.82,6.40,-3.62,6.54,3.1,0.9,-13.1
160226,1184,1184,1184,1184,0.58,668,11.98,3.59,3.50,12.07,4.92,0.45,0.09,3.5,8.9,-14.8
160226,1184,1184,1184,1184,0.58,668,11.99,3.63,3.57,11.28,-7.23,-1.58,8.21,3.4,10.9,-14.8
160226,1184,1184,1184,1184,0.58,668,11.98,3.48,3.62,10.41,-4.41,1.00,16.10,4.2,9.0,-17.6
160227,1184,1184,1184,1184,0.57,667,11.99,3.76,4.28,9.57,3.09,-1.56,8.65,2.3,4.3,-16.8
160227,1184,1184,1184,1184,0.58,668,11.99,3.92,3.78,8.81,-12.55,3.62,19.60,4.3,-1.7,-14.6
160227,1184,1184,1184,1184,0.58,669,11.98,3.71,4.28,7.98,5.95,-0.22,3.77,2.0,1.3,-15.4
160227,1184,1184,1184,1184,0.59,670,11.99,3.62,4.18,7.22,4.33,-0.63,3.91,1.3,-2.9,-15.8
160227,1184,1184,1184,1184,0.63,674,12.00,3.77,3.89,6.47,13.25,1.02,0.97,0.9,4.6,-16.5
160227,1184,1184,1184,1184,0.58,669,11.99,4.03,3.92,5.75,-3.25,6.65,12.32,0.7,-4.3,-14.9
160227,1184,1184,1184,1184,0.59,670,11.98,4.02,4.08,5.01,5.36,-0.74,1.71,2.9,-1.5,-14.4
160227,1184,1184,1184,1184,0.61,672,11.98,3.89,3.77,4.42,10.88,-2.43,7.10,2.9,3.4,-11.6
160227,1184,1184,1184,1184,0.61,672,11.99,3.84,2.95,3.83,3.56,0.52,1.48,1.4,-1.8,-11.6
160227,1184,1184,1184,1184,0.63,674,11.99,4.07,3.25,3.32,7.01,-3.04,3.05,1.3,0.7,-10.6
160227,1184,1184,1184,1184,0.60,671,11.98,4.17,2.75,2.80,-1.36,1.49,10.99,1.4,-12.5,-11.4
160227,1184,1184,1184,1184,0.63,674,12.00,4.35,2.61,2.31,3.64,-1.11,-2.17,0.5,-0.4,-11.0
160227,1184,1184,1184,1184,0.61,672,11.98,4.25,2.77,1.85,8.75,3.31,-0.17,-0.4,-3.7,-8.7
160227,1184,1184,1184,1184,0.63,674,11.97,4.60,2.71,1.49,-5.72,0.02,15.40,0.2,-4.9,-9.3
160227,1184,1184,1184,1184,0.60,671,11.98,4.44,2.30,1.03,-17.33,2.06,17.36,1.1,-12.7,-7.8
160227,1184,1184,1184,1184,0.61,672,11.99,4.44,2.24,0.64,2.63,1.33,6.63,1.3,-10.6,-7.4
160227,1184,1184,1184,1184,0.65,676,11.97,4.24,1.52,0.26,-4.67,5.48,13.33,0.9,-4.5,-7.8
160227,1184,1184,1184,1184,0.67,678,11.98,4.20,1.26,-0.21,3.67,4.96,14.41,-0.4,1.0,-9.9
160227,1184,1184,1184,1184,0.63,674,11.98,4.36,1.09,-0.64,-8.37,-3.45,16.16,-0.5,-3.6,-9.9
160227,1184,1184,1184,1184,0.62,673,11.98,4.10,0.82,-1.11,4.77,1.67,5.52,-1.2,12.0,-11.8
160228,1184,1184,1184,1184,0.68,679,11.98,4.21,0.90,-1.71,7.59,1.38,0.84,-2.2,-0.6,-11.5
160228,1184,1184,1184,1184,0.65,676,11.99,4.02,0.40,-2.18,11.68,-3.61,12.46,-1.1,-1.5,-9.9
160228,1184,1184,1184,1184,0.64,675,11.98,3.91,0.46,-2.60,6.45,-1.23,2.60,0.7,7.1,-9.0
160228,1184,1184,1184,1184,0.67,678,11.99,3.80,-0.18,-3.02,1.75,0.22,8.33,1.1,1.2,-10.6
160228,1184,1184,1184,1184,0.65,676,11.98,4.14,0.24,-3.53,6.34,-0.00,10.98,0.1,1.4,-13.3
160228,1184,1184,1184,1184,0.69,680,11.98,4.39,0.75,-4.08,6.13,2.60,4.14,1.3,9.9,-10.9
160228,1184,1184,1184,1184,0.71,682,11.98,4.34,1.15,-4.56,5.23,4.41,-0.56,2.4,-3.7,-9.9
160228,1184,1184,1184,1184,0.71,682,11.99,4.57,1.25,-5.05,-6.47,2.93,7.73,3.7,-7.3,-10.9
160228,1184,1184,1184,1184,0.66,677,11.98,4.55,1.07,-5.53,-1.64,2.73,12.20,1.0,4.0,-10.1
160228,1184,1184,1184,1184,0.68,679,11.97,4.82,1.45,-5.93,1.82,4.73,6.94,-0.1,2.4,-7.3
160228,1184,1184,1184,1184,0.68,679,11.97,4.97,1.26,-6.40,-10.08,-5.87,19.47,-0.2,1.2,-9.7
160228,1184,1184,1184,1184,0.65,676,11.99,4.75,0.81,-6.90,-3.77,-3.58,15.11,-1.1,-6.3,-11.5
160228,1184,1184,1184,1184,0.68,679,11.98,4.60,0.83,-7.48,-2.78,-2.97,17.96,1.9,-2.6,-12.0
160228,1184,1184,1184,1184,0.69,680,11.99,4.82,1.00,-8.10,0.44,-1.08,6.25,2.8,13.0,-13.3
160228,1184,1184,1184,1184,0.69,680,11.97,5.20,1.49,-8.69,6.32,-0.97,2.65,1.6,9.5,-11.8
160228,1184,1184,1184,1184,0.69,680,11.98,5.12,1.07,-9.40,4.93,-4.14,13.84,2.6,8.1,-15.7
160228,1184,1184,1184,1184,0.68,679,11.97,5.03,1.06,-10.14,-1.83,0.43,11.85,2.7,1.8,-14.0
160228,1184,1184,1184,1184,0.69,680,11.97,5.00,1.27,-10.89,12.79,-3.48,2.50,0.4,9.0,-15.0
160228,1184,1184,1184,1184,0.69,680,11.98,4.72,0.68,-11.69,0.76,-2.25,3.86,1.4,1.0,-17.9
160228,1184,1184,1184,1184,0.69,680,12.00,4.85,0.93,-12.59,-7.93,1.44,11.73,0.9,-5.3,-18.9
160229,1184,1184,1184,1184,0.70,681,11.99,4.58,0.82,-13.57,-0.59,0.93,5.38,1.9,-5.3,-20.2
160229,1184,1184,1184,1184,0.71,682,11.98,4.47,0.56,-14.56,9.20,-1.39,9.53,-0.2,-1.7,-20.1
160229,1184,1184,1184,1184,0.73,684,11.98,4.84,1.06,-15.53,6.72,1.96,7.65,0.0,1.5,-20.3
160229,1184,1184,1184,1184,0.69,680,11.98,5.13,1.39,-16.54,-7.33,-1.27,14.63,2.6,-5.2,-22.3
160229,1184,1184,1184,1184,0.71,682,11.97,4.91,0.97,-17.54,-9.63,-1.78,11.26,1.1,-2.2,-19.7
160229,1184,1184,1184,1184,0.70,681,11.98,4.87,1.05,-18.57,-10.98,2.11,12.44,1.1,-6.5,-20.9
160229,1184,1184,1184,1184,0.74,685,11.98,5.02,1.31,-19.59,-12.45,3.20,10.06,0.6,-2.4,-21.6
160229,1184,1184,1184,1184,0.70,681,11.97,5.51,1.97,-20.61,3.24,-1.53,11.70,2.0,9.3,-21.2
160229,1184,1184,1184,1184,0.72,683,11.97,5.41,1.92,-21.61,0.25,-2.80,12.89,1.6,2.7,-19.8
160229,1184,1184,1184,1184,0.72,683,11.98,5.36,1.93,-22.61,19.60,-1.18,-3.08,1.5,6.8,-20.0
160229,1184,1184,1184,1184,0.69,680,11.98,5.34,1.85,-23.54,9.17,1.70,0.02,1.8,10.6,-18.1
160229,1184,1184,1184,1184,0.70,681,11.97,5.37,2.07,-24.50,4.72,2.48,2.82,2.6,-12.3,-17.8
160229,1184,1184,1184,1184,0.73,684,11.99,5.18,2.01,-25.39,9.85,4.06,4.85,1.5,6.7,-16.4
160229,1184,1184,1184,1184,0.73,684,11.98,5.29,1.58,-26.25,3.05,-2.00,5.19,1.4,-3.7,-17.7
160229,1184,1184,1184,1184,0.72,683,11.97,5.18,1.15,-27.10,-3.28,-3.10,18.53,2.1,-1.6,-16.5
