time,pwm1,pwm2,pwm3,pwm4,depth,press,voltage,roll,pitch,yaw,a_x,a_y,a_z,w_row,w_pitch,w_yaw
165939,1100,1100,1100,1100,-0.02,604,12.21,6.22,-1.28,-123.74,0.21,0.93,8.63,-0.1,-0.1,-0.1
165939,1100,1100,1100,1100,0.01,607,12.21,6.20,-1.28,-123.74,0.26,0.89,8.66,-0.5,-0.3,-0.1
165940,1184,1184,1184,1184,0.01,607,12.18,6.16,-1.29,-123.75,0.16,0.94,8.60,-0.8,-0.4,-0.2
165940,1184,1184,1184,1184,0.04,610,12.16,6.12,-1.30,-123.76,0.18,0.97,8.74,-1.0,-0.5,-0.1
165940,1184,1184,1184,1184,0.02,608,12.09,6.07,-1.33,-123.77,0.19,0.85,8.52,-1.2,-0.7,-0.3
165940,1184,1184,1184,1184,0.01,607,12.08,6.01,-1.35,-123.78,0.28,0.87,8.66,-1.2,-0.4,-0.1
165940,1184,1184,1184,1184,0.02,608,12.07,5.89,-1.29,-123.78,0.59,0.98,8.99,-2.7,4.5,-0.3
165940,1184,1184,1184,1184,0.03,609,12.08,5.70,-0.87,-123.76,-4.92,4.13,10.08,-9.1,7.9,0.2
165940,1184,1184,1184,1184,0.08,615,12.06,5.12,0.15,-123.64,-7.00,-1.64,19.60,-17.5,29.4,-1.3
165940,1184,1184,1184,1184,0.07,613,12.05,4.40,2.42,-123.55,-11.04,8.64,16.18,-19.2,31.7,-3.1
165940,1184,1184,1184,1184,0.09,616,12.05,3.64,3.74,-123.56,10.64,-0.21,-2.85,-14.2,10.1,-3.0
165940,1184,1184,1184,1184,0.08,614,12.07,2.77,3.34,-123.83,-19.60,5.72,12.04,-8.9,-25.0,-5.9
165940,1184,1184,1184,1184,0.11,618,12.06,2.69,2.83,-124.15,-19.60,-0.75,19.60,-7.4,-21.4,-8.1
165940,1184,1184,1184,1184,0.15,622,12.05,2.31,2.37,-124.70,3.42,1.36,3.76,-3.0,-17.4,-10.0
165940,1184,1184,1184,1184,0.13,620,12.05,2.18,2.11,-125.24,13.04,4.75,1.13,-2.5,-9.7,-9.8
165940,1184,1184,1184,1184,0.13,620,12.08,2.02,1.44,-125.85,11.90,0.07,-0.80,-0.9,2.3,-11.8
165940,1184,1184,1184,1184,0.10,617,12.06,1.73,0.36,-126.44,-12.45,0.12,19.60,1.5,-16.5,-11.2
165940,1184,1184,1184,1184,0.14,621,12.06,2.11,-0.13,-127.08,-1.97,-0.71,9.42,2.0,-13.4,-11.2
165940,1184,1184,1184,1184,0.16,623,12.06,2.27,-0.47,-127.70,6.12,2.19,6.58,3.8,-22.2,-12.8
165940,1184,1184,1184,1184,0.16,623,12.06,2.29,-0.88,-128.38,-3.38,3.84,2.40,4.9,-22.8,-12.6
165940,1184,1184,1184,1184,0.17,624,12.06,2.54,-1.67,-129.06,-3.09,0.65,14.14,2.0,-11.4,-12.9
165940,1184,1184,1184,1184,0.15,622,12.06,2.90,-1.57,-129.79,6.06,9.52,4.60,2.8,-11.9,-14.8
165941,1184,1184,1184,1184,0.20,627,12.07,2.94,-2.15,-130.59,1.11,4.43,9.78,2.7,0.7,-15.7
165941,1184,1184,1184,1184,0.22,629,12.06,3.07,-2.31,-131.46,-5.92,-2.04,7.07,1.1,-13.8,-16.7
165941,1184,1184,1184,1184,0.20,627,12.06,3.17,-2.97,-132.31,2.16,-0.17,11.61,1.8,-13.1,-16.1
165941,1184,1184,1184,1184,0.19,626,12.05,3.40,-2.85,-133.18,1.82,-0.71,10.49,1.5,0.9,-19.2
165941,1184,1184,1184,1184,0.21,628,12.07,3.40,-2.94,-134.21,4.10,0.16,-1.57,3.5,12.3,-22.3
165941,1184,1184,1184,1184,0.21,628,12.05,3.50,-3.15,-135.27,-0.04,1.47,11.61,1.2,-2.5,-21.2
165941,1184,1184,1184,1184,0.19,626,12.06,3.80,-3.19,-136.47,2.72,-2.15,13.52,0.9,-1.5,-24.6
165941,1184,1184,1184,1184,0.25,632,12.07,3.63,-3.43,-137.62,-12.98,2.06,13.73,1.0,-1.5,-23.1
165941,1184,1184,1184,1184,0.25,632,12.05,3.56,-3.21,-138.80,12.08,-0.03,-3.43,1.1,11.0,-24.4
165941,1184,1184,1184,1184,0.24,631,12.06,3.77,-2.69,-140.10,14.65,3.73,1.94,2.6,11.5,-26.6
165941,1184,1184,1184,1184,0.25,633,12.06,3.80,-3.58,-141.40,-14.78,1.87,19.60,4.7,-12.0,-24.8
165941,1184,1184,1184,1184,0.25,633,12.05,3.62,-3.68,-142.67,-7.40,-1.63,15.32,3.0,-6.8,-26.4
165941,1184,1184,1184,1184,0.25,632,12.06,3.83,-3.14,-144.11,-3.86,4.57,4.57,1.2,-6.2,-29.9
165941,1184,1184,1184,1184,0.25,632,12.06,4.10,-2.84,-145.48,-1.36,-1.93,7.63,4.7,-6.2,-26.6
165941,1184,1184,1184,1184,0.25,632,12.07,4.28,-2.99,-146.84,4.72,-2.96,-2.08,4.4,5.1,-28.3
165941,1184,1184,1184,1184,0.23,630,12.05,4.38,-3.25,-148.23,-0.35,-4.36,3.96,3.7,4.5,-28.4
165941,1184,1184,1184,1184,0.26,634,12.06,4.48,-3.08,-149.69,2.61,0.01,10.74,6.5,-1.2,-28.3
165941,1184,1184,1184,1184,0.27,635,12.06,4.83,-2.94,-151.15,4.23,1.78,8.66,4.8,5.3,-29.4
165941,1184,1184,1184,1184,0.26,634,12.06,5.16,-3.02,-152.69,-9.80,4.94,9.39,3.2,-2.0,-30.5
165941,1184,1184,1184,1184,0.24,631,12.07,5.22,-2.69,-154.21,-3.35,-4.06,3.62,3.3,1.0,-30.8
165942,1184,1184,1184,1184,0.27,635,12.05,5.47,-2.37,-155.81,4.59,0.10,3.78,4.3,6.5,-33.2
165942,1184,1184,1184,1184,0.29,637,12.07,5.53,-2.28,-157.47,-6.69,-2.28,18.62,3.8,5.6,-34.3
165942,1184,1184,1184,1184,0.29,637,12.06,5.51,-2.14,-159.17,3.45,-3.88,11.49,1.0,-1.2,-33.1
165942,1184,1184,1184,1184,0.27,635,12.06,5.72,-1.41,-160.81,10.67,0.79,14.01,2.5,12.6,-32.8
165942,1184,1184,1184,1184,0.29,637,12.06,5.77,-1.73,-162.55,0.03,2.91,10.80,3.4,-0.8,-34.3
165942,1184,1184,1184,1184,0.27,635,12.04,5.94,-1.50,-164.33,-3.36,1.98,1.98,3.3,-6.8,-35.2
165942,1184,1184,1184,1184,0.31,639,12.05,6.17,-1.46,-166.22,-12.97,3.01,13.35,4.2,-20.9,-37.2
165942,1184,1184,1184,1184,0.28,636,12.06,6.62,-1.50,-168.17,3.74,-1.57,10.58,5.8,0.2,-38.5
165942,1184,1184,1184,1184,0.30,638,12.05,7.08,-1.40,-170.18,-1.76,5.58,7.55,4.0,5.2,-40.6
165942,1184,1184,1184,1184,0.32,640,12.06,7.62,-1.20,-172.28,-6.69,1.03,11.95,5.3,-5.1,-41.9
165942,1184,1184,1184,1184,0.30,638,12.07,7.80,-1.02,-174.37,-7.56,-0.22,13.63,3.8,-4.4,-40.2
165942,1184,1184,1184,1184,0.34,642,12.05,7.62,-1.02,-176.45,4.01,1.05,-0.24,3.3,0.6,-39.4
165942,1184,1184,1184,1184,0.27,635,12.07,7.63,-1.31,-178.37,-8.35,7.69,10.77,1.2,-10.1,-36.1
165942,1184,1184,1184,1184,0.29,637,12.05,7.80,-1.16,179.67,4.29,2.96,5.06,0.4,-0.4,-39.2
165942,1184,1184,1184,1184,0.30,638,12.06,7.76,-1.03,177.62,6.01,-4.04,11.98,-1.7,-10.9,-40.6
165942,1184,1184,1184,1184,0.32,640,12.07,7.51,-1.19,175.58,4.48,1.05,5.65,-1.6,1.8,-40.7
165942,1184,1184,1184,1184,0.34,642,12.05,7.35,-1.19,173.51,-13.81,0.89,19.60,-0.9,-5.7,-42.9
165942,1184,1184,1184,1184,0.31,639,12.07,7.31,-1.34,171.44,-11.30,7.21,16.80,-1.5,-7.7,-41.9
165942,1184,1184,1184,1184,0.32,640,12.05,7.32,-1.31,169.33,-3.59,1.02,6.60,-2.1,-7.9,-41.5
165942,1184,1184,1184,1184,0.35,643,12.05,7.24,-1.19,167.30,-2.15,4.90,11.05,-3.3,-16.0,-39.4
165943,1184,1184,1184,1184,0.33,641,12.07,6.98,-1.09,165.25,-9.18,0.33,15.39,-3.9,-1.4,-41.1
165943,1184,1184,1184,1184,0.31,639,12.05,6.70,-0.72,163.20,9.34,1.85,6.10,-5.4,7.6,-41.3
165943,1184,1184,1184,1184,0.34,642,12.06,6.55,-0.56,161.15,-7.66,-0.74,19.60,-3.7,4.7,-43.6
165943,1184,1184,1184,1184,0.31,639,12.05,6.52,-0.05,159.02,14.30,-0.72,9.08,-3.0,6.2,-41.8
165943,1184,1184,1184,1184,0.34,642,12.07,5.95,-0.12,156.96,-0.05,1.46,4.11,-2.6,15.2,-43.5
165943,1184,1184,1184,1184,0.35,643,12.05,5.59,0.03,154.87,4.48,-1.68,7.63,-4.2,20.4,-42.7
165943,1184,1184,1184,1184,0.36,644,12.04,5.18,0.10,152.79,-5.40,-1.18,8.83,-2.1,10.7,-43.6
165943,1184,1184,1184,1184,0.35,643,12.04,5.20,0.80,150.71,-1.92,-3.72,18.19,-1.6,-0.1,-43.1
165943,1184,1184,1184,1184,0.36,644,12.06,4.90,1.25,148.62,-7.14,-4.64,12.45,-2.6,7.0,-41.9
165943,1184,1184,1184,1184,0.34,642,12.06,4.52,2.00,146.55,-8.35,-1.97,15.83,-0.9,12.0,-42.8
165943,1184,1184,1184,1184,0.34,642,12.04,3.94,2.24,144.41,-1.69,0.71,12.33,-3.1,9.6,-42.2
165943,1184,1184,1184,1184,0.35,643,12.05,3.99,3.14,142.40,19.60,0.37,0.04,-1.4,16.9,-40.2
165943,1184,1184,1184,1184,0.37,645,12.05,3.86,3.40,140.36,-6.73,-2.45,16.49,1.0,3.7,-40.2
165943,1184,1184,1184,1184,0.37,645,12.05,3.59,3.60,138.38,-10.46,3.08,16.21,0.7,-6.2,-37.8
165943,1184,1184,1184,1184,0.38,646,12.05,3.17,3.75,136.43,-3.60,2.44,6.77,1.3,15.3,-39.2
165943,1184,1184,1184,1184,0.39,647,12.05,2.96,3.72,134.45,-4.89,5.87,2.14,4.6,2.5,-38.5
165943,1184,1184,1184,1184,0.35,643,12.05,2.66,3.24,132.52,-5.40,5.43,15.84,3.7,-11.1,-37.5
165943,1184,1184,1184,1184,0.36,644,12.06,2.77,3.29,130.69,-1.25,1.36,13.74,1.6,-3.6,-37.0
165943,1184,1184,1184,1184,0.36,644,12.05,3.04,2.99,128.80,-5.57,-3.07,14.00,4.5,5.9,-38.4
165943,1184,1184,1184,1184,0.38,646,12.06,3.06,2.67,126.88,4.13,-2.64,8.66,1.9,-4.2,-36.7
165944,1184,1184,1184,1184,0.39,647,12.05,2.74,2.04,125.04,6.86,3.48,6.21,1.8,-6.5,-35.6
165944,1184,1184,1184,1184,0.38,646,12.05,2.69,1.50,123.23,-0.59,0.89,11.54,0.9,-2.1,-35.0
165944,1184,1184,1184,1184,0.41,649,12.06,2.74,1.27,121.46,-11.33,3.82,15.28,2.4,-12.5,-33.9
165944,1184,1184,1184,1184,0.39,647,12.05,2.70,0.84,119.70,2.26,3.96,5.62,0.2,0.9,-35.0
165944,1184,1184,1184,1184,0.39,647,12.04,2.67,1.06,117.95,6.82,-1.36,4.96,1.3,5.4,-35.6
165944,1184,1184,1184,1184,0.38,646,12.06,2.50,0.53,116.13,-5.76,-1.02,11.15,-0.1,-2.3,-36.3
165944,1184,1184,1184,1184,0.35,643,12.06,2.50,-0.06,114.29,-7.77,-3.76,19.60,1.3,-4.9,-35.9
165944,1184,1184,1184,1184,0.41,649,12.05,2.43,-0.10,112.48,-5.58,0.39,17.21,0.9,5.8,-36.8
165944,1184,1184,1184,1184,0.41,649,12.04,2.54,0.77,110.64,6.78,2.11,6.83,0.7,5.6,-38.3
165944,1184,1184,1184,1184,0.40,648,12.06,2.67,0.89,108.78,-11.84,-4.32,14.46,-0.3,-7.1,-37.3
165944,1184,1184,1184,1184,0.41,649,12.04,2.36,1.15,106.92,12.77,1.05,7.19,1.3,14.7,-38.2
165944,1184,1184,1184,1184,0.41,649,12.05,2.21,1.15,105.07,-6.20,-0.06,16.31,-0.1,2.3,-36.4
165944,1184,1184,1184,1184,0.41,649,12.06,1.52,0.85,103.23,0.66,0.25,8.56,0.0,2.0,-37.4
165944,1184,1184,1184,1184,0.43,652,12.04,1.49,1.21,101.50,5.78,-5.85,6.35,0.9,7.9,-35.6
165944,1184,1184,1184,1184,0.40,648,12.05,1.23,1.05,99.83,12.31,-4.68,4.79,1.9,5.7,-33.8
165944,1184,1184,1184,1184,0.43,652,12.05,1.09,0.92,98.23,8.41,1.67,-2.74,2.3,12.3,-32.0
165944,1184,1184,1184,1184,0.41,649,12.06,1.05,0.61,96.63,-11.45,-0.45,16.35,3.2,1.4,-33.1
165944,1184,1184,1184,1184,0.42,651,12.05,0.87,0.41,95.06,4.80,-0.04,9.14,1.0,-0.1,-33.0
165944,1184,1184,1184,1184,0.42,651,12.04,0.83,-0.22,93.46,-4.95,5.62,13.01,1.7,-1.7,-32.6
165944,1184,1184,1184,1184,0.41,649,12.05,1.03,0.01,91.85,-4.23,0.45,5.48,0.6,0.6,-32.9
165945,1184,1184,1184,1184,0.42,651,12.04,1.03,0.31,90.30,6.35,-0.71,2.21,3.0,4.0,-31.9
165945,1184,1184,1184,1184,0.39,647,12.04,0.78,0.19,88.72,8.80,3.23,8.00,4.3,5.7,-33.0
165945,1184,1184,1184,1184,0.39,647,12.05,0.82,0.03,87.12,-0.94,0.18,8.35,4.2,-2.9,-32.6
165945,1184,1184,1184,1184,0.42,651,12.04,0.68,-0.36,85.53,-6.92,1.54,19.60,3.3,10.9,-32.3
165945,1184,1184,1184,1184,0.43,652,12.04,0.84,-0.02,83.98,-0.67,3.71,9.81,3.3,-5.2,-31.0
165945,1184,1184,1184,1184,0.42,650,12.05,1.35,0.32,82.43,8.49,-4.96,0.04,2.1,19.5,-29.6
165945,1184,1184,1184,1184,0.42,650,12.05,1.05,0.15,80.96,17.83,-0.45,3.44,2.3,21.7,-29.6
165945,1184,1184,1184,1184,0.42,651,12.05,1.02,0.23,79.50,13.76,-1.89,13.71,-0.1,12.9,-28.3
165945,1184,1184,1184,1184,0.42,651,12.05,1.00,0.02,78.22,-9.69,-4.59,17.06,2.0,-5.4,-25.6
165945,1184,1184,1184,1184,0.42,650,12.04,1.21,0.67,76.98,-4.10,-2.08,-5.75,3.5,-8.4,-24.0
165945,1184,1184,1184,1184,0.42,650,12.03,1.10,0.96,75.79,-0.11,-0.16,7.51,4.9,4.8,-24.4
165945,1184,1184,1184,1184,0.43,652,12.04,1.20,1.10,74.54,10.13,-4.93,5.05,3.1,-3.1,-26.9
165945,1184,1184,1184,1184,0.41,649,12.05,1.51,1.25,73.31,3.47,2.53,4.82,1.5,0.6,-23.7
165945,1184,1184,1184,1184,0.42,651,12.04,1.57,1.22,72.17,3.15,0.67,6.73,2.3,1.3,-23.2
165945,1184,1184,1184,1184,0.43,652,12.06,1.84,1.19,71.05,9.21,4.91,6.14,3.8,-4.6,-22.9
165945,1184,1184,1184,1184,0.42,650,12.04,2.14,1.38,69.96,13.61,5.99,0.98,3.4,-3.8,-21.8
165945,1184,1184,1184,1184,0.42,650,12.05,3.68,0.22,62.64,1.34,6.10,5.57,4.2,-5.4,-15.3
165945,1184,1184,1184,1184,0.45,654,12.06,3.77,0.36,61.88,-3.37,-2.16,14.87,3.2,3.0,-14.8
165945,1184,1184,1184,1184,0.43,652,12.05,3.88,0.33,61.24,6.51,-0.85,10.02,3.4,-1.4,-12.8
165945,1184,1184,1184,1184,0.44,653,12.05,4.02,0.56,60.62,6.33,4.47,-1.58,5.1,11.4,-12.8
165946,1184,1184,1184,1184,0.44,653,12.06,4.50,0.49,59.91,7.74,-0.87,8.82,2.9,11.5,-13.9
165946,1184,1184,1184,1184,0.44,653,12.04,4.46,0.68,59.29,-7.50,-2.60,3.25,4.3,-7.8,-10.7
165946,1184,1184,1184,1184,0.42,650,12.05,4.38,0.06,58.76,-11.91,-1.70,18.45,2.3,-2.7,-9.6
165946,1184,1184,1184,1184,0.44,653,12.05,4.46,0.30,58.21,3.28,0.35,9.68,1.6,-4.7,-11.2
165946,1184,1184,1184,1184,0.42,650,12.06,4.58,0.27,57.63,6.44,-0.75,3.63,1.5,9.8,-11.2
165946,1184,1184,1184,1184,0.42,651,12.04,5.13,0.83,56.99,9.50,-0.65,3.67,0.7,-1.0,-13.5
165946,1184,1184,1184,1184,0.44,653,12.04,4.64,0.77,56.27,1.56,-4.41,6.10,1.5,1.3,-13.3
165946,1184,1184,1184,1184,0.46,655,12.04,4.60,0.57,55.59,5.87,1.15,6.35,0.5,8.9,-11.9
165946,1184,1184,1184,1184,0.45,654,12.05,4.65,0.23,54.89,-1.81,-1.89,16.14,0.4,10.4,-14.8
165946,1184,1184,1184,1184,0.43,652,12.04,4.77,0.53,54.09,3.70,2.41,-0.33,1.8,-10.3,-14.5
165946,1184,1184,1184,1184,0.43,652,12.04,5.04,0.75,53.36,3.66,1.22,2.19,1.0,7.0,-13.9
165946,1184,1184,1184,1184,0.43,652,12.05,5.16,0.64,52.63,-10.25,-0.06,19.60,-1.3,-16.8,-13.4
165946,1184,1184,1184,1184,0.48,657,12.04,5.03,0.96,51.84,-6.85,-3.22,19.60,-0.1,-1.4,-15.9
165946,1184,1184,1184,1184,0.46,655,12.06,5.03,1.57,51.03,-2.01,1.52,1.70,-2.9,-6.6,-16.9
165946,1184,1184,1184,1184,0.43,652,12.05,4.81,1.68,50.25,5.66,1.21,9.94,-3.2,-1.8,-15.8
165946,1184,1184,1184,1184,0.46,655,12.03,4.40,1.26,49.35,4.08,-2.53,2.84,-4.4,0.7,-17.8
165946,1184,1184,1184,1184,0.47,656,12.04,4.23,0.96,48.46,-3.33,0.69,17.59,-1.4,4.8,-18.1
165946,1184,1184,1184,1184,0.45,654,12.06,4.37,1.16,47.54,13.58,2.15,3.06,-2.8,-8.6,-17.2
165946,1184,1184,1184,1184,0.48,657,12.04,4.38,1.05,46.62,4.29,-6.73,10.69,-2.6,-9.1,-18.0
165946,1184,1184,1184,1184,0.47,656,12.03,3.85,0.45,45.63,-15.38,-0.37,19.60,-0.4,-14.6,-19.3
165947,1184,1184,1184,1184,0.48,657,12.05,3.97,0.66,44.66,-9.91,0.98,13.79,0.0,1.2,-18.4
165947,1184,1184,1184,1184,0.43,652,12.04,4.11,1.12,43.70,1.63,4.45,8.46,3.0,1.2,-18.6
165947,1184,1184,1184,1184,0.43,652,12.05,4.17,1.46,42.75,6.53,3.86,5.10,3.2,3.6,-18.1
165947,1184,1184,1184,1184,0.46,655,12.06,3.79,1.30,41.83,12.09,-4.25,4.54,1.5,6.5,-17.6
165947,1184,1184,1184,1184,0.44,653,12.05,3.24,0.86,40.81,14.91,-0.02,2.23,2.2,18.7,-20.9
165947,1184,1184,1184,1184,0.45,654,12.04,3.20,0.73,39.80,-3.46,1.43,6.51,2.3,-4.5,-18.2
165947,1184,1184,1184,1184,0.43,652,12.05,3.12,1.18,38.88,-0.74,-0.62,4.30,1.8,-0.8,-17.4
165947,1184,1184,1184,1184,0.47,656,12.03,3.04,1.08,38.02,1.51,1.00,3.09,2.3,3.9,-17.2
165947,1184,1184,1184,1184,0.45,654,12.04,2.89,0.74,37.19,8.33,-3.59,5.56,1.2,14.7,-16.7
165947,1184,1184,1184,1184,0.46,655,12.07,2.55,0.67,36.31,-15.00,4.16,19.13,5.4,-8.5,-17.4
165947,1184,1184,1184,1184,0.43,652,12.04,2.72,0.74,35.47,-14.03,2.78,11.14,3.6,0.7,-15.7
165947,1184,1184,1184,1184,0.44,653,12.05,2.69,1.40,34.68,-1.09,-3.14,7.55,2.9,8.2,-18.0
165947,1184,1184,1184,1184,0.46,655,12.05,3.07,1.99,33.82,3.64,4.71,-2.92,1.2,4.7,-19.0
165947,1184,1184,1184,1184,0.42,651,12.05,3.05,1.78,32.99,4.49,-1.68,5.62,1.5,0.1,-16.4
165947,1184,1184,1184,1184,0.45,654,12.04,2.41,1.36,32.18,1.54,-2.01,8.17,0.9,-9.0,-15.4
165947,1184,1184,1184,1184,0.41,649,12.05,2.14,0.99,31.38,0.99,-0.67,2.07,3.1,7.2,-15.3
165947,1184,1184,1184,1184,0.44,653,12.04,2.45,0.95,30.56,-19.60,2.62,18.29,2.1,-7.1,-16.3
165947,1184,1184,1184,1184,0.44,653,12.03,2.63,1.17,29.79,-0.54,-0.60,8.90,2.0,-6.1,-14.8
165947,1184,1184,1184,1184,0.42,651,12.04,2.58,1.37,29.14,4.05,0.66,4.32,3.6,4.9,-12.9
165947,1184,1184,1184,1184,0.44,653,12.04,2.55,1.14,28.43,1.98,-0.98,4.16,0.5,-6.4,-14.2
165948,1184,1184,1184,1184,0.44,653,12.05,2.60,0.79,27.72,5.60,0.25,12.01,2.1,3.4,-15.3
165948,1184,1184,1184,1184,0.42,650,12.04,3.02,0.99,26.98,0.56,2.70,11.40,2.7,5.4,-15.0
165948,1184,1184,1184,1184,0.44,653,12.04,3.36,1.28,26.21,8.73,-6.04,2.91,1.2,6.2,-14.3
165948,1184,1184,1184,1184,0.42,650,12.03,3.72,1.65,25.53,-1.46,4.40,4.36,0.1,2.7,-14.1
165948,1184,1184,1184,1184,0.42,651,12.05,4.02,2.04,24.83,-7.48,1.10,14.56,1.6,-5.5,-14.1
165948,1184,1184,1184,1184,0.45,654,12.03,3.84,1.99,24.07,12.59,-2.17,3.28,3.5,6.2,-15.2
165948,1184,1184,1184,1184,0.42,651,12.04,3.87,2.23,23.38,-5.72,1.49,11.59,3.7,0.5,-14.3
165948,1184,1184,1184,1184,0.44,653,12.05,3.96,2.23,22.69,0.88,2.47,2.00,3.4,7.0,-14.3
165948,1184,1184,1184,1184,0.44,653,12.04,3.78,1.97,21.93,2.38,0.56,11.14,1.4,4.6,-15.3
165948,1184,1184,1184,1184,0.45,654,12.03,3.86,1.84,21.25,6.98,4.12,11.96,-0.2,-0.5,-13.7
165948,1184,1184,1184,1184,0.43,652,12.05,4.04,1.69,20.52,10.05,-0.26,2.12,0.5,2.6,-17.6
165948,1184,1184,1184,1184,0.42,651,12.04,4.01,1.63,19.69,-2.85,-5.38,15.67,-0.4,-7.1,-17.2
165948,1184,1184,1184,1184,0.42,651,12.04,3.74,1.89,18.87,1.81,2.02,5.45,-0.5,9.0,-17.6
165948,1184,1184,1184,1184,0.41,649,12.04,3.69,1.80,18.02,-12.93,2.42,19.34,-0.6,-2.7,-17.5
165948,1184,1184,1184,1184,0.41,649,12.04,3.21,1.59,17.12,-3.43,4.45,19.60,-0.1,2.8,-20.6
165948,1184,1184,1184,1184,0.45,654,12.03,3.49,1.84,16.19,-1.98,6.77,1.34,-0.9,7.8,-19.3
165948,1184,1184,1184,1184,0.43,652,12.04,3.47,1.35,15.17,-19.60,2.80,4.87,-1.0,-16.9,-20.3
165948,1184,1184,1184,1184,0.44,653,12.03,3.62,1.45,14.21,-0.15,-5.37,11.71,-0.5,-0.5,-21.5
165948,1184,1184,1184,1184,0.43,652,12.05,3.30,1.61,13.14,13.57,2.43,6.89,0.0,2.3,-22.3
165948,1184,1184,1184,1184,0.43,652,12.04,3.60,1.53,12.07,-0.18,0.58,12.94,1.2,-4.0,-20.3
165949,1184,1184,1184,1184,0.43,652,12.04,3.65,1.24,11.07,-16.73,2.47,12.24,2.1,-8.1,-17.9
165949,1184,1184,1184,1184,0.42,651,12.04,3.90,1.47,10.12,-1.50,2.48,11.43,0.5,-1.5,-17.0
165949,1184,1184,1184,1184,0.42,650,12.05,4.10,1.80,9.19,8.55,0.41,5.21,-1.2,10.9,-18.7
165949,1184,1184,1184,1184,0.42,651,12.04,4.35,1.47,8.19,7.26,2.96,-1.12,0.3,19.1,-19.8
165949,1184,1184,1184,1184,0.42,651,12.04,4.16,1.07,7.14,4.76,-6.66,10.70,2.4,2.3,-20.0
165949,1184,1184,1184,1184,0.40,648,12.05,4.10,1.52,6.05,2.91,1.79,6.93,0.9,8.7,-21.3
165949,1184,1184,1184,1184,0.40,648,12.04,3.83,1.06,5.01,-7.95,3.19,6.90,-0.9,-17.2,-19.0
165949,1184,1184,1184,1184,0.42,650,12.03,3.87,0.91,4.07,-10.28,3.62,16.49,1.9,-19.7,-17.9
165949,1184,1184,1184,1184,0.37,645,12.03,3.89,1.22,3.04,-11.88,1.08,9.54,3.4,-12.1,-20.4
165949,1184,1184,1184,1184,0.42,650,12.04,4.00,1.32,2.05,-16.87,0.01,19.60,3.8,-4.9,-18.6
165949,1184,1184,1184,1184,0.42,650,12.04,3.67,1.30,1.18,2.46,-0.64,11.13,2.2,-3.3,-16.6
165949,1184,1184,1184,1184,0.41,649,12.04,3.71,1.15,0.36,-14.73,0.95,19.60,2.0,-2.2,-15.7
165949,1184,1184,1184,1184,0.39,647,12.04,3.41,1.13,-0.46,-7.22,-2.15,15.19,0.3,-0.5,-16.7
