time,pwm1,pwm2,pwm3,pwm4,depth,press,voltage,roll,pitch,yaw,a_x,a_y,a_z,w_row,w_pitch,w_yaw
154901,1100,1100,1100,1100,0.00,602,12.17,6.19,-0.96,-4.89,0.20,0.89,8.49,0.0,1.3,-0.1
154901,1100,1100,1100,1100,0.01,603,12.14,6.18,-0.90,-4.89,0.04,0.89,8.55,-0.2,0.9,-0.1
154901,1100,1100,1100,1100,0.04,606,12.13,6.15,-0.86,-4.90,0.12,0.97,8.70,-0.5,0.6,-0.2
154901,1100,1100,1100,1100,0.02,604,12.10,6.12,-0.83,-4.91,0.03,0.95,8.70,-0.5,0.0,-0.4
154901,1184,1184,1184,1184,0.00,602,12.06,6.08,-0.83,-4.93,0.16,0.95,8.58,-0.8,-0.4,-0.2
154901,1184,1184,1184,1184,0.01,603,12.03,5.97,-0.83,-4.98,-0.52,0.96,9.73,-5.9,-0.3,-1.8
154901,1184,1184,1184,1184,0.04,606,12.05,5.43,-0.85,-5.07,7.77,1.79,8.14,-16.2,0.0,-1.9
154901,1184,1184,1184,1184,0.03,605,12.04,4.41,-0.92,-5.24,5.96,0.00,1.10,-16.1,-12.8,-3.4
154901,1184,1184,1184,1184,0.04,606,12.02,3.70,-1.35,-5.44,-2.38,2.91,9.28,-15.5,-21.2,-5.0
154901,1184,1184,1184,1184,0.02,604,12.01,2.98,-1.87,-5.74,-1.08,1.89,9.74,-12.3,-10.9,-6.2
154901,1184,1184,1184,1184,0.01,603,12.02,2.42,-2.32,-6.09,-4.76,2.45,10.77,-7.4,4.2,-8.1
154901,1184,1184,1184,1184,0.06,608,12.01,2.28,-2.67,-6.50,-6.57,0.55,8.93,-2.2,13.7,-8.5
154901,1184,1184,1184,1184,0.10,613,12.03,2.48,-2.46,-6.93,-5.30,0.04,14.72,-0.7,-12.3,-9.0
154901,1184,1184,1184,1184,0.15,618,12.03,1.95,-2.55,-7.43,-6.32,1.35,10.10,-0.4,-7.9,-11.7
154901,1184,1184,1184,1184,0.11,614,12.02,1.64,-2.83,-8.07,3.06,-0.04,4.54,1.3,-0.4,-13.7
154901,1184,1184,1184,1184,0.11,614,12.03,1.75,-2.62,-8.84,5.20,-1.35,10.07,-0.2,-4.5,-16.9
154902,1184,1184,1184,1184,0.09,612,12.04,2.10,-2.52,-9.72,-0.23,-2.58,19.60,0.7,0.3,-17.3
154902,1184,1184,1184,1184,0.13,616,12.02,2.10,-1.90,-10.52,17.34,-2.82,0.31,1.9,19.2,-17.5
154902,1184,1184,1184,1184,0.17,620,12.02,2.42,-1.88,-11.43,-7.31,5.08,14.94,1.6,1.5,-20.6
154902,1184,1184,1184,1184,0.13,616,12.04,2.69,-1.92,-12.43,7.45,-4.79,1.59,3.2,19.3,-22.6
154902,1184,1184,1184,1184,0.19,622,12.01,2.86,-1.99,-13.47,7.24,-1.97,4.78,3.9,-9.3,-20.9
154902,1184,1184,1184,1184,0.17,620,12.03,3.08,-2.30,-14.59,-1.44,1.86,9.63,3.8,-6.7,-25.4
154902,1184,1184,1184,1184,0.22,625,12.02,3.48,-2.40,-15.85,-8.01,-1.88,12.43,3.5,-4.6,-26.2
154902,1184,1184,1184,1184,0.19,622,12.02,3.63,-2.32,-17.17,-7.50,1.59,12.87,4.0,-3.4,-26.0
154902,1184,1184,1184,1184,0.18,621,12.02,3.76,-2.66,-18.48,-0.33,-5.38,7.16,3.7,-13.4,-26.6
154902,1184,1184,1184,1184,0.19,622,12.03,3.69,-2.96,-19.74,5.34,2.38,2.45,4.7,2.2,-25.6
154902,1184,1184,1184,1184,0.23,626,12.01,3.73,-3.01,-20.97,15.55,0.15,-1.24,5.3,12.8,-24.9
154902,1184,1184,1184,1184,0.23,626,12.03,3.53,-3.31,-22.18,-4.45,-1.02,17.50,3.8,0.9,-24.1
154902,1184,1184,1184,1184,0.18,621,12.02,3.97,-3.14,-23.46,0.55,1.72,7.15,2.9,6.0,-26.7
154902,1184,1184,1184,1184,0.21,624,12.03,4.70,-2.99,-24.81,-7.19,-3.65,13.44,2.3,-2.2,-26.7
154902,1184,1184,1184,1184,0.21,624,12.03,4.99,-2.76,-26.16,-1.72,1.99,16.99,4.4,-3.7,-28.3
154902,1184,1184,1184,1184,0.18,621,12.01,5.57,-2.59,-27.62,0.18,4.48,-0.28,4.5,14.8,-27.7
154902,1184,1184,1184,1184,0.27,631,12.03,5.95,-2.41,-29.10,10.15,-3.61,3.82,4.8,2.0,-28.9
154902,1184,1184,1184,1184,0.24,627,12.03,6.08,-2.38,-30.63,-9.03,3.12,12.01,4.3,-2.9,-29.8
154902,1184,1184,1184,1184,0.24,627,12.03,6.05,-2.68,-32.16,-14.24,-1.15,13.63,4.9,-11.6,-28.6
154902,1184,1184,1184,1184,0.27,631,12.00,6.40,-1.96,-33.63,-17.09,3.89,11.82,5.4,-14.3,-28.0
154903,1184,1184,1184,1184,0.23,626,12.04,6.50,-2.27,-35.08,-0.81,1.97,9.21,3.4,0.1,-29.2
154903,1184,1184,1184,1184,0.22,625,12.04,6.66,-2.25,-36.63,2.59,1.49,3.11,5.2,14.6,-31.1
154903,1184,1184,1184,1184,0.23,626,12.03,6.77,-1.86,-38.17,19.60,-4.99,-2.47,3.8,22.2,-31.8
154903,1184,1184,1184,1184,0.26,630,12.03,7.05,-1.74,-39.81,6.69,1.11,6.64,6.4,-8.1,-33.0
154903,1184,1184,1184,1184,0.27,631,12.03,7.42,-1.50,-41.42,-4.66,3.46,14.66,8.1,-3.2,-30.8
154903,1184,1184,1184,1184,0.30,634,12.04,7.66,-1.55,-43.04,-5.73,2.63,9.86,5.7,-5.2,-33.2
154903,1184,1184,1184,1184,0.24,627,12.01,7.72,-1.34,-44.78,6.71,2.34,4.69,4.8,-8.8,-34.1
154903,1184,1184,1184,1184,0.31,635,12.03,7.97,-1.46,-46.55,-3.50,2.93,14.49,2.3,-13.1,-35.2
154903,1184,1184,1184,1184,0.26,630,12.02,8.24,-1.24,-48.30,0.72,-0.93,5.81,0.4,2.7,-33.8
154903,1184,1184,1184,1184,0.30,634,12.02,8.35,-1.22,-50.06,9.86,1.35,3.21,-0.4,2.9,-34.4
154903,1184,1184,1184,1184,0.29,633,12.03,8.05,-1.40,-51.86,-12.24,3.25,9.20,-0.8,-9.0,-35.4
154903,1184,1184,1184,1184,0.31,635,12.02,7.83,-1.26,-53.68,-5.41,-3.66,8.69,-2.3,-11.4,-35.3
154903,1184,1184,1184,1184,0.30,634,12.03,7.63,-1.22,-55.48,4.70,2.56,4.99,-0.4,-7.6,-35.7
154903,1184,1184,1184,1184,0.27,631,12.02,7.71,-1.16,-57.32,-7.85,3.46,10.89,-0.7,-4.8,-35.0
154903,1184,1184,1184,1184,0.29,633,12.03,7.71,-1.23,-59.15,-0.46,-4.18,12.12,0.0,3.7,-36.8
154903,1184,1184,1184,1184,0.32,636,12.02,7.28,-1.58,-60.97,-11.29,2.54,11.06,-0.9,-16.9,-34.5
154903,1184,1184,1184,1184,0.29,633,12.01,7.35,-1.60,-62.76,6.32,-2.32,12.83,1.5,-4.5,-34.7
154903,1184,1184,1184,1184,0.27,631,12.03,7.35,-1.83,-64.54,-0.85,-0.67,13.07,0.9,-10.4,-36.1
154903,1184,1184,1184,1184,0.30,634,12.01,7.18,-1.68,-66.36,0.53,-1.39,6.69,0.0,7.3,-37.4
154903,1184,1184,1184,1184,0.32,636,12.00,7.15,-1.54,-68.28,6.55,3.08,6.38,-2.5,2.4,-39.9
154904,1184,1184,1184,1184,0.31,635,12.03,6.98,-1.63,-70.24,-1.31,6.22,9.18,-0.4,-2.7,-39.0
154904,1184,1184,1184,1184,0.32,636,12.00,7.08,-1.47,-72.24,2.60,-5.60,4.47,0.6,10.7,-42.1
154904,1184,1184,1184,1184,0.35,639,12.00,6.95,-1.72,-74.22,-11.53,2.28,9.43,0.3,8.1,-40.6
154904,1184,1184,1184,1184,0.32,636,12.02,7.13,-1.34,-76.17,-2.73,-4.08,12.42,2.0,-5.7,-41.0
154904,1184,1184,1184,1184,0.29,633,12.02,7.01,-0.77,-78.13,5.41,-0.57,6.36,0.4,2.5,-40.0
154904,1184,1184,1184,1184,0.33,637,12.03,6.93,-0.99,-80.10,14.96,-3.57,4.52,-1.7,11.7,-39.0
154904,1184,1184,1184,1184,0.32,636,12.02,6.52,-0.85,-81.97,1.67,1.27,3.44,-2.9,4.8,-36.6
154904,1184,1184,1184,1184,0.36,640,12.03,5.93,-0.77,-83.80,-0.96,-2.22,11.76,-4.2,3.2,-36.7
154904,1184,1184,1184,1184,0.34,638,12.02,5.58,-0.06,-85.56,0.96,3.98,2.65,-3.9,6.8,-37.2
154904,1184,1184,1184,1184,0.36,640,12.02,5.46,0.37,-87.52,-0.18,2.34,12.14,-4.1,-4.3,-37.7
154904,1184,1184,1184,1184,0.34,638,12.02,4.99,0.01,-89.41,-1.63,-2.58,7.94,-2.2,-8.1,-37.9
154904,1184,1184,1184,1184,0.33,637,12.01,4.36,-0.09,-91.27,-13.15,2.62,8.83,-2.3,-0.9,-36.3
154904,1184,1184,1184,1184,0.35,639,12.02,4.13,-0.10,-93.08,-19.60,3.51,19.60,-0.4,-7.2,-35.2
154904,1184,1184,1184,1184,0.36,640,12.01,4.21,0.24,-94.97,-19.60,1.25,15.43,-0.3,-9.3,-35.3
154904,1184,1184,1184,1184,0.36,640,12.03,4.33,0.81,-96.81,-17.63,1.34,17.03,0.7,-9.8,-36.2
154904,1184,1184,1184,1184,0.33,637,12.00,4.30,1.17,-98.72,10.98,-1.80,3.01,3.5,10.0,-38.0
154904,1184,1184,1184,1184,0.40,644,12.02,4.30,1.13,-100.62,1.77,-4.28,8.21,2.4,4.8,-36.7
154904,1184,1184,1184,1184,0.32,636,12.02,4.10,0.93,-102.46,8.51,-0.93,4.47,1.1,0.1,-35.2
154904,1184,1184,1184,1184,0.37,641,12.01,4.04,0.93,-104.24,-13.10,-0.02,15.71,1.6,-12.3,-35.6
154904,1184,1184,1184,1184,0.39,643,12.03,3.98,0.86,-106.03,-13.24,1.15,19.60,1.5,-4.9,-35.3
154905,1184,1184,1184,1184,0.35,639,12.02,4.24,1.08,-107.81,-3.07,-4.97,14.17,2.0,0.2,-35.6
154905,1184,1184,1184,1184,0.36,640,12.01,4.03,1.10,-109.60,9.25,-1.83,4.22,-0.5,0.4,-36.1
154905,1184,1184,1184,1184,0.38,642,12.01,4.01,0.95,-111.34,6.49,-4.76,7.52,-0.5,16.2,-35.8
154905,1184,1184,1184,1184,0.37,641,12.02,4.09,1.06,-113.03,12.24,3.03,2.75,0.1,6.3,-34.6
154905,1184,1184,1184,1184,0.38,642,12.03,4.05,1.07,-114.75,8.70,3.71,6.49,-0.2,3.8,-34.4
154905,1184,1184,1184,1184,0.37,641,12.02,3.90,0.88,-116.44,-2.20,-2.58,17.49,-1.4,4.5,-33.9
154905,1184,1184,1184,1184,0.35,639,12.02,3.47,0.90,-118.11,-0.70,1.05,15.59,-1.5,-5.6,-32.4
154905,1184,1184,1184,1184,0.39,643,12.01,2.94,1.11,-119.78,-11.14,4.03,16.97,-1.5,-9.0,-33.8
154905,1184,1184,1184,1184,0.37,641,12.02,3.33,1.33,-121.54,0.00,-3.03,1.29,-1.0,11.8,-37.3
154905,1184,1184,1184,1184,0.38,642,12.01,2.84,1.27,-123.39,-2.67,-3.84,7.39,-0.4,11.2,-38.7
154905,1184,1184,1184,1184,0.38,642,12.02,2.33,0.91,-125.36,9.63,-2.52,4.13,-0.4,3.4,-38.3
154905,1184,1184,1184,1184,0.39,643,12.03,1.93,0.79,-127.23,2.58,1.00,6.10,-0.5,11.3,-38.4
154905,1184,1184,1184,1184,0.39,643,12.01,1.93,0.75,-129.12,-5.11,0.28,14.28,-2.6,8.0,-39.7
154905,1184,1184,1184,1184,0.42,646,12.02,1.96,0.92,-131.04,0.47,3.73,10.56,-0.2,3.2,-39.1
154905,1184,1184,1184,1184,0.38,642,12.03,1.55,0.71,-132.98,-1.21,4.30,5.25,-1.0,3.5,-38.8
154905,1184,1184,1184,1184,0.42,647,12.01,1.18,0.50,-134.80,2.06,-2.36,12.48,-0.1,-2.3,-36.5
154905,1184,1184,1184,1184,0.42,647,12.02,0.87,-0.01,-136.56,-0.93,0.08,10.58,0.7,-0.1,-35.9
154905,1184,1184,1184,1184,0.40,644,12.02,0.81,-0.10,-138.36,-4.19,-0.36,11.47,2.6,0.3,-38.8
154905,1184,1184,1184,1184,0.41,645,12.01,1.06,0.42,-140.20,-0.79,3.08,3.25,1.2,-5.4,-37.4
154905,1184,1184,1184,1184,0.41,645,12.02,0.84,0.35,-141.96,1.68,1.92,0.45,1.3,7.0,-36.4
154906,1184,1184,1184,1184,0.40,644,12.01,0.53,0.42,-143.76,3.19,2.55,12.15,2.3,7.7,-37.1
154906,1184,1184,1184,1184,0.42,647,12.01,0.26,0.23,-145.58,8.14,2.86,3.32,3.4,8.8,-38.4
154906,1184,1184,1184,1184,0.40,644,12.01,0.23,-0.02,-147.37,-6.44,-0.36,9.87,4.3,3.9,-37.2
154906,1184,1184,1184,1184,0.45,650,12.01,0.58,0.19,-149.11,-5.61,2.10,11.83,4.1,-3.7,-36.3
154906,1184,1184,1184,1184,0.44,649,12.03,0.97,0.18,-150.87,-0.41,-6.17,5.73,3.1,11.0,-35.3
154906,1184,1184,1184,1184,0.40,644,12.00,0.93,-0.07,-152.55,-18.13,-2.35,19.21,3.6,-4.8,-33.6
154906,1184,1184,1184,1184,0.42,646,12.02,0.84,0.15,-154.20,-3.61,2.67,8.00,2.8,-6.8,-33.3
154906,1184,1184,1184,1184,0.42,647,12.01,1.43,-0.05,-155.82,-5.23,4.92,11.80,4.2,0.1,-31.5
154906,1184,1184,1184,1184,0.44,649,12.01,1.60,0.33,-157.32,2.06,0.67,0.63,4.6,7.7,-30.6
154906,1184,1184,1184,1184,0.42,647,12.01,2.18,0.34,-158.74,2.78,-6.20,8.02,4.6,12.3,-27.0
154906,1184,1184,1184,1184,0.41,645,12.03,2.13,0.20,-160.10,-5.56,-3.73,9.87,8.1,8.5,-28.4
154906,1184,1184,1184,1184,0.42,646,12.00,2.37,0.16,-161.44,6.84,-4.18,13.63,8.2,-0.5,-26.1
154906,1184,1184,1184,1184,0.43,648,12.01,2.58,0.33,-162.66,3.87,-0.56,4.46,4.2,-0.1,-25.2
154906,1184,1184,1184,1184,0.43,648,12.03,2.86,0.40,-163.81,-7.96,6.25,6.17,1.3,-8.7,-21.6
154906,1184,1184,1184,1184,0.45,650,12.01,3.05,0.74,-164.89,3.82,-3.98,8.70,3.2,2.3,-20.6
154906,1184,1184,1184,1184,0.43,648,12.02,2.98,0.66,-165.86,-3.37,-1.78,13.23,4.3,-1.6,-20.1
154906,1184,1184,1184,1184,0.44,649,12.01,3.11,0.60,-166.86,1.23,1.52,11.85,5.9,-14.3,-18.8
154906,1184,1184,1184,1184,0.47,652,12.02,3.29,0.56,-167.84,2.87,-1.42,10.71,3.5,5.6,-20.4
154906,1184,1184,1184,1184,0.46,651,12.02,3.24,0.24,-168.85,2.40,0.97,9.97,2.8,6.1,-20.3
154906,1184,1184,1184,1184,0.42,647,12.01,3.03,-0.02,-169.77,-11.29,2.72,14.69,4.8,-12.9,-17.9
154907,1184,1184,1184,1184,0.46,651,12.01,2.93,-0.02,-170.68,-1.61,0.52,7.24,2.1,-17.6,-19.2
154907,1184,1184,1184,1184,0.45,650,12.02,3.20,-0.02,-171.65,-19.60,2.83,19.60,3.0,-13.6,-20.4
154907,1184,1184,1184,1184,0.44,649,12.01,3.46,0.17,-172.58,0.25,0.70,9.09,1.2,7.4,-19.8
154907,1184,1184,1184,1184,0.42,646,12.01,3.74,0.55,-173.55,9.91,-5.13,1.18,3.0,9.6,-22.2
154907,1184,1184,1184,1184,0.45,650,12.02,3.65,0.64,-174.58,-2.77,4.41,6.75,1.8,-3.0,-21.8
154907,1184,1184,1184,1184,0.44,649,12.02,3.80,1.20,-175.62,-4.66,4.53,4.13,-0.4,-4.6,-21.9
154907,1184,1184,1184,1184,0.48,653,12.01,4.13,1.56,-176.77,-0.53,2.15,12.30,-0.3,1.7,-25.1
154907,1184,1184,1184,1184,0.46,651,12.00,4.05,1.53,-177.97,2.12,-1.72,4.20,1.8,3.8,-24.7
154907,1184,1184,1184,1184,0.47,652,12.00,4.09,1.59,-179.19,-5.16,-0.67,17.21,-0.9,-3.4,-26.6
154907,1184,1184,1184,1184,0.43,648,11.99,3.91,1.88,179.53,16.32,4.73,1.34,-1.2,7.6,-25.4
154907,1184,1184,1184,1184,0.43,648,12.01,3.71,2.14,178.24,0.55,5.03,16.84,0.9,-3.0,-25.6
154907,1184,1184,1184,1184,0.48,653,12.01,3.33,2.18,176.89,5.10,-0.35,4.52,0.9,7.5,-26.7
154907,1184,1184,1184,1184,0.43,648,12.03,3.01,2.56,175.46,3.83,1.68,1.52,2.5,2.7,-30.1
154907,1184,1184,1184,1184,0.50,655,12.00,2.67,2.74,173.98,10.55,-3.85,-0.01,2.3,1.0,-29.6
154907,1184,1184,1184,1184,0.48,653,12.02,3.05,2.81,172.59,-7.56,3.22,12.79,1.0,-3.1,-28.3
154907,1184,1184,1184,1184,0.47,652,12.01,3.25,3.05,171.13,-6.22,-4.90,13.44,-1.5,-3.7,-28.9
154907,1184,1184,1184,1184,0.45,650,12.01,2.83,3.04,169.63,-8.26,-3.77,16.38,-1.4,-14.0,-29.2
154907,1184,1184,1184,1184,0.50,655,12.00,2.62,3.41,168.16,-8.40,1.74,8.69,-1.1,-11.4,-27.6
154907,1184,1184,1184,1184,0.45,650,12.00,2.52,2.64,166.63,1.96,4.74,6.35,-1.0,-4.6,-31.0
154907,1184,1184,1184,1184,0.48,653,11.99,2.47,2.42,165.08,5.79,4.07,6.07,-0.9,-0.1,-29.7
154908,1184,1184,1184,1184,0.44,649,12.01,3.00,2.35,163.56,4.82,-1.67,15.30,0.8,4.7,-30.2
154908,1184,1184,1184,1184,0.50,655,12.01,2.80,2.37,162.04,18.06,-3.15,-6.41,3.2,1.1,-30.6
154908,1184,1184,1184,1184,0.45,650,12.01,2.57,1.92,160.53,7.70,-4.12,4.45,2.0,8.1,-27.7
154908,1184,1184,1184,1184,0.48,653,12.00,2.33,1.66,159.16,1.43,-0.14,5.74,3.3,-3.2,-24.8
154908,1184,1184,1184,1184,0.46,651,12.03,2.21,1.51,157.89,-6.26,9.14,6.24,2.1,-17.7,-23.9
154908,1184,1184,1184,1184,0.47,652,12.00,2.89,1.95,156.58,-0.00,4.92,4.90,2.2,-3.2,-25.7
154908,1184,1184,1184,1184,0.49,654,12.01,3.36,2.24,155.25,-2.80,-1.48,10.16,0.9,-4.0,-25.6
154908,1184,1184,1184,1184,0.49,654,12.02,3.45,1.94,154.01,5.94,-1.56,7.02,2.0,7.4,-26.3
154908,1184,1184,1184,1184,0.47,652,12.01,2.98,0.95,152.73,-6.73,-4.73,19.58,0.0,-8.5,-25.8
154908,1184,1184,1184,1184,0.46,651,12.00,2.81,0.89,151.37,4.29,7.57,2.87,1.1,1.4,-26.6
154908,1184,1184,1184,1184,0.50,655,12.00,3.22,1.21,149.98,10.32,1.50,7.97,-0.9,19.0,-27.6
154908,1184,1184,1184,1184,0.48,653,12.01,3.41,1.35,148.67,-1.69,-2.16,2.96,0.4,3.8,-25.5
154908,1184,1184,1184,1184,0.47,652,11.99,3.39,1.35,147.33,-0.05,0.39,7.94,1.2,11.4,-26.8
154908,1184,1184,1184,1184,0.50,655,12.01,3.55,1.35,145.98,8.82,-0.44,8.74,2.6,9.0,-26.7
154908,1184,1184,1184,1184,0.47,652,12.01,3.44,1.37,144.62,13.25,-2.91,7.97,1.5,6.2,-26.4
154908,1184,1184,1184,1184,0.50,655,12.00,3.59,1.35,143.31,3.16,3.46,0.66,0.5,6.1,-25.0
154908,1184,1184,1184,1184,0.42,647,12.00,3.74,1.50,142.09,-3.71,-2.33,11.72,1.8,3.9,-24.4
154908,1184,1184,1184,1184,0.49,654,12.00,4.02,1.86,140.83,-2.89,-2.23,13.36,0.4,-4.0,-23.9
154908,1184,1184,1184,1184,0.50,655,12.01,4.17,2.87,133.78,-3.84,3.51,9.79,1.3,2.9,-15.4
154908,1184,1184,1184,1184,0.50,655,12.01,4.79,3.18,133.02,0.88,3.15,7.35,3.2,-3.1,-14.6
154909,1184,1184,1184,1184,0.44,649,12.00,4.90,2.64,132.28,-9.21,4.96,13.79,1.3,-16.8,-12.5
154909,1184,1184,1184,1184,0.51,656,12.01,5.02,2.46,131.57,8.91,-4.20,2.53,2.4,4.5,-12.9
154909,1184,1184,1184,1184,0.49,654,12.02,4.88,2.03,130.78,3.30,-2.12,8.69,-1.4,-2.1,-14.0
154909,1184,1184,1184,1184,0.48,653,12.00,4.30,1.68,129.95,-14.87,2.11,19.60,-2.2,-21.6,-14.2
154909,1184,1184,1184,1184,0.49,654,12.01,4.26,1.56,129.08,-13.97,5.51,14.71,-2.4,-17.5,-16.1
154909,1184,1184,1184,1184,0.51,656,12.01,4.13,1.39,128.23,-10.73,3.36,6.94,-1.0,3.1,-14.4
154909,1184,1184,1184,1184,0.46,651,12.02,4.37,1.27,127.52,-3.43,0.80,7.49,0.7,0.1,-14.6
154909,1184,1184,1184,1184,0.48,653,12.01,4.38,1.33,126.59,3.23,-2.85,7.68,1.6,12.4,-19.2
154909,1184,1184,1184,1184,0.49,654,12.00,4.14,1.26,125.67,4.57,2.25,7.21,0.1,2.0,-17.1
154909,1184,1184,1184,1184,0.48,653,12.00,4.08,1.13,124.77,8.46,-0.13,9.49,1.8,11.2,-19.4
154909,1184,1184,1184,1184,0.50,655,12.00,4.02,1.08,123.81,4.58,-0.31,8.35,0.6,4.8,-19.8
154909,1184,1184,1184,1184,0.50,655,12.01,3.93,1.31,122.77,-1.91,-3.97,8.08,1.4,15.0,-21.5
154909,1184,1184,1184,1184,0.50,655,11.99,3.87,1.43,121.74,-9.18,-1.13,16.42,1.4,-10.0,-20.3
154909,1184,1184,1184,1184,0.50,655,12.00,3.64,1.63,120.74,15.02,-3.13,-1.95,2.7,30.6,-20.9
154909,1184,1184,1184,1184,0.49,654,12.00,3.72,1.83,119.73,9.23,-0.25,-1.14,2.2,8.7,-20.8
154909,1184,1184,1184,1184,0.50,655,12.02,3.95,1.75,118.73,-9.69,-0.23,12.82,1.6,-3.1,-19.7
154909,1184,1184,1184,1184,0.48,653,12.03,3.76,2.00,117.75,-12.16,3.05,4.64,1.6,-1.8,-20.3
154909,1184,1184,1184,1184,0.49,654,11.99,3.96,2.51,116.73,6.90,-1.96,0.30,1.0,17.1,-21.4
154909,1184,1184,1184,1184,0.51,656,12.00,3.83,2.14,115.67,4.83,2.85,4.95,-0.9,0.5,-19.8
154909,1184,1184,1184,1184,0.50,655,12.00,3.48,1.73,114.58,-2.26,-3.69,12.23,0.7,2.4,-20.8
154910,1184,1184,1184,1184,0.48,653,12.02,3.58,1.61,113.52,-4.43,1.56,18.81,1.8,-4.0,-19.1
154910,1184,1184,1184,1184,0.49,654,12.02,3.89,1.86,112.45,3.23,4.48,7.02,1.1,6.2,-20.8
154910,1184,1184,1184,1184,0.49,654,12.01,4.25,1.86,111.36,-10.27,0.88,14.53,2.9,-12.9,-20.4
154910,1184,1184,1184,1184,0.48,653,12.01,4.48,2.45,110.32,9.51,-0.02,0.52,3.1,6.3,-19.5
154910,1184,1184,1184,1184,0.46,651,12.00,4.53,2.31,109.22,0.40,2.24,6.70,3.6,-8.5,-22.6
154910,1184,1184,1184,1184,0.50,655,12.01,4.61,1.84,108.11,-8.53,1.33,14.58,4.3,-1.9,-20.7
154910,1184,1184,1184,1184,0.46,651,12.00,4.75,1.83,107.02,-1.11,0.77,9.23,6.7,-8.8,-21.1
154910,1184,1184,1184,1184,0.47,652,12.01,4.81,1.43,105.83,-1.89,-1.60,16.04,3.3,3.6,-22.8
154910,1184,1184,1184,1184,0.44,649,11.99,5.17,1.58,104.67,-0.34,3.92,10.04,2.6,-4.2,-21.3
154910,1184,1184,1184,1184,0.46,651,12.01,5.46,1.68,103.56,-11.69,-1.53,14.08,5.2,1.1,-22.3
154910,1184,1184,1184,1184,0.47,652,11.99,5.59,1.90,102.37,1.12,0.99,6.24,4.2,-7.9,-23.7
154910,1184,1184,1184,1184,0.48,653,12.02,5.87,1.56,101.20,-6.39,-2.48,12.16,5.1,-11.1,-23.1
154910,1184,1184,1184,1184,0.47,652,12.00,5.69,1.68,99.99,-1.99,-6.50,11.64,2.8,12.4,-23.4
154910,1184,1184,1184,1184,0.48,653,12.00,5.65,1.66,98.80,3.32,-6.43,9.91,0.8,3.8,-23.6
154910,1184,1184,1184,1184,0.47,652,12.00,5.33,1.28,97.66,-10.93,4.75,14.59,2.1,-19.6,-21.7
154910,1184,1184,1184,1184,0.49,654,11.99,5.54,1.69,96.42,-3.18,5.01,8.43,-0.1,2.7,-24.0
154910,1184,1184,1184,1184,0.47,652,11.99,5.53,1.46,95.19,-1.85,0.25,14.41,1.5,2.9,-23.8
154910,1184,1184,1184,1184,0.50,655,12.00,5.65,1.47,93.97,-14.91,-0.11,19.60,-0.6,-16.1,-22.6
154910,1184,1184,1184,1184,0.44,649,12.02,5.48,1.51,92.76,-0.90,-4.20,11.63,1.2,3.1,-23.3
154910,1184,1184,1184,1184,0.46,651,12.00,5.28,1.29,91.49,-8.92,-1.53,15.49,0.9,-10.7,-25.0
