time,pwm1,pwm2,pwm3,pwm4,depth,press,voltage,roll,pitch,yaw,a_x,a_y,a_z,w_row,w_pitch,w_yaw
211622,1100,1100,1100,1100,0.01,604,12.17,5.72,-0.68,-100.96,0.23,0.83,8.69,0.3,-0.4,-0.6
211622,1100,1100,1100,1100,0.01,604,12.16,5.74,-0.68,-100.99,0.12,0.90,8.69,0.5,0.0,-0.5
211622,1100,1100,1100,1100,0.00,603,12.14,5.77,-0.67,-101.01,0.16,0.92,8.79,0.5,0.5,-0.6
211622,1100,1100,1100,1100,-0.02,601,12.14,5.79,-0.65,-101.04,0.06,0.90,8.63,0.3,1.0,-0.7
211623,1183,1183,1183,1183,0.01,604,12.07,5.80,-0.60,-101.07,0.10,0.86,8.60,0.1,1.0,-0.6
211623,1183,1183,1183,1183,0.03,606,12.05,5.79,-0.55,-101.09,0.11,0.85,8.62,-0.2,1.0,-0.7
211623,1183,1183,1183,1183,0.05,608,12.05,5.77,-0.50,-101.12,-0.52,0.88,8.95,-0.5,1.1,-0.8
211623,1183,1183,1183,1183,0.02,605,12.04,5.65,-0.36,-101.19,3.29,2.78,6.68,-4.6,4.0,-2.4
211623,1183,1183,1183,1183,0.05,608,12.05,5.27,-0.35,-101.36,-2.13,-1.44,13.84,-9.8,6.0,-4.1
211623,1183,1183,1183,1183,0.06,609,12.05,5.05,-0.10,-101.53,6.37,1.34,2.36,-10.9,3.6,-5.7
211623,1183,1183,1183,1183,0.09,613,12.04,4.24,-0.31,-101.85,1.77,-2.52,13.26,-11.3,-16.7,-8.2
211623,1183,1183,1183,1183,0.08,612,12.04,3.89,-0.73,-102.24,-0.75,1.14,8.03,-7.3,-1.6,-6.3
211623,1183,1183,1183,1183,0.10,614,12.04,3.35,-1.21,-102.59,-3.51,-2.99,19.60,-6.0,-16.7,-9.9
211623,1183,1183,1183,1183,0.13,617,12.04,3.11,-1.22,-103.09,-1.86,1.97,6.31,-4.6,-12.3,-10.7
211623,1183,1183,1183,1183,0.11,615,12.05,2.69,-1.79,-103.53,-1.20,0.63,9.35,-3.9,-4.9,-9.2
211623,1183,1183,1183,1183,0.15,619,12.04,2.87,-2.24,-104.03,8.78,-4.13,1.35,-4.0,6.7,-12.4
211623,1183,1183,1183,1183,0.15,619,12.03,2.74,-2.26,-104.62,3.03,-0.05,0.88,-1.3,5.1,-12.6
211623,1183,1183,1183,1183,0.12,616,12.03,2.47,-2.15,-105.29,12.35,-2.89,-3.19,-0.1,4.9,-14.0
211623,1183,1183,1183,1183,0.14,618,12.03,2.20,-2.23,-105.98,2.59,-2.37,8.36,2.8,1.1,-14.2
211623,1183,1183,1183,1183,0.14,618,12.04,2.24,-2.34,-106.76,4.56,-5.76,14.35,1.9,-10.7,-15.0
211623,1183,1183,1183,1183,0.17,621,12.05,1.83,-3.35,-107.53,6.53,2.23,2.67,2.0,-4.4,-15.1
211623,1183,1183,1183,1183,0.16,620,12.03,2.16,-3.50,-108.39,-6.03,2.88,7.91,1.6,-4.5,-16.8
211623,1183,1183,1183,1183,0.19,623,12.04,2.73,-3.23,-109.34,-3.38,3.12,5.54,0.8,-3.7,-18.1
211623,1183,1183,1183,1183,0.19,623,12.04,3.00,-3.08,-110.35,-1.46,1.07,6.44,1.0,-17.6,-20.9
211624,1183,1183,1183,1183,0.20,624,12.04,2.96,-3.84,-111.49,-7.43,1.17,18.93,1.2,-15.4,-21.3
211624,1183,1183,1183,1183,0.20,624,12.04,2.97,-3.75,-112.66,5.51,-0.82,3.53,1.0,-2.9,-24.5
211624,1183,1183,1183,1183,0.24,628,12.04,2.96,-4.12,-114.01,-1.85,2.59,17.28,2.2,-1.4,-26.4
211624,1183,1183,1183,1183,0.18,622,12.04,3.16,-4.12,-115.45,-4.95,-1.56,12.86,-0.4,-0.4,-28.7
211624,1183,1183,1183,1183,0.22,626,12.05,2.96,-3.89,-116.85,-1.50,-0.57,11.18,-1.0,-4.4,-26.9
211624,1183,1183,1183,1183,0.22,626,12.04,3.12,-3.55,-118.25,-8.33,-0.02,13.70,-0.2,-7.2,-26.8
211624,1183,1183,1183,1183,0.22,626,12.02,3.24,-3.53,-119.58,-0.23,-3.85,6.44,1.4,-6.5,-25.0
211624,1183,1183,1183,1183,0.16,620,12.02,3.10,-3.86,-120.90,-3.38,6.30,12.15,3.1,-3.8,-25.6
211624,1183,1183,1183,1183,0.24,628,12.04,3.42,-3.93,-122.28,-4.90,-4.21,7.10,3.8,4.7,-27.3
211624,1183,1183,1183,1183,0.28,633,12.03,3.50,-3.49,-123.71,-2.18,4.63,9.89,4.9,4.7,-27.1
211624,1183,1183,1183,1183,0.29,634,12.03,3.74,-3.75,-125.11,-19.18,-0.81,14.73,5.0,-13.2,-26.8
211624,1183,1183,1183,1183,0.27,632,12.03,3.61,-3.69,-126.53,-14.74,3.67,16.29,3.4,-5.2,-28.7
211624,1183,1183,1183,1183,0.28,633,12.03,3.98,-3.30,-128.01,7.32,1.41,3.74,5.1,21.4,-29.9
211624,1183,1183,1183,1183,0.25,630,12.04,4.40,-3.12,-129.55,-4.48,1.61,8.03,3.5,10.5,-30.0
211624,1183,1183,1183,1183,0.25,629,12.04,4.57,-3.11,-130.99,-1.60,-5.09,1.29,5.3,2.7,-29.5
211624,1183,1183,1183,1183,0.26,631,12.03,4.67,-2.94,-132.51,12.47,1.29,1.20,5.1,2.4,-31.1
211624,1183,1183,1183,1183,0.26,631,12.03,4.80,-3.13,-134.09,2.39,2.02,13.86,6.4,9.2,-32.3
211624,1183,1183,1183,1183,0.26,631,12.05,4.99,-3.03,-135.66,0.19,2.00,1.37,6.9,2.0,-31.9
211624,1183,1183,1183,1183,0.28,633,12.02,5.21,-2.71,-137.27,11.47,2.26,7.16,6.0,0.5,-33.7
211624,1183,1183,1183,1183,0.27,632,12.04,5.61,-2.73,-139.00,-5.33,-0.03,11.19,3.4,-5.0,-35.2
211625,1183,1183,1183,1183,0.29,634,12.04,5.63,-2.85,-140.77,-5.98,-2.45,16.26,4.5,-1.0,-35.6
211625,1183,1183,1183,1183,0.29,634,12.04,5.84,-2.68,-142.61,6.09,-0.85,9.65,3.8,0.8,-37.5
211625,1183,1183,1183,1183,0.27,632,12.01,6.17,-2.88,-144.47,-5.44,3.05,4.34,3.1,-3.4,-37.7
211625,1183,1183,1183,1183,0.28,633,12.03,6.63,-2.71,-146.43,-1.00,1.07,4.50,3.7,0.4,-39.1
211625,1183,1183,1183,1183,0.28,633,12.03,6.91,-2.19,-148.37,5.84,-2.77,8.27,0.9,-8.9,-38.5
211625,1183,1183,1183,1183,0.26,631,12.04,6.71,-2.23,-150.31,9.80,-5.56,5.26,0.3,-1.3,-38.3
211625,1183,1183,1183,1183,0.29,634,12.04,6.46,-2.19,-152.19,-6.84,-1.04,5.20,-2.4,0.5,-36.7
211625,1183,1183,1183,1183,0.29,634,12.04,6.21,-2.08,-154.11,11.00,2.54,5.89,-1.0,8.6,-39.3
211625,1183,1183,1183,1183,0.30,635,12.04,6.05,-2.34,-155.99,-1.50,-1.49,-1.81,-1.3,-0.2,-37.7
211625,1183,1183,1183,1183,0.29,634,12.04,5.94,-2.17,-157.87,-1.25,0.60,-2.84,-5.6,3.2,-37.4
211625,1183,1183,1183,1183,0.32,637,12.03,5.48,-2.57,-159.73,-10.58,4.50,12.99,-4.6,-8.9,-36.1
211625,1183,1183,1183,1183,0.33,638,12.04,5.22,-2.63,-161.55,-1.11,2.88,6.40,-2.8,-8.7,-37.2
211625,1183,1183,1183,1183,0.31,636,12.04,5.20,-2.63,-163.45,-2.38,5.26,5.83,-3.6,-7.1,-37.7
211625,1183,1183,1183,1183,0.32,637,12.04,5.07,-2.45,-165.27,-8.36,2.22,12.97,-0.9,-7.4,-34.7
211625,1183,1183,1183,1183,0.31,636,12.03,5.12,-2.12,-167.06,-7.97,3.21,11.91,0.7,-8.7,-35.2
211625,1183,1183,1183,1183,0.31,636,12.03,5.36,-1.87,-168.82,-2.39,-0.81,6.01,2.1,9.6,-35.7
211625,1183,1183,1183,1183,0.31,636,12.04,5.26,-1.47,-170.55,-0.92,1.31,16.44,1.3,15.3,-35.6
211625,1183,1183,1183,1183,0.29,634,12.04,5.35,-0.99,-172.29,1.78,-1.55,19.37,2.7,10.3,-36.0
211625,1183,1183,1183,1183,0.30,635,12.03,5.75,0.21,-174.07,5.70,-3.25,8.39,3.4,22.4,-36.1
211625,1183,1183,1183,1183,0.36,641,12.04,5.66,1.04,-175.79,2.37,4.28,9.72,-0.5,-0.5,-33.5
211626,1183,1183,1183,1183,0.33,638,12.03,5.43,1.47,-177.44,2.50,0.23,1.74,0.9,8.8,-34.4
211626,1183,1183,1183,1183,0.37,642,12.03,5.28,1.79,-179.14,-3.41,-1.50,3.71,0.4,15.5,-35.9
211626,1183,1183,1183,1183,0.38,643,12.03,5.39,2.25,179.05,5.65,3.16,6.03,-1.0,2.5,-36.4
211626,1183,1183,1183,1183,0.34,639,12.03,5.39,2.31,177.24,3.81,-0.05,10.87,-1.2,11.1,-37.3
211626,1183,1183,1183,1183,0.34,639,12.03,5.12,2.40,175.44,-6.03,-4.38,9.03,-1.5,-2.7,-36.2
211626,1183,1183,1183,1183,0.34,639,12.03,4.52,2.57,173.62,-19.60,-1.79,19.60,-0.1,-4.5,-35.8
211626,1183,1183,1183,1183,0.38,643,12.02,3.99,2.38,171.84,-8.13,-0.37,6.51,0.4,-6.5,-34.8
211626,1183,1183,1183,1183,0.38,643,12.03,3.12,1.71,160.15,16.15,-2.31,5.62,3.6,7.4,-32.8
211626,1183,1183,1183,1183,0.35,640,12.03,3.11,1.30,158.51,5.36,-0.82,14.82,3.1,5.9,-33.0
211626,1183,1183,1183,1183,0.35,640,12.02,2.64,0.92,156.95,2.76,2.72,4.83,3.2,6.5,-29.6
211626,1183,1183,1183,1183,0.36,641,12.02,2.83,0.67,155.35,2.11,-0.42,8.65,3.4,-2.8,-33.8
211626,1183,1183,1183,1183,0.37,642,12.03,3.02,0.87,153.70,-1.03,2.53,10.00,2.4,-2.3,-34.8
211626,1183,1183,1183,1183,0.36,641,12.04,2.88,0.73,152.05,-2.15,3.32,12.69,0.2,-7.9,-31.6
211626,1183,1183,1183,1183,0.40,645,12.03,2.86,0.86,150.44,0.47,1.01,8.36,0.0,2.2,-33.7
211626,1183,1183,1183,1183,0.41,646,12.03,2.65,0.64,148.86,-0.88,1.01,19.60,1.0,-14.3,-30.9
211626,1183,1183,1183,1183,0.42,647,12.03,2.76,0.86,147.27,4.96,4.10,0.87,0.7,-0.9,-31.1
211626,1183,1183,1183,1183,0.37,642,12.02,2.97,0.72,145.78,-0.93,-0.26,8.26,-1.6,-2.6,-29.4
211626,1183,1183,1183,1183,0.41,646,12.04,2.59,0.27,144.26,-9.73,-5.57,19.60,-1.9,-3.7,-31.4
211626,1183,1183,1183,1183,0.40,645,12.04,2.56,0.22,142.75,-3.86,-0.04,11.14,-0.2,5.5,-29.7
211626,1183,1183,1183,1183,0.38,643,12.04,2.35,0.14,141.31,7.10,-0.49,11.41,-1.2,6.8,-29.2
211627,1183,1183,1183,1183,0.42,648,12.03,1.89,0.18,139.82,6.66,2.17,4.65,-0.1,2.5,-30.2
211627,1183,1183,1183,1183,0.40,645,12.02,1.96,0.53,138.40,6.98,-4.79,-0.46,1.1,10.9,-28.6
211627,1183,1183,1183,1183,0.39,644,12.04,1.20,-0.06,137.02,5.08,0.24,-0.88,2.1,8.7,-28.0
211627,1183,1183,1183,1183,0.42,647,12.02,1.27,-0.14,135.62,-5.49,-1.80,12.33,1.5,-0.3,-27.5
211627,1183,1183,1183,1183,0.41,646,12.02,1.43,0.62,134.28,8.58,-1.07,-10.21,3.2,15.6,-26.7
211627,1183,1183,1183,1183,0.40,645,12.02,1.61,0.66,133.02,-2.63,1.66,9.36,4.2,2.7,-25.1
211627,1183,1183,1183,1183,0.42,647,12.02,1.58,0.56,131.78,-5.76,-1.38,9.19,4.2,-3.3,-26.6
211627,1183,1183,1183,1183,0.39,644,12.03,1.94,0.67,130.54,2.14,-1.23,6.25,6.7,12.1,-26.4
211627,1183,1183,1183,1183,0.42,648,12.02,2.09,1.21,129.33,10.69,1.57,1.64,6.3,14.1,-26.0
211627,1183,1183,1183,1183,0.44,650,12.02,2.57,1.35,128.12,0.86,-4.77,13.49,5.7,3.1,-24.7
211627,1183,1183,1183,1183,0.43,649,12.03,2.54,1.57,126.89,-2.56,-0.69,19.47,5.6,2.3,-25.5
211627,1183,1183,1183,1183,0.42,648,12.03,2.94,1.94,125.67,-5.23,6.31,8.87,4.7,-5.4,-23.8
211627,1183,1183,1183,1183,0.43,649,12.03,2.80,1.92,124.45,-2.13,1.48,16.13,3.4,-7.8,-23.5
211627,1183,1183,1183,1183,0.44,650,12.04,2.47,1.42,123.34,-0.45,-1.56,16.13,3.4,2.5,-22.1
211627,1183,1183,1183,1183,0.42,647,12.02,3.00,1.66,122.28,-3.03,0.91,8.24,1.5,-10.6,-22.0
211627,1183,1183,1183,1183,0.46,652,12.02,3.15,1.78,121.25,0.23,4.33,4.68,1.5,5.6,-20.4
211627,1183,1183,1183,1183,0.44,650,12.04,3.16,1.79,120.24,5.39,-0.70,-0.35,1.5,2.0,-20.9
211627,1183,1183,1183,1183,0.40,645,12.03,2.96,1.79,119.19,1.95,-0.22,5.74,1.1,2.3,-21.9
211627,1183,1183,1183,1183,0.43,649,12.04,3.26,1.77,118.14,-6.49,0.89,7.61,-0.9,-5.4,-20.3
211627,1183,1183,1183,1183,0.44,650,12.02,3.58,2.05,117.12,5.35,4.71,-2.72,2.7,12.9,-21.3
211628,1183,1183,1183,1183,0.46,652,12.03,3.68,1.87,116.04,-12.34,-2.90,19.60,2.9,0.7,-22.5
211628,1183,1183,1183,1183,0.42,648,12.02,3.53,1.91,114.92,3.69,-1.60,7.65,3.0,4.6,-22.7
211628,1183,1183,1183,1183,0.45,651,12.02,3.36,1.64,113.80,16.61,-0.30,3.91,5.3,25.2,-23.7
211628,1183,1183,1183,1183,0.44,650,12.03,3.67,1.97,112.72,6.14,-3.64,2.62,4.9,12.3,-21.9
211628,1183,1183,1183,1183,0.45,651,12.02,3.91,1.76,111.68,3.68,-1.86,9.58,5.3,6.5,-21.4
211628,1183,1183,1183,1183,0.44,650,12.03,4.43,2.29,110.59,-5.57,-0.69,11.15,4.2,-4.1,-24.1
211628,1183,1183,1183,1183,0.46,652,12.03,4.57,2.25,109.41,2.28,1.86,9.53,2.1,-2.4,-25.0
211628,1183,1183,1183,1183,0.44,650,12.02,4.70,2.08,108.24,-3.19,-1.65,16.90,3.4,0.0,-25.0
211628,1183,1183,1183,1183,0.44,650,12.00,4.20,1.58,107.01,-3.38,-1.49,13.54,3.1,-3.2,-26.7
211628,1183,1183,1183,1183,0.44,650,12.03,4.20,1.97,105.78,5.29,2.50,5.27,1.0,-5.9,-24.8
211628,1183,1183,1183,1183,0.45,651,12.02,4.21,1.89,104.63,1.78,-0.48,8.90,1.8,0.3,-24.8
211628,1183,1183,1183,1183,0.45,651,12.04,4.55,2.01,103.46,-0.50,0.28,11.68,2.1,-1.3,-25.6
211628,1183,1183,1183,1183,0.49,655,12.03,4.38,1.86,102.19,8.42,-1.13,7.83,3.8,-0.2,-25.5
211628,1183,1183,1183,1183,0.50,656,12.03,4.41,1.23,100.94,-2.86,-2.95,18.50,3.9,-6.2,-25.9
211628,1183,1183,1183,1183,0.47,653,12.04,4.48,1.34,99.67,-0.54,3.53,1.18,3.2,15.9,-26.8
211628,1183,1183,1183,1183,0.44,650,12.04,4.75,1.68,98.37,-6.05,6.44,2.87,0.9,-1.8,-24.2
211628,1183,1183,1183,1183,0.44,650,12.03,4.83,1.64,97.14,-10.38,2.65,11.74,1.0,-15.3,-26.4
211628,1183,1183,1183,1183,0.48,654,12.01,4.62,1.46,95.79,-2.24,0.58,5.66,2.1,-1.8,-25.7
211628,1183,1183,1183,1183,0.50,656,12.02,4.61,0.85,94.50,-9.22,1.83,18.80,0.1,-13.6,-25.8
211628,1183,1183,1183,1183,0.46,652,12.02,4.36,0.42,93.19,-11.82,-4.19,14.87,-0.9,-12.6,-27.0
211629,1183,1183,1183,1183,0.45,651,12.02,4.27,0.71,91.84,-6.98,-2.43,19.60,0.1,-17.0,-25.3
211629,1183,1183,1183,1183,0.48,654,12.02,4.36,0.84,90.56,4.59,-1.62,5.86,-1.5,7.6,-26.6
211629,1183,1183,1183,1183,0.48,654,12.02,4.33,1.08,89.28,-2.79,1.53,10.59,-1.2,-6.3,-24.5
211629,1183,1183,1183,1183,0.46,652,12.02,4.12,0.64,87.99,-5.92,1.58,18.60,-1.9,-5.9,-26.3
211629,1183,1183,1183,1183,0.46,652,12.02,4.38,0.50,86.75,-10.80,2.81,7.84,-2.5,-3.1,-25.3
211629,1183,1183,1183,1183,0.50,656,12.03,3.87,0.28,85.60,-2.46,0.67,13.75,-1.3,-1.9,-22.8
211629,1183,1183,1183,1183,0.48,654,12.02,3.85,0.28,84.39,-1.76,-2.35,15.39,-1.2,4.9,-24.8
211629,1183,1183,1183,1183,0.49,655,12.01,3.88,0.69,83.19,11.50,-3.00,5.07,1.3,5.9,-24.1
211629,1183,1183,1183,1183,0.51,657,12.02,3.83,0.42,81.93,4.10,0.36,9.46,1.1,6.6,-25.9
211629,1183,1183,1183,1183,0.51,657,12.02,3.40,-0.43,80.72,-19.10,-0.82,19.60,-0.9,-16.2,-23.0
211629,1183,1183,1183,1183,0.46,652,12.02,3.44,-0.09,79.54,2.56,-5.04,5.86,0.1,-3.6,-25.6
211629,1183,1183,1183,1183,0.49,655,12.03,3.34,-0.31,78.29,-5.20,-3.55,15.60,2.6,-4.0,-26.1
211629,1183,1183,1183,1183,0.50,656,12.02,3.19,-0.08,77.08,8.71,-2.00,4.68,-0.1,10.7,-24.7
211629,1183,1183,1183,1183,0.47,653,12.03,3.16,0.20,75.94,11.80,-0.74,9.00,0.0,7.0,-22.9
211629,1183,1183,1183,1183,0.51,657,12.01,3.14,0.04,74.81,-3.73,-1.49,5.05,1.3,-0.1,-21.5
211629,1183,1183,1183,1183,0.46,652,12.03,3.18,0.38,73.72,4.59,3.51,4.03,4.0,2.3,-20.6
211629,1183,1183,1183,1183,0.50,656,12.01,3.47,0.66,72.71,1.43,-0.19,8.99,3.0,11.7,-20.9
211629,1183,1183,1183,1183,0.46,652,12.02,3.63,0.86,71.67,-1.38,-4.01,11.04,2.9,0.0,-22.4
211629,1183,1183,1183,1183,0.52,658,12.03,3.85,1.23,70.55,3.58,-0.17,8.40,1.5,9.2,-21.4
211629,1183,1183,1183,1183,0.50,656,12.01,3.82,1.12,69.52,8.08,-5.12,10.18,4.8,9.1,-20.8
211630,1183,1183,1183,1183,0.51,657,12.03,3.61,0.69,68.48,-4.11,0.70,15.28,3.7,-9.5,-19.7
211630,1183,1183,1183,1183,0.48,654,12.02,3.96,0.68,67.47,-0.77,-2.02,14.26,3.4,2.0,-20.1
211630,1183,1183,1183,1183,0.48,654,12.02,3.72,0.75,66.45,3.09,0.69,12.10,3.2,-2.3,-20.0
211630,1183,1183,1183,1183,0.52,658,12.03,3.97,0.82,65.39,0.71,-1.26,6.96,0.1,0.1,-21.7
211630,1183,1183,1183,1183,0.49,655,12.01,3.93,0.86,64.37,3.83,1.32,0.04,4.1,0.9,-21.7
211630,1183,1183,1183,1183,0.52,658,12.01,3.77,0.88,63.24,-7.91,-0.13,8.81,2.4,-5.2,-22.5
211630,1183,1183,1183,1183,0.48,654,12.01,3.67,0.51,62.08,-1.17,3.74,15.39,4.3,-4.1,-23.7
211630,1183,1183,1183,1183,0.52,658,12.04,3.71,0.58,60.80,4.20,-0.52,7.44,2.0,3.3,-26.2
211630,1183,1183,1183,1183,0.51,657,12.03,4.12,0.27,59.42,-4.31,-4.65,10.90,3.1,6.0,-29.8
211630,1183,1183,1183,1183,0.51,657,12.02,4.25,0.26,58.02,1.66,-2.49,7.25,1.1,-16.8,-27.1
211630,1183,1183,1183,1183,0.47,653,12.02,3.96,0.39,56.59,4.35,2.56,10.35,1.3,-0.2,-29.2
211630,1183,1183,1183,1183,0.46,652,12.01,3.93,0.36,55.10,1.85,0.59,8.45,1.1,5.2,-29.7
211630,1183,1183,1183,1183,0.48,654,12.00,3.95,0.27,53.62,-6.71,-4.32,10.08,0.8,2.4,-31.1
211630,1183,1183,1183,1183,0.51,657,12.02,3.90,0.47,52.08,3.83,2.59,5.16,0.6,-3.6,-30.9
211630,1183,1183,1183,1183,0.51,657,12.04,3.97,0.41,50.56,7.08,-1.48,4.68,1.5,10.5,-29.8
211630,1183,1183,1183,1183,0.51,657,12.02,4.03,0.46,49.15,-3.59,1.03,10.72,0.3,1.5,-27.4
211630,1183,1183,1183,1183,0.52,658,12.02,4.11,1.10,47.74,-3.63,-0.50,0.97,2.2,-5.4,-28.1
211630,1183,1183,1183,1183,0.48,654,12.01,4.50,1.42,46.32,-1.27,0.40,5.88,5.4,3.7,-27.8
211630,1183,1183,1183,1183,0.50,656,12.02,4.67,1.74,44.85,7.21,6.19,4.09,6.0,3.6,-31.1
211630,1183,1183,1183,1183,0.49,655,12.01,5.27,2.18,43.44,5.12,3.32,-7.68,4.0,5.3,-27.4
211631,1183,1183,1183,1183,0.51,657,12.01,5.46,2.84,42.02,5.97,-3.33,10.80,3.4,6.8,-27.9
211631,1183,1183,1183,1183,0.53,659,12.01,5.67,2.96,40.61,-5.60,3.29,9.74,3.0,7.1,-27.3
211631,1183,1183,1183,1183,0.52,658,12.02,5.79,3.37,39.18,2.00,2.40,8.49,3.4,4.9,-27.3
211631,1183,1183,1183,1183,0.50,656,12.01,5.77,3.75,37.70,7.86,0.64,-1.45,4.5,2.0,-26.9
211631,1183,1183,1183,1183,0.51,657,12.01,5.83,4.14,36.28,19.52,-2.26,3.78,3.0,3.3,-29.0
211631,1183,1183,1183,1183,0.51,657,12.00,5.63,4.04,34.72,0.05,-1.95,-0.96,3.1,3.4,-29.5
211631,1183,1183,1183,1183,0.51,657,12.00,5.43,4.11,33.19,4.91,-3.23,5.34,0.4,-1.0,-28.9
211631,1183,1183,1183,1183,0.47,653,12.01,5.40,3.94,31.68,12.60,-0.97,8.88,0.0,3.8,-31.2
211631,1183,1183,1183,1183,0.47,653,12.02,5.41,3.71,29.99,5.53,-4.31,4.66,1.5,-8.9,-32.7
211631,1183,1183,1183,1183,0.49,655,12.02,5.15,3.62,28.30,9.43,0.85,6.65,-1.0,1.5,-32.1
211631,1183,1183,1183,1183,0.49,655,12.01,4.43,2.85,26.61,7.30,-4.19,9.00,-1.6,3.0,-31.6
211631,1183,1183,1183,1183,0.48,654,12.00,4.15,2.53,24.91,4.96,-3.48,3.51,0.9,-0.6,-33.8
211631,1183,1183,1183,1183,0.48,654,12.01,3.96,1.97,23.17,3.03,2.82,6.43,-0.9,-4.7,-32.5
211631,1183,1183,1183,1183,0.49,655,12.01,4.11,2.02,21.51,16.79,-2.76,-2.07,-1.3,11.9,-31.9
211631,1183,1183,1183,1183,0.48,654,12.02,3.86,1.34,19.91,6.69,-1.37,6.03,-4.0,2.4,-31.2
211631,1183,1183,1183,1183,0.50,656,12.01,3.85,1.26,18.31,-5.56,-0.39,14.35,-2.0,-8.1,-31.4
211631,1183,1183,1183,1183,0.51,657,12.00,3.68,1.32,16.69,-1.15,-1.15,7.70,-3.4,-9.9,-30.8
211631,1183,1183,1183,1183,0.51,657,12.02,3.27,1.13,15.19,-6.75,1.84,3.74,0.2,-14.0,-28.3
211631,1183,1183,1183,1183,0.45,651,12.02,3.10,1.37,13.65,1.87,2.78,6.64,-1.1,-5.7,-30.2
211631,1183,1183,1183,1183,0.53,659,12.00,2.80,1.38,12.09,-13.25,1.35,11.55,-2.3,0.6,-30.5
211632,1183,1183,1183,1183,0.46,652,12.02,2.63,1.18,10.58,-7.93,-5.59,10.69,2.3,-2.3,-30.2
211632,1183,1183,1183,1183,0.44,650,12.02,2.14,1.47,9.09,-1.45,5.01,8.45,2.4,1.3,-28.8
211632,1183,1183,1183,1183,0.50,656,12.03,2.49,1.56,7.62,-6.04,-4.64,17.86,3.1,10.3,-29.0
211632,1183,1183,1183,1183,0.47,653,12.03,2.73,1.71,6.17,1.74,2.59,10.36,4.6,9.6,-29.5
211632,1183,1183,1183,1183,0.48,654,12.02,2.92,1.81,4.71,-2.93,-4.06,8.08,6.2,-0.9,-28.4
211632,1183,1183,1183,1183,0.46,652,12.02,3.18,1.86,3.30,0.41,-4.91,12.26,5.0,0.5,-25.6
211632,1183,1183,1183,1183,0.52,658,12.01,3.06,2.13,2.04,-4.34,-4.27,10.36,5.5,10.1,-24.2
211632,1183,1183,1183,1183,0.46,652,12.02,2.99,2.24,0.84,1.38,-3.47,10.59,4.9,4.9,-25.4
211632,1183,1183,1183,1183,0.42,648,12.01,3.05,2.24,-0.47,-17.05,3.85,6.63,6.8,-3.3,-25.6
211632,1183,1183,1183,1183,0.45,651,12.01,3.25,2.24,-1.73,0.04,0.36,11.14,5.1,-7.6,-23.5
211632,1183,1183,1183,1183,0.49,655,12.01,3.37,2.22,-2.97,8.08,-2.74,6.62,3.9,10.3,-26.9
