time,pwm1,pwm2,pwm3,pwm4,depth,press,voltage,roll,pitch,yaw,a_x,a_y,a_z,w_row,w_pitch,w_yaw
213547,1100,1100,1100,1100,-0.02,602,12.10,5.87,-0.81,-55.53,0.06,0.85,8.65,-0.3,1.2,-0.2
213547,1100,1100,1100,1100,0.00,604,12.08,5.84,-0.75,-55.53,0.16,0.97,8.69,-0.4,1.5,-0.2
213547,1100,1100,1100,1100,-0.02,602,12.07,5.81,-0.67,-55.54,0.03,0.85,8.84,-0.5,1.5,-0.2
213547,1100,1100,1100,1100,-0.02,602,12.06,5.78,-0.58,-55.54,0.13,0.76,8.50,-0.4,1.4,-0.2
213547,1184,1184,1184,1184,0.00,604,12.01,5.76,-0.50,-55.54,0.11,0.87,8.71,-0.1,1.5,-0.2
213547,1184,1184,1184,1184,0.01,605,11.97,5.75,-0.37,-55.52,-1.13,-0.14,9.84,0.9,5.8,0.1
213547,1184,1184,1184,1184,0.00,604,11.98,5.90,0.20,-55.47,1.33,0.65,10.53,0.5,16.1,-0.2
213547,1184,1184,1184,1184,0.02,606,11.94,5.86,0.99,-55.41,4.39,-1.11,10.49,-3.2,17.2,-1.8
213547,1184,1184,1184,1184,0.04,608,11.97,5.43,1.66,-55.44,6.35,5.80,-0.62,-4.2,15.6,-2.6
213547,1184,1184,1184,1184,0.02,606,11.96,5.50,1.67,-55.65,6.17,6.63,4.55,-6.8,2.1,-5.9
213547,1184,1184,1184,1184,0.08,612,11.95,5.10,1.65,-56.00,6.32,0.29,1.43,-6.2,-0.1,-9.6
213547,1184,1184,1184,1184,0.07,611,11.95,4.33,0.99,-56.48,-7.41,3.43,11.24,-6.8,-12.0,-8.7
213548,1184,1184,1184,1184,0.06,610,11.97,4.21,0.29,-56.86,4.36,0.05,5.28,-5.5,-9.4,-6.6
213548,1184,1184,1184,1184,0.06,610,11.95,3.88,-0.06,-57.32,-1.34,3.81,-2.60,-3.7,-3.3,-10.4
213548,1184,1184,1184,1184,0.08,613,11.94,3.89,-0.11,-57.88,0.08,-3.51,18.31,-2.9,2.6,-11.3
213548,1184,1184,1184,1184,0.07,611,11.96,3.67,-0.35,-58.57,5.44,2.99,3.39,-6.7,-8.2,-14.0
213548,1184,1184,1184,1184,0.06,610,11.97,3.16,-1.24,-59.42,-10.72,0.83,16.32,-3.1,-14.2,-17.1
213548,1184,1184,1184,1184,0.11,616,11.95,2.81,-1.15,-60.28,-4.79,5.78,2.88,-4.5,-17.6,-17.1
213548,1184,1184,1184,1184,0.12,617,11.98,3.07,-1.60,-61.22,-8.78,2.45,10.88,-1.7,-5.5,-19.7
213548,1184,1184,1184,1184,0.15,620,11.97,3.09,-1.34,-62.25,9.69,-3.20,11.39,-2.8,4.9,-21.4
213548,1184,1184,1184,1184,0.15,620,11.95,3.26,-1.70,-63.35,-10.84,0.88,8.69,-1.3,-12.9,-23.7
213548,1184,1184,1184,1184,0.14,619,11.96,3.00,-1.92,-64.49,3.23,-4.72,8.33,0.4,-5.9,-23.4
213548,1184,1184,1184,1184,0.15,620,11.96,3.27,-2.23,-65.67,-4.99,-1.83,18.76,3.1,-6.2,-26.9
213548,1184,1184,1184,1184,0.14,619,11.95,3.34,-2.52,-66.88,-6.65,-0.58,13.82,2.2,-10.6,-25.8
213548,1184,1184,1184,1184,0.15,620,11.97,3.28,-2.93,-68.14,-5.95,2.73,10.13,1.5,4.0,-27.3
213548,1184,1184,1184,1184,0.17,622,11.96,3.55,-2.45,-69.48,0.47,0.44,3.14,3.6,-4.5,-29.3
213548,1184,1184,1184,1184,0.18,623,11.97,3.96,-2.41,-70.91,-7.71,3.95,11.69,2.5,-4.2,-28.0
213548,1184,1184,1184,1184,0.18,623,11.98,4.14,-2.10,-72.33,6.05,5.03,-3.68,4.1,4.8,-29.0
213548,1184,1184,1184,1184,0.17,622,11.98,4.72,-2.09,-73.78,9.00,2.49,1.88,3.4,12.0,-29.9
213548,1184,1184,1184,1184,0.20,625,11.96,5.27,-1.47,-75.23,-0.25,0.47,7.46,2.9,1.4,-30.6
213548,1184,1184,1184,1184,0.21,626,11.95,5.60,-1.61,-76.74,-6.57,-5.91,19.60,3.4,-0.2,-30.1
213548,1184,1184,1184,1184,0.20,625,11.95,5.23,-1.60,-78.26,6.76,-0.95,4.68,5.2,12.1,-31.2
213549,1184,1184,1184,1184,0.22,627,11.96,5.48,-1.81,-79.80,-1.89,4.85,7.82,4.8,5.6,-30.8
213549,1184,1184,1184,1184,0.20,625,11.96,5.70,-1.83,-81.41,-7.47,0.39,8.42,5.6,2.8,-33.4
213549,1184,1184,1184,1184,0.21,626,11.96,5.86,-1.34,-83.04,19.60,-4.11,1.24,6.0,19.3,-31.6
213549,1184,1184,1184,1184,0.23,628,11.96,5.55,-1.72,-84.63,-0.24,-2.76,3.46,7.4,6.6,-31.6
213549,1184,1184,1184,1184,0.19,624,11.97,5.87,-1.61,-86.26,12.36,1.46,0.21,5.9,5.1,-32.3
213549,1184,1184,1184,1184,0.21,626,11.96,6.18,-1.36,-87.99,-4.31,5.25,6.03,6.2,-4.6,-34.3
213549,1184,1184,1184,1184,0.25,630,11.98,6.41,-0.91,-89.65,4.72,1.68,5.13,7.1,6.2,-33.1
213549,1184,1184,1184,1184,0.25,630,11.96,7.05,-0.74,-91.37,5.67,-1.89,3.21,6.7,3.8,-34.7
213549,1184,1184,1184,1184,0.24,629,11.97,7.36,-0.40,-93.05,5.59,-0.57,7.40,6.9,4.0,-32.4
213549,1184,1184,1184,1184,0.25,631,11.96,7.33,-0.45,-94.74,-5.36,3.93,14.98,4.6,4.2,-33.9
213549,1184,1184,1184,1184,0.25,630,11.95,7.83,-0.06,-96.54,-4.29,1.62,19.60,4.0,2.6,-36.3
213549,1184,1184,1184,1184,0.25,631,11.95,8.14,0.01,-98.39,0.44,2.48,8.20,1.8,3.7,-37.1
213549,1184,1184,1184,1184,0.25,631,11.96,8.40,0.34,-100.27,-0.46,6.17,11.30,1.0,0.5,-38.1
213549,1184,1184,1184,1184,0.27,633,11.94,8.48,0.10,-102.20,-15.37,6.25,11.83,2.9,-10.6,-38.1
213549,1184,1184,1184,1184,0.24,629,11.96,8.79,0.65,-104.17,-1.08,-0.10,16.35,2.9,-1.6,-40.3
213549,1184,1184,1184,1184,0.26,632,11.96,8.86,0.74,-106.21,11.70,3.78,-0.50,2.4,4.8,-39.8
213549,1184,1184,1184,1184,0.25,631,11.97,8.79,0.28,-108.18,-8.21,0.56,14.63,1.3,-9.6,-40.4
213549,1184,1184,1184,1184,0.27,633,11.96,8.81,0.30,-110.23,-12.69,0.64,19.60,1.0,-2.9,-40.7
213549,1184,1184,1184,1184,0.27,633,11.96,8.74,0.82,-112.24,-4.56,3.21,7.16,0.6,8.0,-40.0
213549,1184,1184,1184,1184,0.25,631,11.96,8.70,1.15,-114.29,-12.33,4.40,17.98,0.0,-9.8,-41.2
213550,1184,1184,1184,1184,0.30,636,11.94,8.42,0.94,-116.34,-1.73,-1.01,9.08,-2.7,0.3,-40.5
213550,1184,1184,1184,1184,0.28,634,11.96,8.37,1.34,-118.32,4.68,0.45,-3.01,-3.3,-1.1,-38.6
213550,1184,1184,1184,1184,0.25,630,11.95,7.87,0.72,-120.22,-8.75,3.19,13.89,-4.8,-6.1,-38.6
213550,1184,1184,1184,1184,0.26,632,11.96,7.66,1.13,-122.21,6.55,-4.58,9.59,-5.0,1.0,-40.8
213550,1184,1184,1184,1184,0.29,635,11.94,6.96,0.78,-124.20,-1.75,1.90,6.71,-3.4,-2.8,-40.5
213550,1184,1184,1184,1184,0.32,638,11.96,6.85,0.94,-126.27,-13.25,5.86,8.49,-3.2,-14.4,-41.3
213550,1184,1184,1184,1184,0.26,632,11.96,6.61,0.97,-128.31,-2.45,-2.83,19.60,0.2,5.3,-40.1
213550,1184,1184,1184,1184,0.30,636,11.95,6.32,1.23,-130.33,14.34,-6.65,3.61,0.1,10.1,-40.6
213550,1184,1184,1184,1184,0.26,632,11.96,5.91,1.12,-132.45,6.39,3.85,3.77,-1.1,1.0,-42.4
213550,1184,1184,1184,1184,0.26,632,11.96,5.76,0.83,-134.55,-14.38,-0.78,19.60,0.3,-7.3,-42.4
213550,1184,1184,1184,1184,0.29,635,11.95,5.44,0.70,-136.68,-3.12,3.11,1.34,3.3,-14.8,-44.4
213550,1184,1184,1184,1184,0.28,634,11.96,5.34,0.77,-138.78,1.41,2.61,12.41,2.0,-2.7,-41.2
213550,1184,1184,1184,1184,0.30,636,11.95,5.28,0.95,-140.88,6.98,0.45,3.66,3.2,4.0,-43.1
213550,1184,1184,1184,1184,0.29,635,11.95,5.60,1.40,-143.01,-4.07,-0.94,15.87,1.6,1.5,-43.4
213550,1184,1184,1184,1184,0.32,638,11.95,5.56,1.84,-145.10,-0.18,-1.04,9.34,0.3,-4.8,-42.2
213550,1184,1184,1184,1184,0.31,637,11.96,5.27,1.87,-147.22,4.33,0.97,10.29,3.0,-0.7,-43.5
213550,1184,1184,1184,1184,0.30,636,11.94,5.32,2.21,-149.33,13.55,-0.81,4.99,3.1,5.7,-41.1
213550,1184,1184,1184,1184,0.28,634,11.95,5.22,2.19,-151.39,3.83,-1.58,11.99,1.2,-0.1,-40.5
213550,1184,1184,1184,1184,0.33,639,11.95,4.87,1.74,-153.33,-7.27,-1.31,18.42,0.7,-5.6,-39.0
213550,1184,1184,1184,1184,0.31,637,11.97,4.82,1.60,-155.23,-7.53,2.00,6.24,-0.1,-9.8,-37.8
213551,1184,1184,1184,1184,0.33,639,11.96,4.91,2.00,-157.06,-3.83,2.56,2.48,-0.2,-0.4,-37.0
213551,1184,1184,1184,1184,0.32,638,11.96,4.80,2.23,-158.85,3.11,-2.01,3.40,0.6,7.6,-36.4
213551,1184,1184,1184,1184,0.34,640,11.95,4.81,2.08,-160.60,-19.27,1.35,13.27,-0.8,-2.1,-34.9
213551,1184,1184,1184,1184,0.31,637,11.95,4.69,1.94,-162.30,-12.86,0.25,19.60,2.1,-12.5,-35.6
213551,1184,1184,1184,1184,0.32,638,11.96,4.21,1.90,-164.09,4.58,-3.15,8.17,-1.6,9.6,-35.8
213551,1184,1184,1184,1184,0.33,639,11.95,3.60,1.63,-165.83,1.92,-3.77,8.53,0.8,5.5,-34.7
213551,1184,1184,1184,1184,0.32,638,11.95,3.68,1.32,-167.59,-3.05,-0.60,13.13,0.5,4.9,-35.6
213551,1184,1184,1184,1184,0.33,639,11.96,3.38,1.46,-169.34,8.83,-5.45,9.47,-0.1,-1.9,-35.2
213551,1184,1184,1184,1184,0.33,639,11.95,3.50,1.63,-171.09,-1.04,0.86,5.00,0.1,4.3,-36.2
213551,1184,1184,1184,1184,0.34,640,11.94,3.46,1.85,-172.78,-0.36,-3.60,13.16,2.1,7.0,-33.9
213551,1184,1184,1184,1184,0.35,641,11.96,3.73,1.77,-174.48,-10.42,2.13,9.54,2.4,-9.8,-34.1
213551,1184,1184,1184,1184,0.35,641,11.94,3.63,1.81,-176.17,-6.51,4.95,9.88,0.4,-4.8,-32.1
213551,1184,1184,1184,1184,0.35,641,11.96,3.50,1.82,-177.73,-4.08,2.88,9.64,1.3,-5.3,-31.8
213551,1184,1184,1184,1184,0.34,640,11.94,3.33,2.28,-179.33,13.01,-0.03,8.22,0.3,7.1,-31.7
213551,1184,1184,1184,1184,0.38,644,11.94,3.00,1.84,179.13,3.41,-0.84,13.94,-1.0,-2.4,-31.6
213551,1184,1184,1184,1184,0.36,642,11.94,2.92,1.90,177.50,10.47,3.89,-1.09,2.3,30.2,-35.0
213551,1184,1184,1184,1184,0.38,644,11.94,2.79,1.77,175.86,11.40,-0.62,7.57,-0.6,12.7,-33.8
213551,1184,1184,1184,1184,0.40,646,11.94,2.23,1.28,174.20,1.69,-2.32,8.62,1.5,-2.4,-34.5
213551,1184,1184,1184,1184,0.35,641,11.95,2.24,1.23,172.59,9.12,0.67,6.87,2.9,-2.5,-32.5
213551,1184,1184,1184,1184,0.36,642,11.96,2.46,1.03,171.02,3.04,-0.17,10.11,-0.9,2.9,-32.0
213552,1184,1184,1184,1184,0.36,642,11.94,2.74,1.44,169.48,8.67,0.34,1.30,3.0,5.0,-33.0
213552,1184,1184,1184,1184,0.39,645,11.95,2.80,1.55,168.01,1.53,-1.33,4.68,3.2,4.9,-32.4
213552,1184,1184,1184,1184,0.36,642,11.95,3.26,2.05,166.55,14.38,-3.19,3.90,4.6,17.9,-32.8
213552,1184,1184,1184,1184,0.37,643,11.96,3.03,1.99,164.98,11.72,-4.27,1.87,3.5,1.8,-33.5
213552,1184,1184,1184,1184,0.39,645,11.94,3.01,2.49,163.38,9.91,-3.90,-7.28,4.2,9.6,-32.7
213552,1184,1184,1184,1184,0.37,643,11.94,3.16,2.83,161.89,2.67,-6.07,13.34,3.8,5.6,-31.5
213552,1184,1184,1184,1184,0.42,648,11.94,3.01,3.00,160.28,-8.82,2.14,18.15,3.7,10.8,-34.9
213552,1184,1184,1184,1184,0.39,645,11.95,3.44,3.70,158.77,1.76,1.43,2.83,3.8,24.0,-31.3
213552,1184,1184,1184,1184,0.39,645,11.96,3.38,3.73,157.22,-11.90,1.02,14.92,5.3,-11.1,-31.3
213552,1184,1184,1184,1184,0.37,643,11.96,3.27,3.98,155.68,3.03,3.91,7.56,2.9,5.1,-29.5
213552,1184,1184,1184,1184,0.41,647,11.93,3.26,4.13,154.26,-5.30,-1.00,7.85,3.0,-3.5,-28.0
213552,1184,1184,1184,1184,0.39,645,11.95,3.50,4.33,152.89,-2.51,-0.69,8.14,2.6,8.1,-28.4
213552,1184,1184,1184,1184,0.42,649,11.94,3.47,4.67,151.48,-3.12,5.36,19.28,1.6,1.4,-28.7
213552,1184,1184,1184,1184,0.42,648,11.95,3.79,4.66,150.14,-5.68,7.30,7.86,1.3,3.6,-27.7
213552,1184,1184,1184,1184,0.37,643,11.96,4.46,5.05,148.87,-4.35,5.78,15.49,3.3,1.0,-28.2
213552,1184,1184,1184,1184,0.40,646,11.96,4.15,4.78,147.50,-15.44,-0.62,15.35,1.5,-15.7,-26.8
213552,1184,1184,1184,1184,0.40,646,11.93,3.82,4.69,146.07,3.66,-3.91,14.07,1.9,-4.3,-28.3
213552,1184,1184,1184,1184,0.42,649,11.95,3.76,4.59,144.71,6.60,0.40,3.57,2.0,8.5,-26.5
213552,1184,1184,1184,1184,0.38,644,11.94,3.71,4.47,143.43,-2.20,3.11,8.56,1.8,-7.5,-26.6
213552,1184,1184,1184,1184,0.40,646,11.95,3.58,4.55,142.07,-0.82,-0.38,3.01,3.1,-4.1,-26.0
213553,1184,1184,1184,1184,0.40,646,11.95,3.70,4.72,140.72,6.55,-0.94,9.57,2.1,8.8,-27.0
213553,1184,1184,1184,1184,0.42,649,11.96,3.37,4.40,139.33,-0.58,4.98,7.83,2.1,1.5,-27.3
213553,1184,1184,1184,1184,0.40,646,11.95,3.51,4.23,137.94,6.12,0.33,6.81,3.7,-0.1,-28.4
213553,1184,1184,1184,1184,0.42,648,11.95,3.93,4.55,136.53,6.43,-2.60,6.71,2.9,-3.2,-27.5
213553,1184,1184,1184,1184,0.42,649,11.95,3.87,4.29,135.09,-0.61,10.71,12.06,3.4,-3.7,-27.2
213553,1184,1184,1184,1184,0.40,646,11.95,4.08,4.29,133.71,0.93,3.42,5.22,2.0,3.1,-27.9
213553,1184,1184,1184,1184,0.41,647,11.94,4.03,4.46,132.36,2.25,-4.47,18.12,1.0,3.4,-25.8
213553,1184,1184,1184,1184,0.44,651,11.94,3.99,4.68,131.02,11.15,-1.55,2.43,2.6,11.3,-25.6
213553,1184,1184,1184,1184,0.42,648,11.93,3.57,4.35,129.63,1.79,-0.50,9.11,1.0,4.9,-26.6
213553,1184,1184,1184,1184,0.42,649,11.93,3.60,3.79,128.19,-5.17,3.03,3.52,1.3,1.6,-28.8
213553,1184,1184,1184,1184,0.43,650,11.96,3.73,3.95,126.72,4.07,-1.00,12.03,0.5,-0.1,-29.2
213553,1184,1184,1184,1184,0.45,652,11.93,3.60,3.56,125.22,5.65,1.88,11.96,2.5,8.0,-28.9
213553,1184,1184,1184,1184,0.42,648,11.94,3.57,3.20,123.77,-5.99,1.76,8.49,1.6,-4.6,-27.7
213553,1184,1184,1184,1184,0.40,646,11.94,3.32,3.04,122.28,0.80,1.91,5.16,1.8,-5.8,-28.7
213553,1184,1184,1184,1184,0.43,650,11.94,3.10,2.96,120.77,16.49,-0.66,3.30,2.5,13.4,-29.9
213553,1184,1184,1184,1184,0.43,650,11.94,2.93,2.99,119.26,8.73,2.66,-7.10,0.5,7.1,-30.2
213553,1184,1184,1184,1184,0.44,651,11.95,2.78,2.38,117.76,1.64,-0.03,9.16,1.6,-11.0,-30.7
213553,1184,1184,1184,1184,0.42,649,11.94,3.10,2.59,116.20,3.40,2.25,2.93,2.5,4.3,-30.6
213553,1184,1184,1184,1184,0.42,649,11.94,2.89,2.26,114.67,4.27,-0.45,9.22,1.2,-2.6,-29.2
213553,1184,1184,1184,1184,0.42,649,11.95,2.50,2.00,113.16,2.25,1.62,7.16,1.5,2.0,-29.7
213554,1184,1184,1184,1184,0.41,647,11.94,2.11,1.92,111.59,2.61,-1.31,4.10,0.5,7.4,-30.9
213554,1184,1184,1184,1184,0.42,648,11.96,1.86,1.83,110.09,3.84,4.57,1.47,-1.6,4.0,-30.4
213554,1184,1184,1184,1184,0.42,648,11.94,2.02,1.89,108.68,-15.25,-0.37,17.03,0.6,-9.2,-28.4
213554,1184,1184,1184,1184,0.42,649,11.93,1.96,1.95,107.31,2.47,3.02,-0.83,-1.0,3.7,-26.9
213554,1184,1184,1184,1184,0.42,649,11.94,1.66,1.73,105.90,-5.14,1.32,12.59,3.4,-7.6,-27.0
213554,1184,1184,1184,1184,0.42,649,11.94,1.44,1.63,104.51,-2.24,2.95,7.91,3.2,0.9,-28.5
213554,1184,1184,1184,1184,0.41,647,11.95,1.47,1.45,103.10,-1.62,-0.91,8.23,1.6,5.6,-27.9
213554,1184,1184,1184,1184,0.40,646,11.95,1.16,1.04,101.64,-6.67,-0.74,9.66,2.2,8.2,-28.5
213554,1184,1184,1184,1184,0.41,647,11.94,1.35,0.89,100.26,0.33,1.79,7.39,3.8,-2.6,-26.7
213554,1184,1184,1184,1184,0.45,652,11.93,1.75,1.59,98.83,13.49,0.04,-0.00,0.9,8.9,-29.1
213554,1184,1184,1184,1184,0.41,647,11.95,1.65,1.42,97.37,0.86,-3.02,6.69,1.5,-10.4,-29.5
213554,1184,1184,1184,1184,0.41,647,11.95,1.81,1.44,95.95,2.02,-0.20,7.35,3.7,6.9,-30.0
213554,1184,1184,1184,1184,0.42,648,11.95,2.01,1.94,94.45,4.96,0.68,-0.84,4.2,-0.2,-29.3
213554,1184,1184,1184,1184,0.39,645,11.94,1.98,1.83,92.92,4.52,4.12,1.80,5.4,6.1,-29.2
213554,1184,1184,1184,1184,0.39,645,11.95,2.13,1.66,91.43,12.84,-0.22,8.15,5.4,9.2,-30.4
213554,1184,1184,1184,1184,0.43,650,11.93,2.56,1.89,89.85,-14.02,-3.09,19.60,4.0,-20.1,-31.5
213554,1184,1184,1184,1184,0.41,647,11.94,2.87,2.03,88.23,-0.13,4.85,4.52,4.9,9.0,-33.0
213554,1184,1184,1184,1184,0.42,648,11.94,3.22,2.15,86.56,-4.92,3.51,16.81,4.7,-5.4,-35.4
213554,1184,1184,1184,1184,0.42,648,11.94,3.45,2.20,84.77,-0.77,2.73,9.39,5.1,-4.5,-36.4
213554,1184,1184,1184,1184,0.42,648,11.94,3.33,1.83,83.03,5.69,-0.04,2.14,4.5,9.5,-34.5
213555,1184,1184,1184,1184,0.42,649,11.95,3.02,1.23,81.32,-3.34,-3.44,13.06,4.8,-9.1,-34.6
213555,1184,1184,1184,1184,0.41,647,11.93,3.17,1.28,79.57,2.86,-2.68,7.22,2.9,5.9,-36.6
213555,1184,1184,1184,1184,0.40,646,11.95,2.33,-0.32,67.64,7.95,1.40,2.37,-4.7,6.4,-34.5
213555,1184,1184,1184,1184,0.42,649,11.94,2.16,-0.26,65.93,-3.31,1.48,2.43,-2.1,2.8,-35.1
213555,1184,1184,1184,1184,0.38,644,11.93,2.18,-0.08,64.19,-12.00,2.60,19.60,-1.4,-3.7,-35.3
213555,1184,1184,1184,1184,0.42,649,11.94,2.36,0.10,62.49,3.03,0.47,8.03,0.1,4.8,-32.8
213555,1184,1184,1184,1184,0.41,647,11.93,2.15,0.32,60.93,3.19,3.13,5.36,0.0,4.5,-32.7
213555,1184,1184,1184,1184,0.39,645,11.94,1.93,0.42,59.33,5.59,0.05,8.08,-2.0,-1.3,-32.4
213555,1184,1184,1184,1184,0.41,647,11.94,1.80,0.46,57.74,7.86,2.06,1.13,-0.7,-2.7,-32.5
213555,1184,1184,1184,1184,0.43,650,11.94,1.70,0.30,56.11,-1.56,2.96,16.16,-2.6,5.2,-34.5
213555,1184,1184,1184,1184,0.41,647,11.92,2.25,0.52,54.43,1.16,0.11,10.09,-2.4,-2.0,-31.9
213555,1184,1184,1184,1184,0.42,649,11.96,2.24,0.45,52.81,-15.25,11.70,13.38,-0.7,-1.9,-32.6
213555,1184,1184,1184,1184,0.41,647,11.94,1.92,-0.03,51.20,11.71,2.07,6.92,-0.9,14.5,-32.0
213555,1184,1184,1184,1184,0.42,648,11.93,1.98,-0.15,49.59,-9.98,-3.21,19.60,1.0,-2.0,-31.3
213555,1184,1184,1184,1184,0.41,647,11.93,1.56,-0.16,48.03,-5.50,-3.16,18.48,0.2,-3.6,-29.7
213555,1184,1184,1184,1184,0.39,645,11.93,1.44,-0.35,46.50,11.09,3.88,-4.24,2.3,11.0,-29.5
213555,1184,1184,1184,1184,0.42,648,11.95,1.50,-0.38,45.08,-5.02,2.33,9.81,2.3,5.5,-27.8
213555,1184,1184,1184,1184,0.42,648,11.94,0.96,-0.25,43.58,-1.04,0.01,3.31,1.6,-6.8,-29.2
213555,1184,1184,1184,1184,0.39,645,11.95,1.26,-0.67,42.10,-2.97,3.30,11.82,1.8,-8.7,-28.9
213555,1184,1184,1184,1184,0.38,644,11.94,1.44,-0.78,40.65,-9.62,5.51,15.09,1.9,9.9,-28.6
213556,1184,1184,1184,1184,0.38,644,11.95,1.96,-0.22,39.25,-10.04,-1.96,16.06,5.9,0.1,-26.8
213556,1184,1184,1184,1184,0.37,643,11.94,2.22,-0.01,37.86,-4.22,-6.29,9.88,5.2,0.7,-27.6
213556,1184,1184,1184,1184,0.42,649,11.95,2.54,0.20,36.57,-12.68,4.99,15.25,3.8,-12.1,-23.3
213556,1184,1184,1184,1184,0.39,645,11.93,2.10,-0.03,35.37,-2.44,-3.38,8.05,4.0,0.7,-22.3
213556,1184,1184,1184,1184,0.36,642,11.93,2.61,0.23,34.23,5.37,-0.15,14.03,4.5,-2.6,-20.3
213556,1184,1184,1184,1184,0.41,647,11.94,2.68,-0.16,33.17,-2.27,-2.56,8.05,4.1,12.3,-20.6
213556,1184,1184,1184,1184,0.40,646,11.93,2.45,-0.14,32.13,-5.46,2.67,12.43,4.0,2.5,-19.1
213556,1184,1184,1184,1184,0.40,646,11.94,2.32,0.18,31.05,-2.25,-0.63,5.51,4.9,16.2,-22.3
213556,1184,1184,1184,1184,0.37,643,11.93,2.47,-0.15,29.91,6.26,2.15,-2.64,6.3,22.8,-22.3
213556,1184,1184,1184,1184,0.41,647,11.94,3.21,-0.02,28.73,6.18,-1.29,5.14,3.4,21.3,-23.7
213556,1184,1184,1184,1184,0.41,647,11.94,3.47,-0.18,27.58,-3.04,0.81,5.64,3.3,7.3,-22.4
213556,1184,1184,1184,1184,0.37,643,11.95,3.58,-0.43,26.44,-2.14,-1.88,3.06,1.8,2.3,-20.4
213556,1184,1184,1184,1184,0.38,644,11.94,3.86,-0.08,25.34,4.63,3.43,10.84,0.4,4.8,-22.0
213556,1184,1184,1184,1184,0.38,644,11.92,4.26,-0.15,24.23,-1.97,3.69,9.50,-0.2,-0.3,-20.4
213556,1184,1184,1184,1184,0.39,645,11.94,4.22,-0.18,23.17,3.21,0.91,8.50,2.4,4.3,-22.1
213556,1184,1184,1184,1184,0.40,646,11.94,4.23,-0.53,22.10,7.01,3.52,2.95,1.3,8.7,-20.9
213556,1184,1184,1184,1184,0.41,647,11.94,4.24,-0.85,20.95,10.34,-1.49,8.38,-0.1,10.3,-23.8
213556,1184,1184,1184,1184,0.38,644,11.93,4.01,-0.82,19.78,9.36,2.36,5.14,1.0,-5.5,-22.6
213556,1184,1184,1184,1184,0.39,645,11.94,4.28,-0.63,18.61,1.33,2.26,5.49,-0.5,8.9,-23.7
213556,1184,1184,1184,1184,0.38,644,11.94,4.46,-0.57,17.48,5.19,-0.56,4.96,1.3,14.1,-22.5
213557,1184,1184,1184,1184,0.37,643,11.94,4.20,-0.03,16.43,6.76,2.12,-1.49,2.3,7.7,-22.6
213557,1184,1184,1184,1184,0.38,644,11.93,4.50,0.57,15.38,-1.41,-2.73,17.71,3.0,4.2,-20.0
213557,1184,1184,1184,1184,0.34,640,11.94,4.29,0.56,14.42,2.46,-1.41,7.65,2.3,5.6,-20.9
213557,1184,1184,1184,1184,0.35,641,11.93,4.28,0.57,13.52,2.42,3.45,6.28,0.4,0.1,-18.6
