time,pwm1,pwm2,pwm3,pwm4,depth,press,voltage,roll,pitch,yaw,a_x,a_y,a_z,w_row,w_pitch,w_yaw
151550,1100,1100,1100,1100,0.03,610,12.33,6.18,-1.85,-179.03,0.32,0.90,8.57,0.1,0.0,0.0
151550,1100,1100,1100,1100,0.02,609,12.31,6.18,-1.85,-179.02,0.36,0.90,8.62,-0.1,-0.3,0.0
151550,1100,1100,1100,1100,0.03,610,12.28,6.17,-1.86,-179.02,0.29,0.91,8.75,-0.3,-0.3,0.0
151550,1100,1100,1100,1100,0.02,609,12.26,6.15,-1.87,-179.02,0.24,0.89,8.65,-0.5,-0.4,-0.1
151550,1180,1180,1180,1180,0.04,611,12.18,6.12,-1.88,-179.02,0.70,1.12,8.69,-0.7,-1.1,0.0
151550,1180,1180,1180,1180,0.05,612,12.18,5.89,-1.67,-179.05,-1.40,2.24,10.28,-8.5,-1.2,-0.9
151550,1180,1180,1180,1180,0.00,607,12.18,5.45,-1.45,-179.13,9.74,3.32,-0.02,-14.8,5.9,-2.5
151550,1180,1180,1180,1180,0.02,609,12.17,4.64,-1.51,-179.26,3.52,2.33,3.16,-13.4,0.7,-2.2
151551,1180,1180,1180,1180,0.08,616,12.18,4.43,-1.36,-179.46,-1.21,0.86,9.86,-13.6,-1.8,-3.7
151551,1180,1180,1180,1180,0.06,613,12.17,4.16,-1.74,-179.68,8.89,-3.34,2.55,-7.5,-1.3,-3.0
151551,1180,1180,1180,1180,0.05,612,12.16,3.29,-1.81,-179.85,18.17,-8.85,9.29,-3.1,-6.0,-2.9
151551,1180,1180,1180,1180,0.07,614,12.16,2.23,-2.18,179.99,5.83,-6.31,11.98,-2.1,2.4,-6.0
151551,1180,1180,1180,1180,0.08,616,12.18,2.26,-2.83,179.58,-8.51,1.00,19.03,0.2,-11.4,-9.9
151551,1180,1180,1180,1180,0.07,614,12.17,2.36,-2.43,179.05,0.87,-0.49,0.10,-0.1,9.2,-12.6
151551,1180,1180,1180,1180,0.13,621,12.18,2.32,-2.20,178.41,3.11,7.61,6.90,-2.8,-7.4,-12.2
151551,1180,1180,1180,1180,0.12,620,12.19,2.68,-1.64,177.70,3.39,1.70,1.87,2.0,-0.4,-15.0
151551,1180,1180,1180,1180,0.17,625,12.17,2.64,-1.57,176.94,10.02,2.47,10.37,-0.1,5.8,-15.2
151551,1180,1180,1180,1180,0.12,620,12.18,2.41,-1.85,176.12,10.47,-2.15,10.01,-1.4,7.0,-17.8
151551,1180,1180,1180,1180,0.12,620,12.17,2.32,-2.28,175.25,-13.96,2.75,16.32,-2.1,-8.7,-17.2
151551,1180,1180,1180,1180,0.18,626,12.18,2.74,-2.59,174.33,-1.06,-4.23,17.42,1.0,-16.8,-17.5
151551,1180,1180,1180,1180,0.15,623,12.16,2.51,-2.94,173.43,8.13,-9.50,10.36,3.3,-3.2,-19.7
151551,1180,1180,1180,1180,0.15,623,12.17,2.28,-3.22,172.49,-2.28,-2.58,9.69,3.7,-0.2,-19.7
151551,1180,1180,1180,1180,0.16,624,12.19,2.68,-3.59,171.39,-8.31,-1.21,17.83,5.1,-10.9,-22.6
151551,1180,1180,1180,1180,0.20,628,12.16,3.37,-3.69,170.18,5.08,1.75,3.06,4.5,-1.0,-23.2
151551,1180,1180,1180,1180,0.18,626,12.17,3.98,-3.50,168.98,5.51,6.79,8.59,3.1,5.3,-23.8
151551,1180,1180,1180,1180,0.22,630,12.16,4.55,-3.91,167.72,7.07,2.63,6.55,3.8,-0.1,-23.0
151551,1180,1180,1180,1180,0.20,628,12.16,4.99,-4.17,166.47,1.97,-0.22,9.18,4.0,-1.5,-22.6
151551,1180,1180,1180,1180,0.24,632,12.16,5.08,-3.99,165.24,2.55,-0.67,6.40,4.6,-5.0,-22.8
151552,1180,1180,1180,1180,0.19,627,12.17,5.16,-3.98,163.96,-8.61,8.47,8.35,4.4,1.4,-24.3
151552,1180,1180,1180,1180,0.23,631,12.16,5.48,-3.92,162.65,-10.13,4.69,11.64,4.1,-0.5,-25.8
151552,1180,1180,1180,1180,0.22,630,12.17,5.54,-4.06,161.35,4.88,1.56,8.87,5.2,12.9,-25.5
151552,1180,1180,1180,1180,0.21,629,12.17,5.97,-3.90,160.03,7.15,0.61,10.02,5.4,-4.6,-25.1
151552,1180,1180,1180,1180,0.23,631,12.17,6.20,-3.91,158.68,-5.92,4.77,14.77,6.3,-3.8,-28.2
151552,1180,1180,1180,1180,0.27,636,12.17,6.46,-3.97,157.26,-4.80,-4.34,19.60,6.5,-11.2,-29.1
151552,1180,1180,1180,1180,0.24,632,12.16,6.48,-3.55,155.80,4.03,-3.53,14.07,4.4,0.4,-29.0
151552,1180,1180,1180,1180,0.21,629,12.16,6.67,-3.61,154.39,5.97,-0.11,7.50,5.9,-7.2,-28.3
151552,1180,1180,1180,1180,0.19,627,12.18,6.57,-3.78,153.03,-6.61,0.30,14.53,4.8,-8.5,-29.1
151552,1180,1180,1180,1180,0.25,633,12.16,6.88,-3.77,151.61,-5.37,-2.49,10.96,6.0,-7.4,-27.8
151552,1180,1180,1180,1180,0.25,633,12.18,7.19,-3.52,150.19,1.19,-2.56,6.52,4.4,7.3,-30.3
151552,1180,1180,1180,1180,0.22,630,12.18,7.35,-3.32,148.68,4.68,4.50,4.61,3.4,-9.0,-32.3
151552,1180,1180,1180,1180,0.27,636,12.17,8.05,-3.40,147.11,5.75,2.08,10.68,2.6,3.2,-32.4
151552,1180,1180,1180,1180,0.26,635,12.16,8.40,-3.24,145.47,-2.56,-5.04,13.18,2.9,-2.1,-35.6
151552,1180,1180,1180,1180,0.25,634,12.17,8.90,-3.17,143.74,-18.96,2.44,13.95,1.1,-17.5,-34.2
151552,1180,1180,1180,1180,0.25,634,12.16,8.73,-2.86,142.06,-5.40,2.91,10.68,0.3,-10.2,-34.4
151552,1180,1180,1180,1180,0.26,635,12.17,8.70,-2.78,140.24,3.80,0.67,8.81,-0.2,-7.1,-36.8
151552,1180,1180,1180,1180,0.25,633,12.17,8.59,-2.55,138.38,3.03,-3.35,4.48,0.5,8.2,-39.1
151552,1180,1180,1180,1180,0.24,632,12.17,8.44,-2.79,136.42,-1.62,-0.61,4.11,-3.2,-6.5,-37.7
151552,1180,1180,1180,1180,0.24,632,12.17,8.52,-2.57,134.52,-6.57,0.11,10.60,0.4,-14.6,-38.5
151553,1180,1180,1180,1180,0.28,637,12.17,8.56,-2.21,132.59,-0.31,0.09,13.61,-1.2,-3.8,-38.8
151553,1180,1180,1180,1180,0.30,639,12.19,8.25,-2.34,130.63,-3.09,0.68,7.73,1.3,-7.1,-41.0
151553,1180,1180,1180,1180,0.28,637,12.17,8.35,-1.98,128.63,-2.16,-0.59,10.49,-0.1,-1.3,-39.8
151553,1180,1180,1180,1180,0.24,632,12.15,8.73,-2.19,126.66,4.69,2.61,2.44,-0.9,-6.8,-40.3
151553,1180,1180,1180,1180,0.26,635,12.17,8.86,-2.07,124.74,-6.73,1.43,8.38,-1.6,-15.6,-38.0
151553,1180,1180,1180,1180,0.27,636,12.17,8.72,-1.90,122.79,-0.93,0.74,7.10,-0.2,-2.1,-41.7
151553,1180,1180,1180,1180,0.31,640,12.17,8.40,-1.78,120.75,-10.67,2.90,12.66,-2.1,-4.2,-42.4
151553,1180,1180,1180,1180,0.28,637,12.16,8.05,-1.44,118.67,5.53,1.34,7.08,-1.9,-3.5,-44.7
151553,1180,1180,1180,1180,0.31,640,12.18,7.58,-2.12,116.59,1.27,-0.04,7.02,-2.1,11.4,-43.0
151553,1180,1180,1180,1180,0.28,637,12.15,7.19,-2.25,114.56,-2.06,-2.74,13.36,-3.5,3.2,-42.4
151553,1180,1180,1180,1180,0.31,640,12.16,6.78,-1.99,112.51,7.13,0.43,11.79,-1.0,3.0,-42.7
151553,1180,1180,1180,1180,0.32,641,12.17,6.79,-1.34,110.41,11.08,2.43,2.62,-0.4,4.0,-44.4
151553,1180,1180,1180,1180,0.30,639,12.17,6.61,-1.44,108.27,7.62,6.58,3.40,0.6,13.0,-44.6
151553,1180,1180,1180,1180,0.32,641,12.19,6.78,-1.42,106.12,-1.74,-0.09,8.99,-0.7,4.5,-45.2
151553,1180,1180,1180,1180,0.30,639,12.17,7.00,-0.61,104.05,9.17,4.51,-1.56,-1.8,10.7,-43.0
151553,1180,1180,1180,1180,0.31,640,12.15,7.28,0.01,101.98,4.33,-1.80,7.88,0.3,12.7,-43.3
151553,1180,1180,1180,1180,0.29,638,12.16,6.90,0.35,100.01,6.66,5.83,1.93,1.0,8.7,-39.5
151553,1180,1180,1180,1180,0.31,640,12.17,6.45,0.80,98.00,5.61,-1.49,3.23,1.3,5.4,-41.8
151553,1180,1180,1180,1180,0.33,642,12.17,5.89,1.36,95.99,16.69,0.76,-0.64,0.4,9.4,-41.7
151553,1180,1180,1180,1180,0.30,639,12.17,5.72,1.31,94.00,9.60,-0.04,-2.07,-1.5,12.0,-40.0
151554,1180,1180,1180,1180,0.29,638,12.16,5.62,1.77,92.15,1.81,-1.54,3.30,-0.9,-0.1,-36.9
151554,1180,1180,1180,1180,0.31,640,12.17,5.31,1.81,90.20,-7.82,2.34,9.31,0.1,-2.3,-38.5
151554,1180,1180,1180,1180,0.38,647,12.17,5.14,1.98,88.20,-1.55,6.95,6.71,-2.3,-10.6,-41.2
151554,1180,1180,1180,1180,0.30,639,12.15,5.30,1.58,86.21,-8.89,3.09,18.27,-1.2,-8.7,-38.9
151554,1180,1180,1180,1180,0.33,642,12.15,4.99,0.95,84.29,-6.79,-2.45,9.76,-0.4,-10.3,-37.4
151554,1180,1180,1180,1180,0.36,645,12.17,4.70,0.62,82.43,2.11,0.01,19.60,-1.2,-12.5,-36.5
151554,1180,1180,1180,1180,0.31,640,12.16,4.81,0.51,80.57,-1.96,-3.49,11.20,-0.2,-0.4,-36.2
151554,1180,1180,1180,1180,0.32,641,12.15,4.65,0.36,78.72,-8.02,-2.44,19.60,-0.2,-11.8,-35.2
151554,1180,1180,1180,1180,0.25,633,12.15,4.51,0.69,76.88,11.29,0.02,-5.41,-0.6,5.6,-37.5
151554,1180,1180,1180,1180,0.33,642,12.15,4.28,1.01,74.99,3.60,-5.03,9.38,1.2,-9.3,-36.4
151554,1180,1180,1180,1180,0.34,643,12.15,3.92,0.63,73.13,4.54,4.12,10.25,-0.9,-8.2,-35.0
151554,1180,1180,1180,1180,0.34,643,12.16,4.06,0.18,71.25,13.56,-4.71,2.96,2.6,10.6,-38.1
151554,1180,1180,1180,1180,0.32,641,12.16,3.81,-0.40,69.28,-3.55,-3.48,10.50,2.0,-12.5,-39.5
151554,1180,1180,1180,1180,0.36,645,12.15,3.76,-0.43,67.30,1.39,-2.16,9.00,1.8,2.3,-37.6
151554,1180,1180,1180,1180,0.33,642,12.15,3.99,-0.16,65.46,-0.88,-0.45,6.67,2.6,4.4,-36.1
151554,1180,1180,1180,1180,0.33,642,12.16,4.11,0.23,63.60,5.54,-0.34,12.19,1.5,6.0,-37.0
151554,1180,1180,1180,1180,0.36,645,12.15,4.12,-0.18,61.78,-0.76,-2.21,9.66,1.6,-0.6,-36.4
151554,1180,1180,1180,1180,0.35,644,12.14,4.38,0.47,60.01,-5.66,1.16,15.34,3.5,-1.4,-35.8
151554,1180,1180,1180,1180,0.35,644,12.16,4.63,0.63,58.25,4.61,-3.03,4.40,1.6,9.3,-35.4
151554,1180,1180,1180,1180,0.34,643,12.15,4.91,1.49,56.53,19.45,2.45,2.03,2.8,29.8,-35.8
151555,1180,1180,1180,1180,0.35,644,12.15,4.92,1.05,54.81,10.86,-0.16,5.73,3.8,10.8,-34.7
151555,1180,1180,1180,1180,0.34,643,12.15,4.73,1.13,53.08,4.76,3.33,3.53,3.5,-3.2,-33.4
151555,1180,1180,1180,1180,0.35,644,12.17,5.03,1.27,51.46,2.40,-2.03,9.89,2.9,8.6,-32.0
151555,1180,1180,1180,1180,0.36,645,12.17,5.19,1.56,49.80,8.24,-0.52,5.47,4.7,-5.7,-33.4
151555,1180,1180,1180,1180,0.39,648,12.15,4.92,1.19,48.11,8.18,4.08,5.77,1.0,18.5,-33.6
151555,1180,1180,1180,1180,0.36,645,12.16,5.01,0.81,46.45,-3.42,-5.36,5.46,1.7,5.9,-33.6
151555,1180,1180,1180,1180,0.39,648,12.15,4.72,1.05,44.79,9.05,4.70,0.21,0.4,8.7,-33.0
151555,1180,1180,1180,1180,0.37,646,12.16,4.58,1.12,43.08,-1.69,-3.32,15.47,1.0,-9.5,-34.1
151555,1180,1180,1180,1180,0.36,645,12.15,4.76,1.42,41.31,6.32,7.35,-1.95,1.4,1.3,-35.2
151555,1180,1180,1180,1180,0.37,646,12.17,4.97,1.56,39.54,16.20,-2.86,-0.80,5.4,7.2,-35.0
151555,1180,1180,1180,1180,0.35,644,12.17,4.78,0.94,37.70,-7.00,-4.57,11.88,3.5,-10.4,-37.4
151555,1180,1180,1180,1180,0.40,649,12.17,4.47,0.86,35.81,-0.79,4.28,11.73,1.6,-13.5,-38.4
151555,1180,1180,1180,1180,0.42,652,12.17,4.83,0.87,33.97,-3.18,1.77,6.24,4.3,6.8,-37.3
151555,1180,1180,1180,1180,0.35,644,12.14,5.25,0.91,32.18,-3.47,4.64,9.61,1.3,4.5,-36.6
151555,1180,1180,1180,1180,0.40,649,12.17,5.57,1.27,30.42,0.12,4.26,7.15,2.4,7.4,-34.9
151555,1180,1180,1180,1180,0.39,648,12.16,5.73,1.78,28.65,10.61,-0.42,0.43,1.5,10.6,-36.2
151555,1180,1180,1180,1180,0.39,648,12.14,5.76,1.75,26.88,14.99,-1.93,10.19,2.5,4.0,-34.4
151555,1180,1180,1180,1180,0.38,647,12.15,5.90,1.40,25.12,5.71,0.66,9.13,2.4,-1.1,-36.8
151555,1180,1180,1180,1180,0.40,649,12.16,5.90,1.54,23.33,3.61,-1.95,8.93,1.5,8.4,-37.2
151555,1180,1180,1180,1180,0.42,651,12.17,5.95,1.61,21.43,0.74,-0.75,10.66,1.2,3.7,-38.5
151556,1180,1180,1180,1180,0.37,646,12.14,5.87,2.08,19.57,5.81,10.88,0.42,0.7,-2.0,-35.7
151556,1180,1180,1180,1180,0.41,650,12.16,6.40,2.00,17.79,-1.16,5.57,2.28,2.1,-11.3,-35.8
151556,1180,1180,1180,1180,0.37,646,12.16,6.49,2.06,15.97,2.43,-1.02,-2.04,1.1,5.3,-36.3
151556,1180,1180,1180,1180,0.42,651,12.14,6.24,2.06,14.16,2.00,0.92,12.47,4.3,-8.7,-35.9
151556,1180,1180,1180,1180,0.42,651,12.15,5.90,1.89,12.30,-1.68,1.18,15.19,2.0,3.1,-37.5
151556,1180,1180,1180,1180,0.38,647,12.16,5.92,1.74,10.43,-14.25,1.31,16.91,1.0,-9.5,-36.4
151556,1180,1180,1180,1180,0.44,654,12.14,5.63,2.39,8.58,-12.01,0.52,18.26,1.4,0.2,-36.1
151556,1180,1180,1180,1180,0.35,644,12.16,5.20,2.25,6.72,-9.62,-0.31,15.89,-0.1,-7.4,-35.2
151556,1180,1180,1180,1180,0.37,646,12.17,5.39,2.91,4.95,6.27,3.19,2.14,-1.1,0.7,-37.3
151556,1180,1180,1180,1180,0.42,651,12.16,5.43,2.99,3.08,9.57,4.33,2.08,-0.5,9.3,-37.5
151556,1180,1180,1180,1180,0.38,647,12.15,5.41,2.87,1.18,-11.56,6.19,11.74,0.1,-3.4,-37.7
151556,1180,1180,1180,1180,0.42,651,12.15,4.83,2.64,-0.76,-0.91,-0.59,16.52,-1.6,-11.4,-37.2
151556,1180,1180,1180,1180,0.42,652,12.15,4.48,2.78,-2.63,3.98,-4.19,16.38,-0.6,5.7,-38.3
151556,1180,1180,1180,1180,0.42,652,12.17,3.65,2.07,-4.55,-16.15,2.78,12.66,-0.1,-3.7,-37.5
151556,1180,1180,1180,1180,0.38,647,12.13,3.42,2.54,-6.38,9.12,-1.23,3.90,2.9,-2.1,-34.7
151556,1180,1180,1180,1180,0.42,651,12.15,3.16,2.30,-8.19,4.41,-0.47,2.91,2.3,-4.4,-37.5
151556,1180,1180,1180,1180,0.40,649,12.16,3.12,2.30,-10.07,2.50,1.45,5.00,1.4,7.2,-38.3
151556,1180,1180,1180,1180,0.42,652,12.17,3.32,2.56,-11.93,1.79,-0.71,7.49,2.0,12.5,-39.1
151556,1180,1180,1180,1180,0.44,654,12.17,3.42,2.49,-13.79,0.59,-4.46,6.46,1.3,4.7,-38.0
151556,1180,1180,1180,1180,0.35,644,12.16,3.14,3.06,-15.70,12.13,0.43,3.39,1.0,2.3,-38.3
151557,1180,1180,1180,1180,0.41,650,12.14,2.97,2.69,-17.65,10.15,-5.18,3.67,1.6,11.2,-41.2
151557,1180,1180,1180,1180,0.41,650,12.17,2.57,2.12,-19.69,-4.55,-0.02,15.90,2.4,1.0,-39.8
151557,1180,1180,1180,1180,0.43,653,12.16,2.36,1.72,-21.66,-6.13,-0.49,17.57,1.5,-13.2,-39.5
151557,1180,1180,1180,1180,0.39,648,12.15,2.54,1.68,-23.61,8.97,3.69,1.37,4.8,-4.0,-37.5
151557,1180,1180,1180,1180,0.41,650,12.14,2.52,1.41,-25.43,-3.99,1.22,10.07,4.6,-2.7,-36.5
151557,1180,1180,1180,1180,0.42,651,12.15,2.85,1.17,-27.29,-11.26,4.35,19.60,4.0,-4.1,-37.2
151557,1180,1180,1180,1180,0.40,649,12.15,3.12,1.13,-29.13,-6.74,2.08,13.31,4.4,-1.6,-37.7
151557,1180,1180,1180,1180,0.42,652,12.15,3.16,1.38,-30.98,-3.90,1.51,11.27,2.0,-2.4,-36.9
151557,1180,1180,1180,1180,0.40,649,12.15,3.23,1.20,-32.87,1.88,-2.82,12.34,5.2,1.5,-38.9
151557,1180,1180,1180,1180,0.42,651,12.16,3.05,0.77,-34.83,-12.34,-1.40,19.60,5.8,-9.4,-40.2
151557,1180,1180,1180,1180,0.44,654,12.15,2.93,0.85,-36.81,6.75,-3.71,12.58,6.2,-3.6,-38.5
151557,1180,1180,1180,1180,0.38,647,12.15,2.81,0.32,-38.70,-2.88,-3.94,13.35,5.1,0.7,-37.0
151557,1180,1180,1180,1180,0.41,650,12.16,3.05,0.41,-40.54,-6.85,-0.56,14.45,2.3,-1.9,-35.1
151557,1180,1180,1180,1180,0.40,649,12.15,3.34,0.74,-42.35,-3.98,-4.15,11.12,2.4,3.3,-37.9
151557,1180,1180,1180,1180,0.31,640,12.13,3.39,0.51,-44.15,-5.95,0.44,17.61,2.4,-4.0,-35.5
151557,1180,1180,1180,1180,0.40,649,12.17,3.45,0.45,-45.92,-5.28,-0.85,15.32,2.1,4.5,-36.5
151557,1180,1180,1180,1180,0.37,646,12.14,3.72,0.62,-47.75,-0.97,-3.82,10.57,3.1,1.7,-37.4
151557,1180,1180,1180,1180,0.39,648,12.15,3.74,0.75,-49.51,-1.98,1.29,9.26,4.4,-4.3,-35.3
151557,1180,1180,1180,1180,0.41,650,12.15,3.58,0.31,-51.22,-7.31,-1.81,19.47,4.9,-1.4,-35.9
151557,1180,1180,1180,1180,0.42,651,12.15,3.66,0.30,-53.03,-6.51,2.16,13.93,6.3,-1.6,-37.9
151558,1180,1180,1180,1180,0.38,647,12.15,3.88,0.38,-54.70,-3.90,4.86,11.12,5.0,-1.6,-33.2
151558,1180,1180,1180,1180,0.41,650,12.14,4.11,0.48,-56.38,4.48,-3.97,14.33,3.1,-1.6,-36.8
151558,1180,1180,1180,1180,0.42,652,12.16,4.07,0.36,-58.21,-19.60,4.20,19.60,1.5,-10.7,-37.7
151558,1180,1180,1180,1180,0.42,652,12.16,3.94,0.73,-60.05,-1.49,4.10,8.01,1.5,1.7,-38.3
151558,1180,1180,1180,1180,0.39,648,12.15,4.11,0.76,-61.88,3.31,3.22,10.50,2.0,-6.5,-36.2
151558,1180,1180,1180,1180,0.42,652,12.16,4.41,0.47,-63.63,-2.18,-0.85,11.70,0.7,3.0,-36.1
151558,1180,1180,1180,1180,0.41,650,12.16,4.54,0.72,-65.41,-5.15,2.22,9.59,1.1,-4.9,-34.5
151558,1180,1180,1180,1180,0.37,646,12.17,4.40,0.52,-67.15,-9.13,1.71,14.10,0.4,-9.6,-34.1
151558,1180,1180,1180,1180,0.39,648,12.17,4.30,0.52,-68.85,-6.43,1.82,11.29,-1.2,-2.4,-35.6
151558,1180,1180,1180,1180,0.41,650,12.15,4.04,0.10,-70.64,-15.46,-1.35,19.60,-3.1,-5.9,-35.5
151558,1180,1180,1180,1180,0.38,647,12.15,3.99,0.05,-72.39,-10.35,3.41,4.26,0.1,-4.4,-34.6
151558,1180,1180,1180,1180,0.42,651,12.16,3.91,-0.29,-74.15,-14.03,-2.36,12.94,-0.6,0.1,-34.5
151558,1180,1180,1180,1180,0.41,650,12.15,3.66,-0.26,-75.93,6.03,-2.16,7.13,-0.3,15.6,-35.0
151558,1180,1180,1180,1180,0.42,652,12.16,3.18,-0.31,-77.54,-13.14,0.44,19.60,-2.9,-3.1,-29.7
151558,1180,1180,1180,1180,0.35,644,12.14,3.25,-0.13,-79.10,5.91,0.90,9.53,-1.2,7.1,-31.8
151558,1180,1180,1180,1180,0.37,646,12.15,2.90,0.09,-80.65,3.97,0.70,9.53,0.0,12.5,-32.2
151558,1180,1180,1180,1180,0.37,646,12.14,2.76,0.11,-82.23,1.87,4.55,4.89,2.9,-4.6,-30.8
151558,1180,1180,1180,1180,0.41,650,12.15,3.28,0.42,-83.76,1.91,-2.26,7.02,0.6,-0.9,-31.4
151558,1180,1180,1180,1180,0.37,646,12.15,3.68,1.22,-85.35,-11.15,-0.48,10.82,3.9,1.6,-30.3
151558,1180,1180,1180,1180,0.39,648,12.15,3.81,1.46,-86.86,-7.08,2.56,18.40,5.2,-8.9,-28.8
151559,1180,1180,1180,1180,0.39,648,12.14,4.15,1.85,-88.40,-7.15,2.40,16.07,4.9,-6.2,-31.6
151559,1180,1180,1180,1180,0.35,644,12.14,4.33,2.07,-90.00,-4.50,1.28,8.77,4.9,3.2,-32.8
151559,1180,1180,1180,1180,0.37,646,12.16,4.40,2.03,-91.59,-13.92,6.79,9.93,1.3,-8.4,-30.9
151559,1180,1180,1180,1180,0.33,642,12.15,4.52,2.29,-93.06,-7.38,1.09,19.03,1.5,-1.2,-29.1
151559,1180,1180,1180,1180,0.39,648,12.16,4.55,2.21,-94.49,-11.69,0.78,18.22,3.3,-11.2,-28.8
151559,1180,1180,1180,1180,0.34,643,12.16,4.79,2.21,-95.94,-3.26,3.01,3.89,2.7,4.0,-29.7
151559,1180,1180,1180,1180,0.34,643,12.15,4.97,2.48,-97.32,7.44,1.73,2.32,3.1,0.4,-28.5
151559,1180,1180,1180,1180,0.36,645,12.13,4.77,2.17,-98.68,6.82,-0.39,4.71,2.1,-0.5,-27.2
151559,1180,1180,1180,1180,0.35,644,12.15,4.52,1.84,-100.13,4.86,1.77,3.12,3.1,2.0,-30.3
151559,1180,1180,1180,1180,0.39,648,12.16,4.40,1.55,-101.60,0.24,-0.67,1.15,2.9,2.8,-29.7
151559,1180,1180,1180,1180,0.32,641,12.15,4.32,1.00,-103.00,-1.35,-1.14,16.14,3.7,-18.2,-28.3
151559,1180,1180,1180,1180,0.36,645,12.12,4.27,0.64,-104.42,-8.92,3.25,5.38,1.0,-1.3,-28.7
151559,1180,1180,1180,1180,0.39,648,12.15,4.27,0.61,-105.83,-3.31,4.35,9.31,1.1,5.0,-29.1
151559,1180,1180,1180,1180,0.36,645,12.16,4.58,0.91,-107.30,-1.51,1.14,11.13,0.4,-8.7,-28.8
151559,1180,1180,1180,1180,0.33,642,12.14,4.35,0.82,-108.76,3.08,4.22,12.50,0.9,-4.3,-28.9
151559,1180,1180,1180,1180,0.35,644,12.14,4.28,0.86,-110.28,6.57,0.32,5.79,-2.1,15.3,-31.9
151559,1180,1180,1180,1180,0.30,639,12.14,4.40,0.42,-111.78,2.92,0.09,3.98,-1.2,5.2,-31.7
151559,1180,1180,1180,1180,0.34,643,12.15,4.04,0.39,-113.27,0.44,5.87,8.32,-1.8,-2.2,-28.9
151559,1180,1180,1180,1180,0.31,640,12.15,4.03,0.64,-114.80,4.20,1.71,11.70,0.7,10.6,-30.8
151559,1180,1180,1180,1180,0.34,643,12.16,4.19,1.19,-116.37,0.47,3.94,11.54,1.3,-18.1,-30.2
151600,1180,1180,1180,1180,0.34,643,12.15,4.28,1.22,-117.88,10.23,-0.69,6.70,0.3,12.6,-30.6
151600,1180,1180,1180,1180,0.31,640,12.15,4.45,1.16,-119.41,-4.02,-1.16,11.13,1.1,-1.5,-30.3
151600,1180,1180,1180,1180,0.30,639,12.15,4.06,0.99,-121.01,15.59,-1.79,8.58,1.8,2.9,-31.2
151600,1180,1180,1180,1180,0.31,640,12.15,4.27,0.55,-122.64,12.15,-5.04,2.92,3.4,9.9,-32.8
151600,1180,1180,1180,1180,0.33,642,12.12,4.57,0.66,-124.25,10.42,2.63,8.27,1.0,13.1,-31.1
151600,1180,1180,1180,1180,0.32,641,12.16,4.76,0.90,-125.81,18.05,-2.62,4.35,2.4,3.1,-29.8
151600,1180,1180,1180,1180,0.32,641,12.13,4.61,0.50,-127.30,9.24,8.27,-4.83,1.8,3.5,-29.9
151600,1180,1180,1180,1180,0.29,638,12.15,4.86,0.47,-128.84,7.79,-1.79,6.90,2.5,3.4,-30.2
