time,pwm1,pwm2,pwm3,pwm4,depth,press,voltage,roll,pitch,yaw,a_x,a_y,a_z,w_row,w_pitch,w_yaw
201032,1100,1100,1100,1100,-0.01,611,11.70,4.38,1.86,-8.50,-0.31,0.60,8.59,0.0,0.1,-0.1
201032,1100,1100,1100,1100,-0.01,611,11.72,4.38,1.87,-8.51,-0.38,0.66,8.59,0.2,-0.1,-0.1
201032,1100,1100,1100,1100,0.02,614,11.70,4.39,1.86,-8.51,-0.33,0.62,8.59,0.3,-0.2,-0.1
201032,1100,1100,1100,1100,0.02,614,11.68,4.39,1.92,-8.52,0.04,0.90,8.33,1.0,1.4,-0.5
201032,1196,1196,1196,1196,0.04,616,11.64,4.30,1.94,-8.57,2.16,0.17,5.98,-1.5,5.4,-1.4
201032,1196,1196,1196,1196,0.01,613,11.59,3.99,1.96,-8.66,1.38,0.85,5.28,-5.2,6.0,-2.9
201032,1196,1196,1196,1196,0.05,617,11.59,4.00,2.09,-8.80,4.57,1.51,6.07,-7.8,8.1,-4.0
201032,1196,1196,1196,1196,0.07,619,11.59,4.34,1.77,-9.03,2.88,-1.09,5.72,-0.2,-40.2,-3.4
201032,1196,1196,1196,1196,0.08,621,11.56,4.14,0.85,-9.38,-0.95,-3.97,10.52,5.1,-18.7,-6.8
201032,1196,1196,1196,1196,0.06,618,11.59,3.95,-0.38,-9.81,1.70,0.72,9.52,5.4,-27.6,-5.7
201032,1196,1196,1196,1196,0.05,617,11.58,3.70,-1.57,-10.10,0.35,0.94,11.84,1.3,-26.6,-4.8
201032,1196,1196,1196,1196,0.10,623,11.58,3.48,-2.60,-10.38,4.26,0.27,8.11,3.1,-35.1,-5.5
201033,1196,1196,1196,1196,0.10,623,11.56,3.78,-3.70,-10.73,2.26,1.92,3.34,6.5,-19.9,-6.7
201033,1196,1196,1196,1196,0.12,625,11.59,4.52,-4.90,-11.18,1.78,0.81,12.24,6.1,-7.8,-7.4
201033,1196,1196,1196,1196,0.10,623,11.57,5.08,-5.72,-11.63,4.92,2.90,3.13,5.7,-6.7,-7.5
201033,1196,1196,1196,1196,0.12,625,11.58,6.13,-6.19,-12.22,5.53,6.57,-0.84,7.8,-11.0,-10.4
201033,1196,1196,1196,1196,0.14,627,11.57,6.84,-6.80,-12.89,0.98,-0.91,16.88,6.2,-33.1,-13.7
201033,1196,1196,1196,1196,0.15,628,11.56,7.14,-7.19,-13.61,-10.91,7.39,19.60,4.8,-23.7,-13.3
201033,1196,1196,1196,1196,0.14,627,11.58,7.56,-7.32,-14.43,-9.94,-2.37,16.31,3.4,-14.2,-16.3
201033,1196,1196,1196,1196,0.13,626,11.59,8.51,-7.16,-15.43,2.56,3.12,7.68,5.1,3.5,-20.2
201033,1196,1196,1196,1196,0.15,628,11.57,8.85,-7.18,-16.46,-4.73,-0.88,15.50,3.7,2.2,-21.7
201033,1196,1196,1196,1196,0.15,628,11.57,9.25,-6.87,-17.54,-5.41,0.60,11.31,5.2,-3.9,-21.0
201033,1196,1196,1196,1196,0.14,627,11.58,9.25,-6.66,-18.67,5.82,2.88,8.59,5.9,9.9,-25.5
201033,1196,1196,1196,1196,0.18,631,11.56,10.17,-6.48,-20.05,6.30,4.24,6.80,4.0,1.8,-28.3
201033,1196,1196,1196,1196,0.16,629,11.59,10.80,-6.23,-21.44,-0.09,1.20,5.91,4.3,-4.8,-27.6
201033,1196,1196,1196,1196,0.18,631,11.57,10.97,-6.41,-22.73,-15.48,3.58,19.60,4.2,-2.2,-26.2
201033,1196,1196,1196,1196,0.17,630,11.57,11.24,-5.89,-24.00,4.77,5.67,12.78,2.4,4.9,-26.7
201033,1196,1196,1196,1196,0.14,627,11.59,11.60,-5.94,-25.38,-9.14,0.11,10.44,2.0,-7.6,-28.1
201033,1196,1196,1196,1196,0.18,631,11.58,11.88,-5.64,-26.70,4.02,3.43,8.99,4.0,40.3,-25.9
201033,1196,1196,1196,1196,0.21,634,11.58,12.58,-4.92,-28.06,0.57,3.06,4.99,8.2,-4.9,-26.8
201033,1196,1196,1196,1196,0.17,630,11.58,12.98,-4.63,-29.52,-2.28,0.84,10.86,4.4,-9.9,-30.0
201033,1196,1196,1196,1196,0.20,633,11.57,13.45,-4.41,-31.03,2.26,4.68,9.97,4.0,2.2,-28.9
201034,1196,1196,1196,1196,0.21,634,11.57,13.36,-4.29,-32.47,5.48,8.51,6.94,3.4,-1.3,-29.3
201034,1196,1196,1196,1196,0.21,634,11.58,13.32,-4.42,-33.97,2.52,-1.30,14.08,-0.6,-12.4,-30.9
201034,1196,1196,1196,1196,0.18,631,11.57,13.25,-4.28,-35.55,-5.91,4.79,7.49,1.0,-6.0,-32.8
201034,1196,1196,1196,1196,0.20,633,11.58,13.52,-4.16,-37.16,-4.31,5.64,11.22,0.6,3.4,-33.9
201034,1196,1196,1196,1196,0.18,631,11.57,13.83,-3.55,-38.79,4.89,0.10,10.02,1.8,13.8,-33.1
201034,1196,1196,1196,1196,0.20,633,11.57,13.48,-3.37,-40.37,-4.35,1.65,9.11,-1.0,-4.3,-31.8
201034,1196,1196,1196,1196,0.18,631,11.56,12.85,-3.19,-41.95,-7.00,-1.89,13.26,0.0,-15.8,-33.2
201034,1196,1196,1196,1196,0.21,634,11.57,12.45,-2.94,-43.57,-9.81,1.43,13.86,-1.1,-10.7,-35.7
201034,1196,1196,1196,1196,0.17,630,11.57,12.26,-2.40,-45.30,-4.32,5.23,5.60,-0.1,-1.8,-37.1
201034,1196,1196,1196,1196,0.19,632,11.58,12.61,-2.13,-47.09,5.76,0.25,10.59,2.1,-0.9,-35.8
201034,1196,1196,1196,1196,0.20,633,11.58,12.82,-1.91,-48.84,4.18,1.53,6.29,1.9,4.2,-36.5
201034,1196,1196,1196,1196,0.25,638,11.56,12.36,-1.39,-50.65,2.51,1.04,6.30,0.2,0.1,-39.1
201034,1196,1196,1196,1196,0.16,629,11.56,12.31,-1.16,-52.53,-15.13,1.11,13.84,1.2,-21.4,-38.9
201034,1196,1196,1196,1196,0.24,637,11.58,12.33,-0.86,-54.34,-8.32,4.57,16.27,0.4,4.3,-38.3
201034,1196,1196,1196,1196,0.19,632,11.56,12.65,-0.37,-56.13,0.65,6.93,4.84,1.8,2.4,-37.0
201034,1196,1196,1196,1196,0.19,632,11.59,13.19,0.26,-57.88,6.33,2.65,11.93,0.2,-3.4,-35.7
201034,1196,1196,1196,1196,0.21,634,11.57,13.15,0.60,-59.58,-0.34,6.85,7.72,-1.2,8.1,-36.2
201034,1196,1196,1196,1196,0.23,636,11.56,13.12,1.19,-61.34,-0.94,3.57,11.30,-3.7,7.0,-35.8
201034,1196,1196,1196,1196,0.25,639,11.57,13.09,1.66,-63.02,7.57,6.84,-3.13,-5.7,5.7,-32.1
201034,1196,1196,1196,1196,0.25,638,11.57,12.42,1.96,-64.59,9.78,-0.83,1.80,-6.2,-2.4,-30.8
201035,1196,1196,1196,1196,0.25,639,11.57,12.11,2.18,-66.07,2.89,4.50,11.36,-8.8,-1.5,-28.3
201035,1196,1196,1196,1196,0.26,640,11.57,10.86,2.58,-67.57,2.39,0.71,9.25,-5.2,22.3,-28.3
201035,1196,1196,1196,1196,0.26,640,11.57,10.21,2.42,-68.94,-9.15,-5.56,9.97,-5.1,-21.3,-25.3
201035,1196,1196,1196,1196,0.22,635,11.58,9.19,2.64,-70.24,7.30,-0.07,1.13,-3.0,3.1,-24.7
201035,1196,1196,1196,1196,0.25,638,11.56,8.65,2.67,-71.47,10.28,0.45,0.60,-0.9,-20.9,-23.7
201035,1196,1196,1196,1196,0.25,639,11.56,8.45,2.29,-72.62,-1.34,1.92,5.58,-3.5,-3.7,-24.4
201035,1196,1196,1196,1196,0.22,635,11.58,8.11,2.15,-73.80,-9.68,2.16,11.56,-0.1,-11.9,-24.1
201035,1196,1196,1196,1196,0.25,638,11.58,8.65,2.01,-74.91,-11.88,-3.72,12.78,0.1,-17.5,-23.7
201035,1196,1196,1196,1196,0.26,640,11.56,8.30,1.65,-76.11,-1.57,-0.16,3.03,2.5,-23.8,-23.7
201035,1196,1196,1196,1196,0.25,639,11.56,8.37,1.20,-77.30,9.16,5.59,1.48,1.5,-21.1,-23.0
201035,1196,1196,1196,1196,0.27,641,11.55,8.48,0.70,-78.49,1.76,1.77,10.99,-1.3,-22.9,-23.6
201035,1196,1196,1196,1196,0.29,643,11.55,8.80,0.31,-79.61,-6.90,-2.15,13.95,-0.1,-8.9,-21.6
201035,1196,1196,1196,1196,0.26,640,11.56,8.36,0.31,-80.79,-12.83,1.70,16.11,-0.2,1.5,-23.7
201035,1196,1196,1196,1196,0.28,642,11.57,7.77,0.33,-82.07,5.45,2.17,5.50,-0.1,10.6,-26.6
201035,1196,1196,1196,1196,0.26,640,11.58,7.74,0.15,-83.43,0.49,-3.62,11.99,1.5,-6.4,-26.9
201035,1196,1196,1196,1196,0.27,641,11.55,7.74,0.23,-84.92,-6.89,1.05,7.63,2.3,-4.3,-30.9
201035,1196,1196,1196,1196,0.27,641,11.57,7.90,0.36,-86.43,-16.82,-1.57,19.60,-0.1,-7.2,-31.9
201035,1196,1196,1196,1196,0.26,640,11.55,7.58,0.64,-87.96,-8.45,-1.75,10.33,0.9,-1.2,-31.6
201035,1196,1196,1196,1196,0.26,640,11.57,7.18,0.91,-89.55,9.87,-1.63,-1.05,1.0,6.1,-31.9
201035,1196,1196,1196,1196,0.28,642,11.57,7.40,0.47,-91.06,-5.98,-1.54,13.80,0.8,-5.1,-30.8
201036,1196,1196,1196,1196,0.30,644,11.57,6.88,0.90,-92.63,0.97,1.95,10.19,2.3,-1.5,-31.8
201036,1196,1196,1196,1196,0.26,640,11.58,7.25,0.90,-94.19,11.46,-3.08,-1.11,0.0,0.7,-29.8
201036,1196,1196,1196,1196,0.25,639,11.56,7.38,0.72,-95.72,6.09,6.12,0.61,1.3,-1.7,-31.2
201036,1196,1196,1196,1196,0.29,643,11.56,7.29,0.62,-97.25,-4.97,-0.39,9.09,0.2,-10.2,-30.7
201036,1196,1196,1196,1196,0.27,641,11.57,7.17,0.53,-98.84,3.16,-0.56,9.29,1.5,0.7,-32.2
201036,1196,1196,1196,1196,0.32,646,11.56,7.34,0.38,-100.50,1.84,-1.81,8.60,1.7,25.0,-31.7
201036,1196,1196,1196,1196,0.26,640,11.56,7.49,0.69,-102.18,10.88,-6.49,4.98,3.2,-2.2,-34.1
201036,1196,1196,1196,1196,0.32,646,11.56,7.54,0.38,-103.91,2.37,-0.48,7.47,2.9,2.6,-35.0
201036,1196,1196,1196,1196,0.31,645,11.55,7.52,0.15,-105.70,-5.53,1.33,10.92,2.7,-29.1,-36.7
201036,1196,1196,1196,1196,0.30,644,11.55,7.75,0.13,-107.49,4.61,1.34,2.22,2.3,-12.8,-35.3
201036,1196,1196,1196,1196,0.27,641,11.57,7.92,0.07,-109.23,-7.89,-2.43,10.58,2.0,-10.8,-36.0
201036,1196,1196,1196,1196,0.33,647,11.55,7.68,0.42,-110.88,6.09,1.34,5.17,1.2,1.5,-34.0
201036,1196,1196,1196,1196,0.33,647,11.57,7.35,0.33,-112.65,1.15,3.12,15.15,2.1,0.9,-36.6
201036,1196,1196,1196,1196,0.34,648,11.56,7.54,0.27,-114.39,2.98,2.57,12.32,0.7,-6.6,-34.9
201036,1196,1196,1196,1196,0.28,642,11.56,7.46,0.19,-116.10,-11.91,-5.16,6.54,1.1,-23.8,-34.9
201036,1196,1196,1196,1196,0.31,645,11.58,7.30,0.45,-117.89,-5.78,0.97,1.56,2.1,7.0,-37.2
201036,1196,1196,1196,1196,0.35,649,11.55,7.34,0.62,-119.71,4.98,-6.46,2.13,3.6,7.6,-36.6
201036,1196,1196,1196,1196,0.34,648,11.55,6.95,0.73,-121.56,8.52,2.46,13.34,2.6,14.6,-36.7
201036,1196,1196,1196,1196,0.35,649,11.57,7.87,0.54,-123.42,-12.10,-4.01,3.57,1.8,-24.8,-37.9
201036,1196,1196,1196,1196,0.32,646,11.57,7.46,0.61,-125.38,4.25,-0.01,6.55,1.0,-2.6,-39.1
201037,1196,1196,1196,1196,0.33,647,11.57,7.46,0.52,-127.29,-1.69,-4.40,7.16,2.0,0.8,-38.3
201037,1196,1196,1196,1196,0.37,651,11.54,7.07,0.40,-129.25,2.33,0.10,4.65,0.6,9.7,-40.0
201037,1196,1196,1196,1196,0.33,647,11.56,7.41,0.49,-131.33,4.38,-0.66,10.68,2.1,-21.9,-43.0
201037,1196,1196,1196,1196,0.36,650,11.57,8.00,0.32,-133.45,-10.87,1.89,5.89,2.2,-36.8,-43.3
201037,1196,1196,1196,1196,0.39,653,11.56,7.60,0.46,-135.48,-17.73,3.72,19.60,0.9,-14.6,-41.4
201037,1196,1196,1196,1196,0.35,649,11.57,7.62,0.46,-137.43,7.89,3.54,4.84,2.0,13.4,-40.3
201037,1196,1196,1196,1196,0.35,649,11.55,8.04,0.65,-139.38,2.54,2.72,3.44,0.2,1.2,-39.2
201037,1196,1196,1196,1196,0.36,650,11.56,8.39,0.54,-141.35,-7.58,4.08,11.52,0.9,-6.3,-39.0
201037,1197,1197,1197,1197,0.34,648,11.55,7.93,0.80,-143.29,-2.52,-2.34,9.80,0.8,-10.5,-38.9
201037,1197,1197,1197,1197,0.37,651,11.56,7.60,0.82,-145.29,2.07,-1.27,3.37,-0.1,8.3,-40.1
201037,1197,1197,1197,1197,0.37,651,11.55,7.80,0.84,-147.31,10.79,8.92,6.22,-3.1,24.6,-40.5
201037,1197,1197,1197,1197,0.38,652,11.53,8.29,0.85,-149.34,2.20,5.22,7.23,-0.1,-3.7,-39.7
201037,1197,1197,1197,1197,0.34,648,11.56,8.58,0.84,-151.28,-12.81,4.79,18.82,-2.7,-6.7,-38.1
201037,1197,1197,1197,1197,0.37,651,11.53,8.49,0.96,-153.18,8.68,1.88,8.77,-1.1,4.6,-37.2
201037,1197,1197,1197,1197,0.38,652,11.56,8.11,0.72,-155.06,-6.26,1.11,19.60,-3.0,-8.1,-38.8
201037,1197,1197,1197,1197,0.37,651,11.56,7.60,1.00,-156.96,6.92,-0.21,1.81,-1.8,-9.6,-39.1
201037,1197,1197,1197,1197,0.38,652,11.56,7.15,0.86,-158.89,-0.33,3.26,4.63,-3.7,-13.1,-38.4
201037,1197,1197,1197,1197,0.36,650,11.55,7.92,0.86,-160.75,4.90,7.47,10.69,-2.8,5.9,-37.7
201037,1197,1197,1197,1197,0.41,655,11.54,8.16,0.56,-162.71,2.52,6.81,16.34,-2.4,-23.7,-41.2
201037,1197,1197,1197,1197,0.41,655,11.55,8.11,0.66,-164.64,3.97,1.78,12.33,-1.6,4.0,-37.5
201038,1197,1197,1197,1197,0.42,656,11.55,8.02,0.63,-166.57,5.26,3.84,5.03,0.6,-3.0,-39.5
201038,1197,1197,1197,1197,0.40,654,11.53,7.99,0.45,-168.48,-1.87,-4.06,9.78,1.3,-6.1,-37.0
201038,1197,1197,1197,1197,0.41,655,11.55,7.42,0.67,-170.46,-1.72,1.76,5.49,1.8,-4.3,-37.4
201038,1197,1197,1197,1197,0.37,651,11.54,7.39,0.73,-172.42,-5.77,-0.16,7.70,3.7,6.9,-38.0
201038,1197,1197,1197,1197,0.42,656,11.54,7.05,0.66,-174.36,4.00,-1.94,11.89,1.2,4.2,-38.3
201038,1197,1197,1197,1197,0.41,655,11.55,6.51,0.27,-176.31,-0.56,7.93,7.69,1.9,-7.7,-38.8
201038,1197,1197,1197,1197,0.39,653,11.55,7.21,0.35,-178.27,10.45,0.76,3.78,1.8,-1.8,-40.2
201038,1197,1197,1197,1197,0.43,658,11.54,7.03,0.04,179.77,3.02,-0.42,3.90,0.4,-3.8,-40.6
201038,1197,1197,1197,1197,0.42,656,11.54,7.39,0.09,177.76,7.28,3.46,6.74,-2.2,18.3,-41.6
201038,1197,1197,1197,1197,0.44,659,11.55,7.36,-0.08,175.73,10.24,4.34,3.04,-3.9,15.9,-40.3
201038,1197,1197,1197,1197,0.41,655,11.56,7.14,-0.35,173.79,11.23,-1.24,5.69,-2.3,12.7,-40.3
201038,1197,1197,1197,1197,0.43,658,11.54,6.58,-0.49,171.86,-2.44,-0.28,12.22,-3.8,-13.5,-37.1
201038,1197,1197,1197,1197,0.46,661,11.53,6.79,-0.48,170.00,4.86,2.70,7.51,-3.4,0.9,-37.4
201038,1197,1197,1197,1197,0.42,657,11.56,6.50,-0.63,168.18,-6.15,-1.84,13.61,-2.5,-12.9,-35.6
201038,1197,1197,1197,1197,0.44,659,11.54,5.58,-0.22,166.42,8.30,1.74,13.48,-3.4,18.4,-34.7
201038,1197,1197,1197,1197,0.42,657,11.54,5.17,-0.19,164.70,1.61,2.58,6.63,-1.3,-11.3,-34.5
201038,1197,1197,1197,1197,0.47,662,11.54,5.03,0.02,163.00,0.18,5.58,9.89,-0.5,-4.9,-34.4
201038,1197,1197,1197,1197,0.46,661,11.54,4.72,0.30,161.28,8.89,-3.46,14.42,-1.0,9.6,-35.2
201038,1197,1197,1197,1197,0.45,660,11.55,4.61,0.19,159.56,2.20,-4.99,3.07,-0.8,-5.7,-36.1
201038,1197,1197,1197,1197,0.46,661,11.55,4.93,0.30,157.83,-8.86,0.34,9.24,-0.7,-3.1,-33.8
201039,1197,1197,1197,1197,0.51,666,11.55,4.91,0.41,156.16,3.73,3.61,2.01,-1.5,14.3,-32.5
201039,1197,1197,1197,1197,0.49,664,11.55,5.12,0.42,154.71,5.19,1.08,7.39,-2.0,12.8,-28.8
201039,1197,1197,1197,1197,0.45,660,11.55,5.55,0.50,153.29,5.80,3.97,9.31,1.3,10.6,-26.1
201039,1197,1197,1197,1197,0.47,662,11.56,6.15,0.53,151.92,6.27,-1.88,10.05,0.2,-14.2,-28.7
201039,1197,1197,1197,1197,0.45,660,11.55,5.72,0.61,150.48,1.47,-1.64,-2.57,-2.2,13.9,-28.8
201039,1197,1197,1197,1197,0.51,666,11.54,4.89,0.62,149.10,-3.76,-1.45,10.04,-2.7,-12.7,-26.6
201039,1197,1197,1197,1197,0.48,663,11.55,5.05,0.40,147.82,2.74,4.23,6.00,0.0,11.2,-27.6
201039,1197,1197,1197,1197,0.50,665,11.55,5.07,0.48,146.57,0.26,4.56,12.68,2.3,10.3,-24.7
201039,1197,1197,1197,1197,0.50,665,11.55,5.42,0.79,145.41,7.91,5.72,13.79,1.2,9.0,-23.1
201039,1197,1197,1197,1197,0.53,668,11.56,5.67,0.71,144.27,1.31,-0.79,8.58,1.7,-1.6,-22.8
201039,1197,1197,1197,1197,0.49,664,11.54,5.74,0.71,143.14,4.00,6.12,5.94,1.3,21.4,-21.6
201039,1197,1197,1197,1197,0.50,665,11.54,5.45,0.86,141.98,2.05,-4.33,2.73,2.3,-0.9,-23.9
201039,1197,1197,1197,1197,0.49,664,11.54,5.11,0.66,140.82,-9.68,-2.51,8.80,1.7,-28.9,-23.0
201039,1197,1197,1197,1197,0.49,664,11.55,5.63,0.82,139.63,1.63,4.28,2.75,1.6,20.5,-22.5
201039,1197,1197,1197,1197,0.52,667,11.54,5.26,0.56,138.38,1.83,-1.43,11.14,0.2,-17.0,-24.8
201039,1197,1197,1197,1197,0.49,664,11.55,5.02,0.34,137.17,-1.00,-8.63,3.81,-1.5,1.8,-22.8
201039,1197,1197,1197,1197,0.53,668,11.54,5.18,0.06,136.07,-14.68,3.45,19.60,-2.9,-5.4,-22.2
201039,1197,1197,1197,1197,0.53,668,11.54,4.73,-0.08,134.91,0.47,4.64,9.18,-3.5,4.0,-24.4
201039,1197,1197,1197,1197,0.56,671,11.56,4.57,0.14,133.74,1.45,-1.84,10.32,-3.5,3.1,-23.9
201039,1197,1197,1197,1197,0.52,667,11.55,4.05,0.29,132.60,0.37,-2.23,11.50,-3.5,13.5,-23.9
201040,1197,1197,1197,1197,0.57,672,11.55,4.15,0.00,131.49,4.98,-0.67,6.83,-1.3,8.0,-21.6
201040,1197,1197,1197,1197,0.50,665,11.55,4.17,-0.44,130.38,-1.96,-4.66,-2.57,-0.4,-22.3,-20.8
201040,1197,1197,1197,1197,0.52,667,11.54,3.85,-0.54,129.40,3.99,4.97,0.70,0.0,-9.0,-19.4
201040,1197,1197,1197,1197,0.54,669,11.53,3.42,-0.91,128.44,-5.23,2.15,18.10,0.5,-18.6,-18.1
201040,1197,1197,1197,1197,0.52,667,11.53,3.35,-1.17,127.50,-0.64,0.26,10.11,3.7,14.4,-16.8
201040,1197,1197,1197,1197,0.54,669,11.54,3.40,-1.48,126.53,5.72,0.77,5.66,3.1,11.0,-20.2
201040,1197,1197,1197,1197,0.58,673,11.54,3.26,-1.78,125.42,0.09,-3.61,12.28,1.1,3.9,-22.6
201040,1197,1197,1197,1197,0.56,671,11.55,2.99,-1.89,124.30,1.23,4.55,-0.43,3.5,-13.5,-20.4
201040,1197,1197,1197,1197,0.50,665,11.54,3.96,-2.03,123.17,2.40,0.61,10.13,8.6,1.2,-22.2
201040,1197,1197,1197,1197,0.55,670,11.55,4.79,-2.55,122.11,-15.42,-1.13,10.28,6.5,-33.4,-20.6
201040,1197,1197,1197,1197,0.53,668,11.55,4.88,-2.56,121.17,-17.62,-0.02,10.69,5.5,-2.6,-19.8
201040,1197,1197,1197,1197,0.57,672,11.55,5.26,-2.77,120.15,3.93,4.00,9.04,5.0,-4.9,-21.2
201040,1197,1197,1197,1197,0.58,673,11.54,5.59,-2.76,119.15,-0.11,1.05,11.15,3.8,-13.9,-20.2
201040,1197,1197,1197,1197,0.53,668,11.54,5.47,-3.06,118.18,-5.55,-8.69,7.42,2.4,-36.6,-21.2
201040,1197,1197,1197,1197,0.51,666,11.54,4.90,-2.84,117.26,-0.23,-3.83,13.96,2.0,12.1,-18.2
201040,1197,1197,1197,1197,0.53,668,11.55,4.80,-2.48,116.41,7.76,-0.02,0.31,2.6,7.4,-15.2
201040,1197,1197,1197,1197,0.52,667,11.54,4.72,-2.99,115.58,3.79,-0.21,7.80,4.7,-5.4,-19.4
201040,1197,1197,1197,1197,0.55,670,11.55,4.69,-3.29,114.69,0.00,1.17,13.68,4.2,-11.0,-17.1
201040,1197,1197,1197,1197,0.55,670,11.54,4.63,-3.37,113.87,3.29,1.87,9.59,2.5,8.7,-17.8
201040,1197,1197,1197,1197,0.52,667,11.52,4.71,-3.25,112.90,2.83,-1.45,-1.46,2.0,-14.3,-18.8
201041,1197,1197,1197,1197,0.53,668,11.54,4.97,-3.28,112.01,4.36,-0.47,4.57,4.6,2.1,-16.3
201041,1197,1197,1197,1197,0.53,668,11.53,5.09,-3.54,111.13,4.37,-2.45,4.33,4.7,-12.4,-17.2
201041,1197,1197,1197,1197,0.54,669,11.54,5.09,-3.74,110.25,-16.14,5.20,18.95,1.6,4.5,-17.1
201041,1197,1197,1197,1197,0.56,671,11.53,5.51,-3.46,109.35,9.63,-4.27,6.21,3.4,23.4,-16.5
201041,1197,1197,1197,1197,0.57,672,11.55,5.51,-3.43,108.57,5.58,-4.25,3.58,-0.2,-21.0,-15.1
201041,1197,1197,1197,1197,0.56,671,11.54,5.34,-3.83,107.83,-0.48,-0.22,13.27,1.8,-2.4,-15.9
201041,1197,1197,1197,1197,0.54,669,11.54,5.58,-3.60,107.04,1.82,-0.51,13.83,-0.2,0.8,-16.4
201041,1197,1197,1197,1197,0.52,667,11.53,5.46,-3.36,106.29,-4.70,0.38,3.81,-0.3,-3.1,-16.2
201041,1197,1197,1197,1197,0.57,672,11.55,5.40,-3.56,105.51,7.86,4.24,4.89,-3.6,19.3,-16.3
201041,1197,1197,1197,1197,0.52,667,11.53,4.92,-3.17,104.72,4.39,-2.98,6.38,-1.1,5.6,-16.4
201041,1197,1197,1197,1197,0.56,671,11.55,4.65,-3.11,103.94,6.28,-5.35,6.96,-3.8,4.4,-15.5
201041,1197,1197,1197,1197,0.54,669,11.54,3.31,-3.17,103.19,9.07,1.27,4.09,1.8,6.3,-18.1
201041,1197,1197,1197,1197,0.53,668,11.55,3.57,-3.11,102.26,0.19,4.44,10.69,-0.1,-0.2,-17.6
201041,1197,1197,1197,1197,0.51,666,11.56,4.30,-2.91,101.33,3.06,-0.78,8.32,1.3,4.5,-17.7
201041,1197,1197,1197,1197,0.52,667,11.54,4.26,-2.87,100.50,6.87,0.31,5.29,0.9,3.7,-16.2
201041,1197,1197,1197,1197,0.55,670,11.54,3.94,-2.94,99.62,6.23,0.08,9.18,0.7,-6.1,-19.0
201041,1197,1197,1197,1197,0.54,669,11.54,5.05,-3.17,98.54,-2.59,4.30,10.90,1.9,4.9,-20.4
201041,1197,1197,1197,1197,0.56,671,11.54,5.83,-3.28,97.48,5.75,1.54,10.44,0.7,-1.5,-21.7
201041,1197,1197,1197,1197,0.53,668,11.54,5.39,-3.56,96.47,1.17,-2.13,15.73,2.1,-3.4,-20.4
201041,1197,1197,1197,1197,0.56,671,11.54,6.08,-3.60,95.42,5.40,8.62,9.81,1.1,3.4,-21.7
201042,1197,1197,1197,1197,0.55,670,11.54,6.38,-3.77,94.35,-3.82,-1.62,11.93,2.3,1.5,-20.3
201042,1197,1197,1197,1197,0.55,670,11.54,6.31,-3.78,93.31,2.45,-4.23,8.49,2.2,6.5,-20.8
201042,1197,1197,1197,1197,0.59,675,11.54,6.56,-3.85,92.23,6.06,0.56,4.85,0.1,6.7,-22.1
201042,1197,1197,1197,1197,0.58,674,11.54,6.69,-4.13,91.17,-8.92,1.86,15.56,-1.6,-13.9,-21.7
201042,1197,1197,1197,1197,0.56,671,11.54,6.93,-3.41,90.14,7.73,7.57,6.97,-2.1,21.7,-20.4
201042,1197,1197,1197,1197,0.53,668,11.55,7.14,-2.82,89.10,7.39,-5.96,-8.09,-0.9,-13.9,-21.3
201042,1197,1197,1197,1197,0.59,675,11.54,7.12,-2.61,88.03,8.67,2.72,2.61,-0.6,17.3,-23.2
201042,1197,1197,1197,1197,0.55,670,11.54,7.21,-2.55,86.92,-5.37,-0.97,14.00,-0.9,-3.5,-23.6
201042,1198,1198,1198,1198,0.54,669,11.52,7.28,-2.35,85.83,7.60,-1.17,2.19,-0.9,20.3,-22.8
201042,1198,1198,1198,1198,0.54,669,11.54,6.99,-2.28,84.64,2.96,0.37,11.81,-1.0,-4.7,-23.9
201042,1198,1198,1198,1198,0.54,669,11.54,7.12,-2.08,83.36,4.57,0.34,10.08,-2.4,0.0,-25.1
201042,1198,1198,1198,1198,0.58,673,11.54,7.07,-2.16,82.05,-2.14,3.47,8.13,-2.8,3.5,-25.9
201042,1198,1198,1198,1198,0.57,672,11.55,7.74,-1.73,80.64,-3.36,1.32,9.91,-1.5,-8.0,-29.2
201042,1198,1198,1198,1198,0.57,672,11.53,7.75,-1.20,79.17,-8.83,-3.33,16.58,-1.5,-0.7,-29.2
201042,1198,1198,1198,1198,0.51,666,11.53,7.39,-0.63,77.76,9.46,-2.36,9.59,-1.2,23.2,-30.5
201042,1198,1198,1198,1198,0.58,674,11.53,6.69,-0.50,76.26,0.92,-3.43,7.73,-3.6,9.2,-34.3
201042,1198,1198,1198,1198,0.57,672,11.52,6.91,-0.41,74.64,-0.72,1.43,13.90,-2.0,13.1,-34.1
201042,1198,1198,1198,1198,0.57,672,11.53,6.62,-0.31,72.99,-7.02,-5.10,15.36,-2.6,-22.1,-34.0
201042,1198,1198,1198,1198,0.60,676,11.52,6.43,0.02,71.41,8.88,6.10,10.92,-0.3,16.7,-33.1
201042,1198,1198,1198,1198,0.60,676,11.53,6.58,-0.03,69.79,9.53,3.72,9.85,-2.9,2.8,-33.1
201043,1198,1198,1198,1198,0.54,669,11.53,7.13,-0.00,68.19,1.77,-5.73,8.07,-0.7,-6.2,-31.4
201043,1198,1198,1198,1198,0.57,672,11.52,6.67,0.03,66.61,-8.60,-0.03,12.20,-4.4,-21.9,-31.4
201043,1198,1198,1198,1198,0.61,677,11.54,6.59,0.48,65.08,7.48,3.48,3.96,-1.3,-1.3,-28.9
201043,1198,1198,1198,1198,0.58,674,11.53,6.59,0.45,63.56,-9.69,8.87,17.63,-0.6,-7.1,-29.8
201043,1198,1198,1198,1198,0.65,681,11.54,6.79,0.84,62.02,5.35,-9.33,6.22,-1.7,3.8,-30.0
201043,1198,1198,1198,1198,0.63,679,11.53,6.24,0.88,60.52,-1.56,-1.08,6.47,0.2,-3.7,-29.4
201043,1198,1198,1198,1198,0.59,675,11.53,5.70,0.85,58.93,8.01,1.60,8.85,-0.8,24.7,-33.8
201043,1198,1198,1198,1198,0.58,673,11.54,5.91,0.66,57.29,4.07,1.14,3.87,3.3,-4.6,-34.1
201043,1198,1198,1198,1198,0.58,674,11.53,6.44,0.70,55.60,-5.37,-6.30,10.37,4.9,-6.7,-35.9
201043,1198,1198,1198,1198,0.60,676,11.53,6.40,0.67,53.86,-0.22,-1.18,9.14,5.2,3.9,-36.5
201043,1198,1198,1198,1198,0.61,677,11.55,6.66,0.68,52.13,4.72,2.12,7.41,5.8,8.3,-34.8
201043,1198,1198,1198,1198,0.62,678,11.54,6.84,0.64,50.41,1.99,-6.22,12.79,3.6,-7.0,-33.0
201043,1198,1198,1198,1198,0.61,677,11.53,6.40,0.47,48.73,2.43,2.92,7.51,3.1,-1.3,-32.7
201043,1198,1198,1198,1198,0.59,675,11.53,6.15,0.73,47.03,4.82,3.08,7.73,2.6,10.5,-34.6
201043,1198,1198,1198,1198,0.64,680,11.52,6.23,0.64,45.24,10.18,-0.80,10.91,-0.3,-0.9,-34.4
201043,1198,1198,1198,1198,0.61,677,11.52,6.48,0.48,43.50,-2.12,7.58,8.31,-0.7,2.2,-33.7
201043,1198,1198,1198,1198,0.63,679,11.52,6.57,0.47,41.82,-0.09,-2.57,17.78,-4.0,9.6,-32.7
201043,1198,1198,1198,1198,0.61,677,11.53,6.33,0.34,40.20,-4.26,8.17,10.78,-2.9,-0.5,-31.7
201043,1198,1198,1198,1198,0.59,675,11.53,6.19,0.21,38.56,-2.44,-2.37,8.26,-1.2,1.3,-33.4
201043,1198,1198,1198,1198,0.59,675,11.53,5.74,-0.17,36.89,-9.91,-6.55,14.22,-1.8,-11.3,-33.1
201044,1198,1198,1198,1198,0.62,678,11.54,4.74,-0.27,35.20,8.70,0.44,10.78,-2.0,23.3,-34.5
201044,1198,1198,1198,1198,0.60,676,11.54,5.15,-0.41,33.57,0.57,-5.30,-2.06,-0.6,-22.2,-31.7
201044,1198,1198,1198,1198,0.58,674,11.53,5.13,-0.15,31.97,-4.31,-1.60,7.52,-1.2,-4.5,-31.7
201044,1198,1198,1198,1198,0.60,676,11.54,4.58,-0.21,30.42,-1.04,1.15,5.48,1.6,3.7,-31.0
201044,1198,1198,1198,1198,0.59,675,11.54,4.19,-0.40,28.91,-0.92,-0.46,7.82,2.1,-8.3,-29.4
201044,1198,1198,1198,1198,0.64,680,11.53,3.51,-0.54,27.38,-4.71,0.37,13.51,1.2,-22.3,-31.0
201044,1198,1198,1198,1198,0.60,676,11.52,3.51,-0.14,25.89,3.04,-5.67,7.53,0.2,6.2,-28.4
201044,1198,1198,1198,1198,0.62,678,11.53,3.27,-0.16,24.38,4.51,7.57,-3.28,3.6,29.3,-30.5
201044,1198,1198,1198,1198,0.58,674,11.53,4.05,-0.02,22.90,4.94,0.30,11.25,2.9,3.4,-29.7
201044,1198,1198,1198,1198,0.60,676,11.54,4.03,-0.12,21.43,1.83,1.39,5.09,2.7,3.1,-28.6
201044,1198,1198,1198,1198,0.59,675,11.54,4.06,-0.22,20.00,8.11,-1.22,5.23,0.5,11.0,-29.1
201044,1198,1198,1198,1198,0.64,680,11.52,4.06,-0.30,18.57,10.20,4.30,12.07,1.3,-7.8,-29.1
201044,1198,1198,1198,1198,0.61,677,11.53,4.61,-0.67,17.03,-5.70,-4.17,14.96,0.5,-12.8,-30.0
201044,1198,1198,1198,1198,0.58,674,11.53,4.45,-0.57,15.59,-3.50,5.24,15.83,0.5,15.4,-31.1
201044,1198,1198,1198,1198,0.62,678,11.53,4.38,-0.39,13.97,-2.32,0.62,19.60,1.5,10.6,-32.0
201044,1198,1198,1198,1198,0.63,679,11.53,4.78,-0.44,12.32,0.29,2.61,14.53,1.6,-2.4,-32.2
201044,1198,1198,1198,1198,0.58,674,11.55,5.32,-0.67,10.69,5.25,-1.56,3.56,1.8,2.3,-32.3
201044,1198,1198,1198,1198,0.59,675,11.54,5.68,-0.65,9.08,-8.66,-1.23,6.26,2.4,-4.8,-31.7
201044,1198,1198,1198,1198,0.60,676,11.53,5.74,-0.62,7.59,8.04,-3.97,8.73,0.8,8.5,-29.7
201044,1198,1198,1198,1198,0.59,675,11.53,5.02,-0.71,6.16,12.31,-2.25,6.10,0.1,-2.6,-29.2
201045,1198,1198,1198,1198,0.58,674,11.52,4.86,-0.80,4.73,-1.22,-1.49,13.69,1.8,-3.5,-29.8
201045,1198,1198,1198,1198,0.59,675,11.53,5.16,-0.85,3.34,13.18,-0.70,3.49,3.2,-18.6,-26.7
201045,1198,1198,1198,1198,0.59,675,11.52,5.64,-1.36,2.11,-0.70,2.48,13.86,6.0,-7.1,-24.7
201045,1198,1198,1198,1198,0.59,675,11.54,6.28,-1.60,0.87,0.86,-2.28,7.00,2.3,-5.8,-24.4
201045,1198,1198,1198,1198,0.60,676,11.53,6.40,-1.93,-0.28,-4.15,-0.03,10.96,1.8,-11.2,-22.0
201045,1198,1198,1198,1198,0.60,676,11.53,7.02,-2.07,-1.35,0.45,-0.70,9.73,1.5,10.9,-19.3
201045,1198,1198,1198,1198,0.63,679,11.52,7.33,-2.12,-2.42,8.96,2.29,10.27,2.2,13.0,-21.4
201045,1198,1198,1198,1198,0.62,678,11.53,7.88,-2.20,-3.59,11.32,-0.10,2.16,2.9,12.9,-21.9
201045,1198,1198,1198,1198,0.57,672,11.52,8.06,-2.88,-4.73,-17.51,-7.24,11.87,1.7,-12.7,-22.6
201045,1198,1198,1198,1198,0.58,674,11.54,8.30,-2.63,-5.86,-2.11,3.42,2.49,1.8,-22.8,-21.7
201045,1198,1198,1198,1198,0.56,671,11.53,8.39,-2.37,-6.98,7.79,3.47,6.16,2.5,8.0,-21.7
201045,1198,1198,1198,1198,0.61,677,11.52,8.17,-2.32,-8.09,10.96,-1.16,0.00,2.4,3.1,-23.4
201045,1198,1198,1198,1198,0.59,675,11.53,8.16,-2.05,-9.26,4.26,10.65,6.37,2.2,-7.4,-25.9
201045,1198,1198,1198,1198,0.59,675,11.52,8.42,-2.24,-10.47,4.10,-1.67,4.74,2.2,6.7,-25.0
201045,1198,1198,1198,1198,0.58,674,11.52,8.13,-2.40,-11.58,-5.97,5.07,9.38,3.5,-0.7,-24.5
201045,1198,1198,1198,1198,0.58,673,11.52,8.72,-1.97,-12.66,5.62,6.25,9.71,4.8,11.0,-22.6
201045,1198,1198,1198,1198,0.58,674,11.53,9.23,-1.63,-13.72,1.80,0.49,10.28,2.5,12.8,-22.7
201045,1198,1198,1198,1198,0.55,670,11.54,9.53,-1.45,-14.73,-1.83,-3.23,14.00,2.8,12.2,-20.6
201045,1198,1198,1198,1198,0.61,677,11.53,9.03,-1.30,-15.67,7.84,0.89,8.52,0.1,17.2,-18.9
201045,1198,1198,1198,1198,0.58,674,11.54,8.62,-1.21,-16.63,2.26,-3.40,7.43,-5.1,-5.7,-17.3
201046,1198,1198,1198,1198,0.60,676,11.53,8.16,-1.13,-17.43,-4.56,8.21,16.71,-3.7,2.8,-15.6
201046,1198,1198,1198,1198,0.55,670,11.53,7.89,-0.78,-18.24,-1.72,3.79,9.45,-6.3,5.6,-17.0
201046,1198,1198,1198,1198,0.58,674,11.53,8.66,-0.31,-19.05,-15.21,9.57,19.60,-4.1,-10.9,-18.0
201046,1198,1198,1198,1198,0.57,672,11.53,8.15,0.17,-19.96,6.40,-4.18,3.65,-3.5,17.9,-21.6
201046,1198,1198,1198,1198,0.54,669,11.53,7.69,0.23,-20.95,-5.20,-4.17,13.75,0.3,4.5,-21.9
201046,1198,1198,1198,1198,0.55,670,11.52,7.37,0.56,-21.97,-4.95,3.02,7.97,1.8,2.8,-24.2
201046,1198,1198,1198,1198,0.54,669,11.53,7.02,0.79,-23.10,-6.44,3.51,10.36,1.5,8.2,-25.0
201046,1198,1198,1198,1198,0.61,677,11.52,6.91,1.24,-24.23,1.46,2.16,8.64,2.2,9.7,-22.8
201046,1198,1198,1198,1198,0.55,670,11.52,6.72,1.56,-25.38,-6.39,3.24,15.36,0.1,-1.3,-22.9
201046,1198,1198,1198,1198,0.55,670,11.53,7.39,1.86,-26.46,-10.29,-5.51,11.02,2.7,-4.2,-21.7
201046,1198,1198,1198,1198,0.55,670,11.52,7.23,2.16,-27.63,4.59,2.40,7.94,2.5,20.1,-21.9
201046,1198,1198,1198,1198,0.55,670,11.53,7.11,2.26,-28.71,3.34,4.80,-3.02,3.5,12.1,-20.9
201046,1198,1198,1198,1198,0.56,671,11.53,7.44,2.01,-29.72,0.89,-3.36,12.81,1.9,2.9,-19.7
201046,1198,1198,1198,1198,0.53,668,11.51,7.42,1.90,-30.83,4.72,-1.27,8.74,0.9,17.5,-22.5
201046,1198,1198,1198,1198,0.56,671,11.52,7.42,1.82,-31.89,2.56,4.61,4.20,2.1,-3.5,-21.9
201046,1198,1198,1198,1198,0.55,670,11.52,7.73,1.56,-32.99,3.76,9.94,7.67,3.9,9.9,-22.6
201046,1198,1198,1198,1198,0.55,670,11.52,8.13,1.46,-34.05,-5.03,1.67,9.32,1.6,-8.1,-21.5
201046,1198,1198,1198,1198,0.56,671,11.53,8.15,1.74,-35.08,11.96,-2.37,0.31,5.1,-4.6,-20.6
201046,1198,1198,1198,1198,0.54,669,11.54,8.05,1.39,-36.15,-11.17,-1.05,11.24,3.6,-15.9,-21.7
201046,1198,1198,1198,1198,0.56,671,11.48,7.76,1.79,-37.19,3.99,-1.53,1.69,4.2,7.6,-21.4
201047,1198,1198,1198,1198,0.55,670,11.57,7.24,1.69,-38.31,2.11,1.42,12.47,5.1,-0.3,-21.4
201047,1198,1198,1198,1198,0.52,667,11.55,7.32,1.67,-39.32,-2.94,-0.27,13.37,5.7,-1.5,-22.3
201047,1198,1198,1198,1198,0.51,666,11.54,7.42,1.90,-40.42,-0.59,-2.37,5.90,5.9,8.5,-22.1
201047,1198,1198,1198,1198,0.54,669,11.55,7.47,2.21,-41.48,5.82,-0.17,7.67,4.2,5.6,-22.1
