time,pwm1,pwm2,pwm3,pwm4,depth,press,voltage,roll,pitch,yaw,a_x,a_y,a_z,w_row,w_pitch,w_yaw
202252,1100,1100,1100,1100,0.02,613,11.64,4.48,1.99,-68.50,-0.34,0.64,8.71,-0.2,-0.4,-0.2
202252,1100,1100,1100,1100,0.03,614,11.64,4.47,1.98,-68.50,-0.39,0.67,8.64,-0.4,-0.4,-0.1
202252,1100,1100,1100,1100,0.00,611,11.62,4.44,1.93,-68.52,0.20,0.50,8.33,-0.9,-1.8,-0.8
202252,1196,1196,1196,1196,0.05,616,11.60,4.48,1.70,-68.63,1.47,1.62,5.60,-3.1,-4.4,-3.2
202252,1196,1196,1196,1196,0.00,611,11.56,4.34,1.25,-68.90,4.35,-3.09,7.64,-7.3,-0.9,-7.0
202252,1196,1196,1196,1196,0.05,616,11.53,3.58,1.17,-69.39,-1.14,0.16,5.35,-16.3,-10.0,-11.7
202252,1196,1196,1196,1196,0.01,612,11.52,2.58,1.19,-70.01,1.00,-1.42,-4.14,-16.4,5.0,-12.4
202252,1196,1196,1196,1196,0.06,617,11.51,2.51,0.46,-70.60,-4.56,1.67,13.59,-2.1,-13.0,-11.9
202252,1196,1196,1196,1196,0.08,619,11.54,2.33,-0.32,-71.13,6.80,-1.65,5.79,2.8,-19.5,-8.2
202252,1196,1196,1196,1196,0.09,621,11.51,2.69,-1.35,-71.60,1.07,-0.10,7.83,6.7,-17.2,-6.9
202252,1196,1196,1196,1196,0.07,618,11.52,2.63,-2.44,-72.04,-7.54,4.13,13.49,5.7,-20.1,-7.5
202252,1196,1196,1196,1196,0.08,619,11.51,3.10,-3.13,-72.45,2.78,-0.07,-0.80,7.5,-22.6,-6.7
202252,1196,1196,1196,1196,0.09,621,11.52,3.53,-3.93,-72.80,-8.83,-4.13,14.51,9.2,-22.7,-4.8
202252,1196,1196,1196,1196,0.11,623,11.51,4.36,-4.36,-73.18,8.42,-0.08,4.89,9.5,2.6,-5.4
202252,1196,1196,1196,1196,0.12,624,11.51,5.39,-5.07,-73.56,4.75,-3.06,11.30,10.5,-12.3,-7.1
202252,1196,1196,1196,1196,0.09,621,11.52,5.78,-5.55,-74.06,-1.13,-5.56,10.75,8.3,-9.2,-10.6
202252,1196,1196,1196,1196,0.14,626,11.51,5.39,-5.89,-74.49,2.29,-3.60,2.09,7.0,-17.5,-9.4
202252,1196,1196,1196,1196,0.15,627,11.51,5.73,-6.38,-75.05,1.97,-2.88,10.54,4.5,-13.0,-12.4
202252,1196,1196,1196,1196,0.13,625,11.52,5.58,-6.86,-75.66,-0.44,6.50,14.49,2.6,-13.5,-13.0
202253,1196,1196,1196,1196,0.16,628,11.52,5.95,-7.50,-76.38,-6.73,5.13,19.50,3.8,-34.2,-14.4
202253,1196,1196,1196,1196,0.14,626,11.51,5.91,-7.57,-77.15,12.33,-3.14,2.84,3.1,19.9,-15.9
202253,1196,1196,1196,1196,0.14,626,11.51,6.38,-7.35,-77.98,8.32,0.64,3.52,3.0,-12.9,-16.0
202253,1196,1196,1196,1196,0.17,629,11.51,6.56,-7.64,-78.84,-6.25,-2.00,14.20,1.3,-0.4,-17.1
202253,1196,1196,1196,1196,0.16,628,11.50,6.14,-7.32,-79.68,8.35,-0.22,1.63,1.3,15.7,-19.7
202253,1196,1196,1196,1196,0.18,630,11.51,6.84,-6.94,-80.75,3.49,8.92,6.28,-0.7,-1.8,-20.9
202253,1196,1196,1196,1196,0.20,632,11.53,7.98,-6.70,-81.87,-5.02,-1.50,10.65,0.4,-6.8,-19.8
202253,1196,1196,1196,1196,0.22,634,11.50,7.84,-6.43,-82.79,8.18,1.59,9.81,-0.1,-12.5,-20.9
202253,1196,1196,1196,1196,0.18,630,11.53,8.53,-6.09,-83.82,8.52,-3.22,5.22,1.0,21.4,-20.2
202253,1196,1196,1196,1196,0.21,633,11.50,7.95,-5.69,-84.76,2.81,-2.49,4.24,2.2,11.0,-19.2
202253,1196,1196,1196,1196,0.19,631,11.52,8.32,-5.39,-85.76,-6.91,1.37,17.77,3.5,-9.5,-21.4
202253,1196,1196,1196,1196,0.18,630,11.51,8.80,-5.13,-86.88,-0.40,1.41,-2.25,4.5,-25.5,-22.6
202253,1196,1196,1196,1196,0.20,632,11.52,9.60,-4.89,-88.03,-3.69,3.47,9.32,4.6,-0.6,-22.7
202253,1196,1196,1196,1196,0.19,631,11.51,10.23,-4.42,-89.21,3.89,0.33,1.82,3.5,43.0,-24.0
202253,1196,1196,1196,1196,0.22,634,11.51,10.31,-4.24,-90.46,0.26,0.83,12.59,3.4,14.1,-26.7
202253,1196,1196,1196,1196,0.19,631,11.51,10.55,-3.80,-91.80,3.84,5.77,4.41,3.1,1.0,-26.4
202253,1196,1196,1196,1196,0.22,634,11.52,11.42,-3.39,-93.22,11.95,7.16,8.19,1.5,13.4,-28.2
202253,1196,1196,1196,1196,0.20,632,11.51,11.63,-3.46,-94.64,-3.83,-1.85,14.81,1.4,-4.2,-30.2
202253,1196,1196,1196,1196,0.20,632,11.50,11.60,-3.28,-96.03,5.25,3.20,5.98,2.7,5.3,-27.8
202253,1196,1196,1196,1196,0.20,632,11.52,12.03,-3.48,-97.44,-7.88,0.41,19.60,3.1,1.0,-29.6
202254,1196,1196,1196,1196,0.21,633,11.50,12.62,-3.22,-98.86,1.37,8.60,6.97,2.9,5.7,-28.8
202254,1196,1196,1196,1196,0.23,635,11.52,13.17,-2.98,-100.28,4.45,0.69,6.47,5.7,10.4,-29.0
202254,1196,1196,1196,1196,0.24,636,11.50,12.82,-2.53,-101.68,7.85,-1.47,4.57,2.3,21.2,-30.1
202254,1196,1196,1196,1196,0.21,633,11.52,13.40,-2.14,-103.15,2.94,5.84,4.79,0.7,0.7,-31.2
202254,1196,1196,1196,1196,0.19,631,11.52,13.37,-2.03,-104.71,-5.25,1.78,7.20,-1.3,-1.6,-31.2
202254,1196,1196,1196,1196,0.23,635,11.53,13.78,-1.89,-106.19,-4.52,-0.52,15.90,-2.4,-4.6,-30.0
202254,1196,1196,1196,1196,0.22,634,11.51,13.11,-1.59,-107.71,-3.66,3.73,12.46,-1.6,20.9,-31.6
202254,1196,1196,1196,1196,0.25,637,11.53,13.15,-1.36,-109.36,9.38,4.77,4.26,0.9,4.0,-33.9
202254,1196,1196,1196,1196,0.22,634,11.50,13.65,-1.16,-111.08,4.78,2.47,7.62,2.9,-11.7,-33.3
202254,1196,1196,1196,1196,0.22,634,11.50,13.79,-1.16,-112.72,2.28,5.31,7.81,3.4,-4.0,-33.4
202254,1196,1196,1196,1196,0.21,633,11.52,13.39,-0.90,-114.43,3.45,2.45,9.16,0.8,-1.2,-35.3
202254,1196,1196,1196,1196,0.25,637,11.52,13.27,-0.80,-116.13,4.85,-2.32,6.18,-2.0,0.1,-35.0
202254,1196,1196,1196,1196,0.22,634,11.51,12.70,-0.35,-117.87,6.50,-1.64,4.99,2.3,-4.8,-36.1
202254,1196,1196,1196,1196,0.26,639,11.51,12.42,0.14,-119.63,1.68,7.11,8.76,-1.3,-8.9,-35.5
202254,1196,1196,1196,1196,0.25,638,11.51,12.43,0.33,-121.39,-6.83,-2.77,19.19,0.2,-12.3,-37.6
202254,1196,1196,1196,1196,0.25,637,11.51,11.79,0.44,-123.17,5.50,-2.63,8.86,1.6,11.5,-35.6
202254,1196,1196,1196,1196,0.27,640,11.51,11.52,0.60,-124.91,11.19,0.03,1.21,-1.2,18.0,-35.3
202254,1196,1196,1196,1196,0.25,638,11.51,10.73,0.89,-126.70,1.01,-2.28,6.76,-2.1,1.3,-36.6
202254,1196,1196,1196,1196,0.27,640,11.52,10.38,1.13,-128.46,1.51,2.11,8.66,-2.3,0.7,-35.4
202254,1196,1196,1196,1196,0.27,640,11.50,9.97,1.26,-130.12,-7.93,-2.67,10.81,-1.3,-23.8,-33.2
202255,1196,1196,1196,1196,0.28,641,11.51,9.78,1.56,-131.76,-14.09,-1.81,18.53,-2.9,-0.1,-32.9
202255,1196,1196,1196,1196,0.25,638,11.50,9.46,2.02,-133.35,3.33,6.71,3.73,-5.2,10.6,-32.5
202255,1196,1196,1196,1196,0.26,639,11.51,9.75,2.24,-134.93,5.18,6.31,2.80,-3.1,-5.7,-31.7
202255,1196,1196,1196,1196,0.25,638,11.51,9.53,2.37,-136.49,4.15,-3.86,5.91,-4.3,-31.1,-32.2
202255,1196,1196,1196,1196,0.25,638,11.51,9.16,2.43,-138.04,-9.14,2.19,1.02,-5.0,-18.1,-31.2
202255,1196,1196,1196,1196,0.25,637,11.51,9.10,2.57,-139.46,2.45,2.02,4.55,-3.6,8.4,-30.0
202255,1196,1196,1196,1196,0.28,641,11.49,8.69,2.59,-140.87,-0.57,6.39,13.30,-3.4,7.3,-27.2
202255,1196,1196,1196,1196,0.29,642,11.50,8.36,2.67,-142.20,3.86,0.98,9.22,-1.9,13.9,-26.4
202255,1196,1196,1196,1196,0.30,643,11.50,8.21,2.61,-143.60,-15.32,4.81,19.60,-0.8,-8.4,-28.9
202255,1196,1196,1196,1196,0.28,641,11.50,8.44,2.98,-145.10,4.37,7.74,6.32,-2.6,22.3,-30.5
202255,1196,1196,1196,1196,0.31,644,11.49,8.52,3.07,-146.60,-0.34,-1.45,2.68,-0.7,9.0,-30.2
202255,1196,1196,1196,1196,0.30,643,11.51,8.15,3.28,-148.13,7.19,-3.40,1.73,-3.5,-4.1,-30.3
202255,1196,1196,1196,1196,0.26,639,11.51,8.22,3.33,-149.65,2.12,6.09,-0.15,-1.6,-2.2,-32.1
202255,1196,1196,1196,1196,0.31,644,11.51,8.40,3.12,-151.21,2.49,2.82,9.77,-1.9,0.7,-31.0
202255,1196,1196,1196,1196,0.30,643,11.50,8.40,2.84,-152.79,4.55,-0.21,2.10,0.4,22.5,-32.0
202255,1196,1196,1196,1196,0.31,644,11.50,7.97,2.86,-154.35,-0.70,-0.64,7.97,-1.5,-0.2,-31.1
202255,1196,1196,1196,1196,0.32,645,11.52,7.09,2.72,-155.86,8.51,1.74,9.02,0.9,5.7,-31.6
202255,1196,1196,1196,1196,0.33,646,11.50,7.21,2.36,-157.36,-8.08,-0.02,16.88,-3.1,-18.6,-31.4
202255,1196,1196,1196,1196,0.31,644,11.49,6.54,2.38,-158.92,-7.74,-5.00,6.03,-1.5,-29.7,-29.4
202255,1196,1196,1196,1196,0.28,641,11.51,6.09,2.22,-160.36,4.75,-1.14,-1.01,0.9,0.5,-29.2
202256,1196,1196,1196,1196,0.32,645,11.50,6.00,2.20,-161.84,-10.06,1.02,10.10,-0.2,-19.6,-27.0
202256,1196,1196,1196,1196,0.34,647,11.51,6.50,2.02,-163.23,5.15,3.05,8.81,1.3,-2.9,-27.6
202256,1196,1196,1196,1196,0.34,647,11.52,6.47,1.72,-164.72,6.35,1.47,15.65,1.4,-22.6,-30.0
202256,1196,1196,1196,1196,0.32,645,11.51,7.22,1.40,-166.19,-1.10,3.59,8.65,4.8,1.2,-29.2
202256,1196,1196,1196,1196,0.30,643,11.49,7.84,1.36,-167.60,9.65,3.71,3.52,4.5,12.5,-28.7
202256,1196,1196,1196,1196,0.35,648,11.50,8.34,1.53,-169.07,1.79,-2.20,6.45,5.6,2.2,-30.0
202256,1196,1196,1196,1196,0.31,644,11.49,8.25,1.96,-170.61,7.01,1.89,7.48,7.2,-14.0,-30.8
202256,1196,1196,1196,1196,0.32,645,11.50,8.29,1.70,-172.25,-16.48,0.52,19.16,7.1,-24.1,-32.9
202256,1196,1196,1196,1196,0.36,649,11.50,8.17,1.81,-173.85,-7.16,4.21,8.33,6.8,4.5,-33.8
202256,1196,1196,1196,1196,0.34,647,11.50,8.54,1.66,-175.47,1.69,2.98,12.62,5.1,28.3,-32.5
202256,1196,1196,1196,1196,0.36,649,11.49,9.00,1.45,-177.18,4.20,-4.90,6.84,4.6,3.1,-36.1
202256,1196,1196,1196,1196,0.36,649,11.51,9.20,1.60,-178.88,7.49,-1.11,4.76,3.8,15.1,-34.9
202256,1196,1196,1196,1196,0.36,649,11.50,8.62,1.34,179.34,7.00,1.24,3.18,3.1,16.0,-36.8
202256,1196,1196,1196,1196,0.37,650,11.51,8.47,1.18,177.51,-2.12,6.19,12.03,3.1,-15.3,-36.6
202256,1196,1196,1196,1196,0.35,648,11.50,8.09,1.13,175.66,-12.94,3.21,12.36,2.3,-17.9,-38.5
202256,1196,1196,1196,1196,0.34,647,11.51,8.13,1.52,173.77,6.93,-1.10,10.04,0.4,19.0,-39.0
202256,1196,1196,1196,1196,0.34,647,11.50,7.76,1.60,171.91,8.48,5.73,6.64,-0.2,6.7,-34.8
202256,1196,1196,1196,1196,0.38,651,11.48,7.39,1.22,170.06,3.83,3.94,8.95,-0.7,-18.7,-36.7
202256,1196,1196,1196,1196,0.37,650,11.50,7.76,1.17,168.18,0.06,6.59,7.90,-0.4,-5.5,-37.6
202256,1196,1196,1196,1196,0.37,650,11.51,7.78,1.26,166.29,-3.43,0.98,3.14,-0.6,1.1,-38.6
202257,1197,1197,1197,1197,0.35,648,11.49,7.89,1.27,164.39,2.24,0.56,4.55,-2.7,1.5,-39.4
202257,1197,1197,1197,1197,0.35,648,11.50,7.91,1.26,162.49,5.54,-5.25,14.38,-2.2,-1.8,-37.4
202257,1197,1197,1197,1197,0.35,648,11.49,7.49,1.43,160.53,5.91,-3.62,7.30,-3.5,-6.3,-41.3
202257,1197,1197,1197,1197,0.35,648,11.50,7.02,1.37,158.49,10.09,-0.37,1.18,-1.3,16.8,-41.4
202257,1197,1197,1197,1197,0.36,649,11.49,7.24,1.38,156.44,0.77,7.48,9.16,-2.6,3.5,-41.3
202257,1197,1197,1197,1197,0.38,651,11.50,7.35,1.07,154.49,-0.23,-0.92,18.65,-1.6,-18.9,-37.5
202257,1197,1197,1197,1197,0.39,652,11.51,6.81,0.96,152.65,3.17,-4.85,2.87,1.2,-0.4,-36.7
202257,1197,1197,1197,1197,0.38,651,11.50,6.67,0.83,150.70,6.16,-2.52,5.12,2.4,-15.9,-38.2
202257,1197,1197,1197,1197,0.37,650,11.49,6.14,0.98,148.74,10.36,-4.01,0.32,1.0,-12.9,-39.4
202257,1197,1197,1197,1197,0.39,652,11.50,6.10,0.76,146.75,-3.38,1.66,8.39,-0.1,-2.6,-39.4
202257,1197,1197,1197,1197,0.37,650,11.50,6.38,1.21,144.79,5.31,-1.68,0.22,2.1,8.7,-39.9
202257,1197,1197,1197,1197,0.39,652,11.51,5.90,1.07,142.79,-0.46,-1.89,5.05,-0.3,3.5,-41.0
202257,1197,1197,1197,1197,0.36,649,11.49,5.60,0.97,140.74,0.52,-12.81,12.07,0.2,-31.5,-40.7
202257,1197,1197,1197,1197,0.38,651,11.50,5.40,1.04,138.80,-7.53,4.01,16.75,-1.3,-24.2,-39.7
202257,1197,1197,1197,1197,0.36,649,11.49,5.62,1.11,136.91,-13.58,-0.42,13.47,-0.5,-9.4,-39.4
202257,1197,1197,1197,1197,0.35,648,11.49,5.30,1.39,135.11,-10.30,-3.20,19.60,-0.1,-24.6,-35.6
202257,1197,1197,1197,1197,0.41,654,11.50,5.64,1.64,133.39,-9.01,6.13,19.60,2.2,0.4,-37.3
202257,1197,1197,1197,1197,0.40,653,11.49,5.31,2.01,131.52,3.26,-5.84,0.30,3.7,7.6,-37.0
202257,1197,1197,1197,1197,0.42,655,11.50,5.26,1.89,129.74,-6.90,-2.85,6.72,3.5,-2.0,-36.3
202257,1197,1197,1197,1197,0.35,648,11.50,5.04,1.54,127.92,-10.55,-3.49,9.15,2.3,-13.1,-36.6
202258,1197,1197,1197,1197,0.38,651,11.49,4.61,1.68,126.12,5.56,1.90,7.04,3.1,10.3,-35.1
202258,1197,1197,1197,1197,0.37,650,11.49,5.06,1.53,124.39,5.88,-0.04,4.31,4.9,-15.3,-33.6
202258,1197,1197,1197,1197,0.42,655,11.48,4.89,1.09,122.60,-10.02,1.03,16.46,0.9,-20.6,-36.3
202258,1197,1197,1197,1197,0.38,651,11.49,4.98,1.02,120.64,6.18,6.05,8.46,-0.2,6.4,-40.0
202258,1197,1197,1197,1197,0.41,654,11.50,4.94,1.07,118.69,7.94,-0.87,6.54,-1.7,17.9,-38.6
202258,1197,1197,1197,1197,0.41,654,11.47,4.63,0.94,116.72,9.95,7.50,5.62,-1.4,5.1,-38.8
202258,1197,1197,1197,1197,0.38,651,11.49,4.52,0.64,114.82,-6.51,-1.66,11.15,-1.1,-12.3,-38.9
202258,1197,1197,1197,1197,0.44,658,11.49,4.38,0.58,112.90,4.98,0.78,10.28,-1.1,2.3,-39.9
202258,1197,1197,1197,1197,0.38,651,11.50,4.88,0.49,110.95,5.80,-2.66,10.15,1.0,6.0,-40.9
202258,1197,1197,1197,1197,0.41,654,11.49,4.98,0.41,108.97,7.44,0.48,2.70,-1.2,11.2,-37.8
202258,1197,1197,1197,1197,0.41,654,11.49,4.78,0.37,107.16,-0.66,6.64,-3.52,1.3,-14.5,-35.5
202258,1197,1197,1197,1197,0.41,654,11.48,4.83,0.27,105.43,-3.56,-0.08,9.91,1.5,-2.4,-33.8
202258,1197,1197,1197,1197,0.43,657,11.50,4.95,-0.02,103.74,-9.49,5.91,19.60,-0.4,0.5,-33.6
202258,1197,1197,1197,1197,0.41,654,11.49,5.06,0.38,102.07,6.78,2.12,2.73,1.2,8.5,-31.2
202258,1197,1197,1197,1197,0.40,653,11.50,5.31,0.36,100.53,-0.36,0.17,5.13,0.4,5.0,-31.2
202258,1197,1197,1197,1197,0.43,657,11.49,5.61,0.20,98.88,-0.79,3.97,12.15,-1.2,-26.4,-32.2
202258,1197,1197,1197,1197,0.43,657,11.50,6.20,0.19,97.22,-3.22,-1.89,6.12,0.1,-0.4,-34.1
202258,1197,1197,1197,1197,0.42,656,11.49,5.68,-0.03,95.45,-6.57,6.63,10.51,0.9,-19.2,-36.9
202258,1197,1197,1197,1197,0.46,660,11.50,5.68,0.17,93.60,4.54,2.76,6.76,0.7,8.2,-39.1
202258,1197,1197,1197,1197,0.42,656,11.49,4.89,0.22,91.76,-4.79,-2.17,6.68,2.0,-18.6,-36.4
202259,1197,1197,1197,1197,0.41,654,11.50,4.76,0.11,89.99,-12.99,4.43,16.17,0.3,-11.2,-38.6
202259,1197,1197,1197,1197,0.39,652,11.50,5.26,0.25,88.14,0.02,-4.70,5.94,-0.3,-0.4,-38.1
202259,1197,1197,1197,1197,0.42,655,11.49,4.70,0.11,86.20,5.59,0.34,10.02,-1.1,-24.0,-38.5
202259,1197,1197,1197,1197,0.42,655,11.49,4.84,0.02,84.34,2.74,1.68,1.35,0.4,-17.2,-36.4
202259,1197,1197,1197,1197,0.42,655,11.50,4.97,-0.05,82.46,3.86,0.21,5.26,2.5,-18.1,-36.1
202259,1197,1197,1197,1197,0.42,655,11.49,5.10,-0.17,80.60,-4.96,0.21,15.99,4.1,5.8,-36.9
202259,1197,1197,1197,1197,0.45,659,11.49,4.93,-0.22,78.77,6.57,5.42,1.09,3.7,7.7,-35.9
202259,1197,1197,1197,1197,0.45,659,11.49,5.04,-0.18,77.01,-0.87,-0.02,11.17,3.4,-2.1,-34.4
202259,1197,1197,1197,1197,0.43,657,11.49,5.28,-0.31,75.32,5.09,-0.05,8.76,2.8,-3.5,-33.9
202259,1197,1197,1197,1197,0.45,659,11.49,5.35,-0.55,73.66,5.29,-1.27,8.50,2.5,-15.0,-31.2
202259,1197,1197,1197,1197,0.42,655,11.47,5.17,-1.00,72.09,-0.76,-1.34,5.92,0.3,0.7,-31.9
202259,1197,1197,1197,1197,0.40,653,11.49,4.95,-1.54,70.50,0.03,-1.46,12.50,0.7,-37.0,-32.8
202259,1197,1197,1197,1197,0.42,655,11.49,4.76,-1.24,68.90,3.33,-0.51,3.07,0.5,4.9,-31.8
202259,1197,1197,1197,1197,0.43,657,11.48,4.56,-1.68,67.30,4.23,2.49,7.61,0.0,15.0,-32.7
202259,1197,1197,1197,1197,0.45,659,11.48,5.00,-1.97,65.65,6.80,4.16,9.84,0.1,-1.7,-32.3
202259,1197,1197,1197,1197,0.46,660,11.49,5.77,-2.30,63.98,4.90,8.96,8.01,0.6,14.2,-34.5
202259,1197,1197,1197,1197,0.48,662,11.50,5.96,-2.29,62.27,-2.20,-1.04,5.63,1.3,5.6,-35.2
202259,1197,1197,1197,1197,0.43,657,11.50,6.15,-2.35,60.59,-9.95,-2.31,19.60,0.4,-5.5,-32.5
202259,1197,1197,1197,1197,0.43,657,11.49,6.01,-2.09,58.95,-2.15,-8.96,16.77,3.7,-26.4,-33.6
202259,1197,1197,1197,1197,0.46,660,11.49,5.63,-2.16,57.35,4.16,0.48,6.64,2.5,5.7,-32.0
202300,1197,1197,1197,1197,0.46,660,11.50,5.52,-1.90,55.79,11.11,2.91,-2.80,0.7,15.4,-30.7
202300,1197,1197,1197,1197,0.47,661,11.48,6.02,-2.01,54.30,3.37,2.14,9.59,1.3,1.4,-29.7
202300,1197,1197,1197,1197,0.42,656,11.49,6.21,-2.05,52.81,7.15,1.10,6.89,-1.8,1.1,-30.9
202300,1197,1197,1197,1197,0.44,658,11.49,5.98,-2.23,51.33,6.67,-1.44,6.08,-0.1,13.7,-31.8
202300,1197,1197,1197,1197,0.44,658,11.49,5.20,-2.20,49.90,4.35,0.25,8.39,-1.8,-11.2,-27.5
202300,1197,1197,1197,1197,0.42,656,11.46,5.19,-2.09,48.53,-15.14,2.19,18.06,-0.1,-17.5,-29.8
202300,1197,1197,1197,1197,0.45,659,11.48,4.93,-1.50,47.01,-0.54,-2.49,16.60,-1.2,-0.5,-32.2
202300,1197,1197,1197,1197,0.43,657,11.48,4.76,-1.38,45.42,3.37,-8.65,9.69,-1.1,-20.4,-31.3
202300,1197,1197,1197,1197,0.45,659,11.50,4.53,-1.44,43.80,-1.25,-1.08,8.52,-2.2,-1.1,-32.7
202300,1197,1197,1197,1197,0.45,659,11.50,4.70,-1.35,42.18,-1.63,-3.39,14.98,-2.3,-2.2,-32.7
202300,1197,1197,1197,1197,0.47,661,11.49,4.88,-1.21,40.60,3.71,-1.62,11.15,-1.6,2.0,-31.8
202300,1197,1197,1197,1197,0.45,659,11.49,4.83,-1.06,39.03,5.40,0.71,7.32,-1.0,-1.8,-31.9
202300,1197,1197,1197,1197,0.43,657,11.48,4.95,-0.98,37.41,4.28,3.65,7.88,0.7,5.0,-33.7
202300,1197,1197,1197,1197,0.42,656,11.49,4.86,-0.96,35.76,-3.50,4.08,7.13,0.7,0.6,-33.9
202300,1197,1197,1197,1197,0.44,658,11.49,5.21,-0.69,34.19,1.00,-1.54,5.64,2.0,3.5,-30.9
202300,1197,1197,1197,1197,0.46,660,11.49,5.11,-0.73,32.66,10.23,-2.76,11.32,1.8,33.6,-30.9
202300,1197,1197,1197,1197,0.43,657,11.48,4.77,-0.46,31.23,9.53,2.26,3.92,1.7,12.0,-28.0
202300,1197,1197,1197,1197,0.48,662,11.51,5.61,-0.10,29.80,-3.00,-1.18,4.52,0.0,7.2,-29.5
202300,1197,1197,1197,1197,0.42,656,11.48,5.83,0.66,28.33,3.68,2.53,-1.01,-0.4,-6.3,-29.4
202300,1197,1197,1197,1197,0.42,656,11.48,5.55,0.83,26.82,-13.18,-0.03,17.05,1.2,-19.8,-29.8
202301,1197,1197,1197,1197,0.45,659,11.48,4.65,1.01,25.25,-3.08,-2.79,7.02,2.7,-4.3,-31.1
202301,1197,1197,1197,1197,0.42,656,11.49,4.29,1.15,23.71,-11.95,-3.61,19.47,3.7,3.2,-29.7
202301,1197,1197,1197,1197,0.41,654,11.51,4.31,1.37,22.22,-11.63,-0.35,13.86,2.2,0.3,-30.9
202301,1197,1197,1197,1197,0.44,658,11.49,4.85,1.62,20.64,-3.77,3.01,14.47,2.9,2.3,-32.9
202301,1197,1197,1197,1197,0.44,658,11.48,4.78,1.74,19.03,6.05,-4.00,-1.21,1.4,-16.2,-31.3
202301,1197,1197,1197,1197,0.42,656,11.49,5.13,1.56,17.47,1.22,3.19,8.41,1.6,-6.8,-31.7
202301,1197,1197,1197,1197,0.47,661,11.48,5.63,1.47,15.88,4.44,-2.21,5.97,-2.3,-3.0,-32.0
202301,1197,1197,1197,1197,0.42,655,11.48,5.70,1.34,14.30,-0.82,0.60,7.17,-2.6,13.3,-31.7
202301,1197,1197,1197,1197,0.44,658,11.49,5.74,1.46,12.71,4.87,-0.02,2.38,-4.2,-5.0,-30.7
202301,1197,1197,1197,1197,0.42,656,11.50,5.67,1.37,11.18,-3.30,11.57,9.85,-2.4,-0.1,-32.7
202301,1197,1197,1197,1197,0.44,658,11.48,5.88,1.62,9.49,-3.00,7.66,8.05,0.7,-2.2,-33.4
202301,1197,1197,1197,1197,0.45,659,11.49,6.03,1.75,7.92,2.50,4.37,3.73,0.5,-8.6,-29.7
202301,1197,1197,1197,1197,0.42,655,11.49,6.22,1.43,6.45,1.99,-2.56,8.55,3.2,-7.1,-29.0
202301,1197,1197,1197,1197,0.44,658,11.48,6.21,1.19,5.04,-8.85,-4.80,8.48,0.5,-23.2,-29.2
202301,1197,1197,1197,1197,0.43,657,11.48,6.06,1.51,3.66,4.57,-2.49,17.61,0.5,25.4,-27.2
202301,1197,1197,1197,1197,0.42,656,11.47,6.08,1.51,2.38,12.97,0.98,8.01,1.6,16.9,-24.1
202301,1197,1197,1197,1197,0.42,655,11.50,6.32,1.72,1.21,3.73,2.46,9.75,2.9,2.9,-24.2
202301,1197,1197,1197,1197,0.42,655,11.49,6.29,1.52,0.04,-6.99,4.28,14.86,2.5,15.4,-23.6
202301,1197,1197,1197,1197,0.44,658,11.49,6.65,1.88,-1.22,2.17,0.01,8.15,2.1,19.8,-26.6
202301,1197,1197,1197,1197,0.41,654,11.49,6.63,1.78,-2.59,-12.16,-4.18,9.08,2.4,1.3,-26.8
202302,1198,1198,1198,1198,0.43,657,11.46,6.11,1.81,-3.98,-9.04,1.54,17.01,3.4,0.7,-28.3
202302,1198,1198,1198,1198,0.42,656,11.49,6.58,2.08,-5.29,-3.19,1.15,9.52,2.5,0.9,-26.3
202302,1198,1198,1198,1198,0.41,654,11.50,6.55,2.14,-6.58,9.41,1.37,4.99,0.7,10.9,-27.3
202302,1198,1198,1198,1198,0.39,652,11.49,6.41,2.12,-7.90,0.43,4.36,19.29,1.3,10.6,-25.2
202302,1198,1198,1198,1198,0.39,652,11.48,6.31,1.96,-9.14,-4.77,1.98,15.60,3.8,-9.5,-27.5
202302,1198,1198,1198,1198,0.41,654,11.49,6.22,1.87,-10.48,5.62,4.35,12.66,0.9,-8.7,-28.7
202302,1198,1198,1198,1198,0.39,652,11.49,6.42,1.44,-11.95,-2.96,0.91,14.59,0.6,-13.0,-32.2
202302,1198,1198,1198,1198,0.43,657,11.49,7.03,1.30,-13.48,1.18,-2.13,10.13,0.2,-9.8,-32.0
202302,1198,1198,1198,1198,0.37,650,11.47,6.99,1.01,-15.09,-1.50,-3.04,-2.14,0.7,-33.4,-30.3
202302,1198,1198,1198,1198,0.37,650,11.49,6.71,0.99,-16.64,2.48,-1.67,9.67,-0.4,1.4,-31.9
202302,1198,1198,1198,1198,0.36,649,11.49,6.27,0.73,-18.22,-0.24,2.53,5.85,2.9,-11.9,-30.5
202302,1198,1198,1198,1198,0.36,649,11.48,6.28,0.78,-19.87,0.83,5.65,7.74,1.0,-4.8,-33.0
202302,1198,1198,1198,1198,0.37,650,11.49,6.22,0.52,-21.60,7.02,-0.56,10.31,1.0,11.0,-33.2
202302,1198,1198,1198,1198,0.37,650,11.48,5.42,0.39,-23.29,-4.73,-2.36,12.83,2.0,0.1,-32.4
202302,1198,1198,1198,1198,0.37,650,11.48,5.29,0.30,-24.97,5.23,-0.63,7.04,-0.2,-0.7,-32.0
202302,1198,1198,1198,1198,0.39,652,11.48,5.11,0.19,-26.68,12.88,1.03,3.54,-0.2,21.2,-35.8
202302,1198,1198,1198,1198,0.37,650,11.47,5.45,-0.23,-28.49,-9.88,2.06,4.22,-3.7,-21.6,-34.9
202302,1198,1198,1198,1198,0.36,649,11.48,5.11,0.13,-30.15,-0.06,-1.91,8.68,-2.8,24.6,-34.5
202302,1198,1198,1198,1198,0.38,651,11.48,4.50,0.50,-31.83,7.21,1.13,6.53,-2.8,21.3,-35.3
202302,1198,1198,1198,1198,0.38,651,11.50,4.39,0.77,-33.57,4.01,0.34,7.00,-1.8,2.2,-36.1
202303,1198,1198,1198,1198,0.36,649,11.49,4.49,1.17,-35.30,4.65,1.95,5.23,-2.0,13.9,-35.4
202303,1198,1198,1198,1198,0.39,652,11.49,4.68,1.13,-36.87,-8.84,2.46,12.46,0.9,-20.9,-32.6
202303,1198,1198,1198,1198,0.36,649,11.47,5.22,1.69,-38.40,1.70,-1.29,12.28,1.2,18.0,-31.9
202303,1198,1198,1198,1198,0.35,648,11.48,4.85,1.66,-39.92,10.07,-2.10,3.74,2.8,19.2,-29.3
202303,1198,1198,1198,1198,0.38,651,11.48,4.91,1.63,-41.43,-7.07,0.78,17.13,4.0,-4.5,-29.5
202303,1198,1198,1198,1198,0.37,650,11.47,4.95,2.14,-42.80,-0.07,1.50,8.87,1.5,1.5,-25.1
202303,1198,1198,1198,1198,0.32,645,11.48,4.59,2.13,-44.09,1.56,-1.99,10.92,1.3,1.3,-25.3
202303,1198,1198,1198,1198,0.35,648,11.48,4.09,2.01,-45.33,8.84,-0.70,10.96,1.3,2.2,-21.7
202303,1198,1198,1198,1198,0.36,649,11.49,3.84,1.25,-46.54,-12.38,0.90,13.76,1.3,-14.8,-23.5
202303,1198,1198,1198,1198,0.36,649,11.48,3.52,1.42,-47.78,2.48,2.00,1.62,0.4,23.9,-22.9
202303,1198,1198,1198,1198,0.36,649,11.48,3.52,1.25,-48.90,-0.31,-1.38,3.91,-0.7,-7.8,-22.2
202303,1198,1198,1198,1198,0.37,650,11.48,3.23,1.12,-50.06,-6.18,-4.53,15.45,1.2,-3.8,-24.3
202303,1198,1198,1198,1198,0.33,646,11.49,3.04,1.01,-51.20,-5.68,4.45,10.89,1.3,-23.6,-23.7
202303,1198,1198,1198,1198,0.36,649,11.49,3.69,0.59,-52.34,4.44,-6.90,9.41,0.8,10.6,-24.4
202303,1198,1198,1198,1198,0.32,645,11.47,3.36,0.36,-53.45,9.90,-5.63,6.41,1.2,11.5,-22.5
202303,1198,1198,1198,1198,0.28,641,11.49,3.16,0.11,-54.51,2.98,-1.67,-1.01,0.2,-20.4,-21.2
202303,1198,1198,1198,1198,0.32,645,11.48,3.22,-0.11,-55.55,-1.21,-3.86,8.54,3.3,1.2,-20.0
202303,1198,1198,1198,1198,0.32,645,11.49,3.23,-0.29,-56.58,3.91,-3.51,7.13,3.1,-0.3,-19.0
202303,1198,1198,1198,1198,0.29,642,11.47,2.77,-0.36,-57.70,7.91,-0.63,2.69,1.0,-20.0,-22.9
202303,1198,1198,1198,1198,0.28,641,11.49,2.97,-0.53,-58.86,0.78,0.82,9.75,-0.7,-0.9,-22.3
202304,1198,1198,1198,1198,0.27,640,11.46,2.44,-0.73,-59.97,2.47,-3.24,14.11,1.0,7.9,-23.6
202304,1198,1198,1198,1198,0.27,640,11.46,2.50,-0.88,-61.22,-2.99,2.49,16.71,1.8,20.4,-25.3
202304,1198,1198,1198,1198,0.32,645,11.49,2.97,-0.91,-62.46,-3.35,1.16,8.94,-0.2,0.6,-25.7
202304,1198,1198,1198,1198,0.27,640,11.48,3.04,-0.48,-63.73,2.15,2.43,1.92,-0.2,-16.4,-26.2
202304,1198,1198,1198,1198,0.30,643,11.48,2.67,-0.43,-65.06,-0.45,-2.49,8.97,2.7,11.4,-28.5
202304,1198,1198,1198,1198,0.27,640,11.47,2.49,-0.35,-66.47,3.76,3.14,8.68,1.5,5.4,-28.9
202304,1198,1198,1198,1198,0.28,641,11.49,2.92,-0.39,-67.83,4.01,-2.82,7.24,3.2,1.5,-27.5
202304,1198,1198,1198,1198,0.29,642,11.48,2.05,-0.55,-69.22,3.55,-0.73,9.13,3.4,-1.3,-30.5
202304,1198,1198,1198,1198,0.26,639,11.48,2.85,-0.26,-70.60,4.60,-2.30,5.51,5.8,6.3,-26.2
202304,1198,1198,1198,1198,0.27,640,11.49,2.32,0.06,-71.79,7.59,3.93,0.40,3.3,-2.1,-20.9
202304,1198,1198,1198,1198,0.25,638,11.48,2.46,0.14,-72.88,-8.65,0.84,14.29,3.7,-8.3,-21.9
202304,1198,1198,1198,1198,0.25,638,11.48,2.30,0.43,-73.96,3.35,-3.35,12.05,4.2,8.0,-22.2
202304,1198,1198,1198,1198,0.23,635,11.49,2.76,0.46,-75.13,3.97,-1.51,10.48,1.3,10.2,-24.4
202304,1198,1198,1198,1198,0.22,634,11.48,2.79,0.59,-76.26,3.42,3.26,2.29,-1.0,16.0,-20.7
202304,1198,1198,1198,1198,0.26,639,11.49,2.91,0.43,-77.25,4.37,2.63,9.45,3.0,14.3,-21.6
202304,1198,1198,1198,1198,0.24,636,11.47,2.85,0.33,-78.39,4.81,0.25,12.83,0.7,-1.3,-24.3
202304,1198,1198,1198,1198,0.23,635,11.47,3.35,0.10,-79.52,7.54,1.94,7.94,2.1,-13.4,-21.8
202304,1198,1198,1198,1198,0.25,637,11.47,3.94,-0.44,-80.61,-8.25,-0.39,0.61,3.4,-28.0,-23.7
202304,1198,1198,1198,1198,0.22,634,11.48,4.08,-0.29,-81.75,-9.67,2.04,7.82,3.1,4.3,-22.9
202304,1198,1198,1198,1198,0.17,629,11.47,3.72,-0.47,-82.89,-0.77,0.28,11.89,1.3,2.2,-23.3
202305,1198,1198,1198,1198,0.21,633,11.47,3.47,-0.38,-84.10,-0.11,-1.59,8.71,2.6,-3.8,-24.5
202305,1198,1198,1198,1198,0.21,633,11.48,3.88,-0.93,-85.38,-12.75,1.11,7.71,-0.2,-11.2,-25.6
202305,1198,1198,1198,1198,0.17,629,11.47,4.32,-0.96,-86.77,6.24,5.95,6.12,5.1,10.1,-25.5
202305,1198,1198,1198,1198,0.18,630,11.48,4.81,-1.58,-88.13,-1.40,8.27,9.04,3.2,6.3,-25.0
202305,1198,1198,1198,1198,0.18,630,11.46,5.34,-1.54,-89.47,1.30,-2.96,7.55,3.1,-1.7,-27.3
202305,1198,1198,1198,1198,0.22,634,11.48,5.43,-1.45,-90.79,7.55,2.94,7.02,3.4,19.6,-25.1
202305,1198,1198,1198,1198,0.20,632,11.48,4.98,-1.57,-92.02,6.47,-0.75,5.66,4.6,15.1,-25.2
202305,1198,1198,1198,1198,0.24,636,11.48,4.55,-1.87,-93.26,1.85,-0.80,8.18,7.1,1.6,-26.1
202305,1198,1198,1198,1198,0.17,629,11.47,5.08,-1.79,-94.52,8.68,-0.11,9.31,8.7,6.2,-25.1
202305,1198,1198,1198,1198,0.19,631,11.47,6.20,-2.02,-95.72,-10.78,1.93,10.20,8.1,-21.0,-22.8
202305,1198,1198,1198,1198,0.17,629,11.49,6.02,-1.98,-96.85,-1.02,-4.58,10.95,8.2,-0.9,-23.8
202305,1198,1198,1198,1198,0.19,631,11.48,6.59,-1.84,-98.03,7.68,-0.87,2.84,8.0,-12.7,-25.0
202305,1198,1198,1198,1198,0.20,632,11.49,7.33,-1.69,-99.30,-8.05,4.92,15.86,2.6,-10.2,-25.5
202305,1198,1198,1198,1198,0.16,628,11.47,7.62,-1.24,-100.57,-2.08,5.99,11.74,4.0,3.8,-28.7
202305,1198,1198,1198,1198,0.18,630,11.47,8.28,-0.61,-101.91,-3.65,-2.23,7.48,3.7,0.5,-29.3
202305,1198,1198,1198,1198,0.17,629,11.47,8.75,-0.28,-103.41,-6.35,4.68,19.60,2.0,1.2,-31.7
202305,1198,1198,1198,1198,0.16,628,11.49,8.99,0.28,-104.89,9.51,2.39,11.71,0.4,19.1,-28.3
202305,1198,1198,1198,1198,0.16,628,11.48,10.07,0.47,-106.33,8.27,14.01,7.89,1.8,10.0,-30.6
202305,1198,1198,1198,1198,0.18,630,11.47,9.88,0.57,-107.85,-0.37,-0.11,9.60,2.1,-30.9,-28.2
202305,1198,1198,1198,1198,0.15,627,11.48,10.39,0.37,-109.33,-2.25,0.15,16.12,3.2,-23.9,-27.7
202306,1198,1198,1198,1198,0.20,632,11.49,10.85,0.39,-110.75,6.81,2.85,6.09,3.8,9.0,-29.2
202306,1198,1198,1198,1198,0.21,633,11.46,11.28,0.32,-112.22,-5.40,-5.89,11.01,5.3,-7.0,-29.4
202306,1198,1198,1198,1198,0.22,634,11.46,10.95,0.34,-113.66,-8.69,1.46,10.63,3.1,-6.5,-29.9
202306,1198,1198,1198,1198,0.13,625,11.49,10.83,0.75,-115.14,2.05,-2.05,2.46,2.6,11.0,-30.8
202306,1198,1198,1198,1198,0.17,629,11.47,10.39,1.09,-116.65,2.14,4.53,7.03,-0.4,7.8,-32.1
202306,1198,1198,1198,1198,0.14,626,11.48,9.85,1.10,-118.19,-8.38,3.95,9.33,-0.7,-2.8,-31.6
202306,1198,1198,1198,1198,0.18,630,11.48,9.12,1.08,-119.70,-6.91,-0.49,6.45,-6.6,-9.5,-27.3
202306,1198,1198,1198,1198,0.19,631,11.47,9.11,1.01,-121.08,-0.91,5.81,8.67,-7.1,1.5,-29.5
202306,1198,1198,1198,1198,0.15,627,11.47,9.16,0.76,-122.55,2.06,-6.33,7.86,-7.9,-22.1,-29.1
202306,1198,1198,1198,1198,0.18,630,11.48,8.46,0.54,-123.99,-5.46,0.89,10.53,-7.9,1.6,-31.3
202306,1198,1198,1198,1198,0.17,629,11.46,8.47,0.64,-125.46,0.90,2.80,18.68,-5.6,13.9,-29.8
202306,1198,1198,1198,1198,0.22,634,11.47,7.65,0.80,-126.85,8.14,5.14,7.44,-4.6,11.7,-28.2
202306,1198,1198,1198,1198,0.18,630,11.47,8.03,0.78,-128.20,1.82,2.81,2.18,-2.2,-9.8,-27.6
202306,1198,1198,1198,1198,0.20,632,11.48,7.81,0.33,-129.49,-13.44,-0.95,14.56,-2.0,-28.6,-25.8
202306,1198,1198,1198,1198,0.18,630,11.48,7.60,0.47,-130.62,1.09,-2.30,11.65,-2.0,8.8,-22.6
202306,1198,1198,1198,1198,0.19,631,11.47,7.03,0.35,-131.59,8.33,-4.63,9.58,-2.7,-6.3,-18.2
202306,1198,1198,1198,1198,0.18,630,11.47,6.14,0.13,-132.58,3.33,2.28,4.28,-1.3,-1.3,-18.2
