time,pwm1,pwm2,pwm3,pwm4,depth,press,voltage,roll,pitch,yaw,a_x,a_y,a_z,w_row,w_pitch,w_yaw
193958,1100,1100,1100,1100,0.01,615,12.06,4.58,-0.00,10.25,-0.05,0.69,8.65,-0.4,0.2,0.1
193958,1100,1100,1100,1100,0.01,615,12.06,4.55,0.01,10.25,0.05,0.69,8.69,-0.3,0.4,0.0
193958,1100,1100,1100,1100,0.02,616,12.05,4.54,0.02,10.26,0.58,0.38,8.52,0.0,1.0,0.4
193958,1100,1100,1100,1100,0.04,618,12.02,4.58,-0.03,10.27,-0.78,2.01,9.91,0.4,3.3,-0.5
193958,1194,1194,1194,1194,0.00,614,11.96,4.64,0.55,10.25,1.91,-2.50,10.69,-4.5,9.8,-1.5
193958,1194,1194,1194,1194,0.03,617,11.92,4.25,1.49,10.15,-2.14,3.65,5.72,-11.2,11.5,-2.1
193958,1194,1194,1194,1194,-0.01,613,11.93,4.18,2.50,10.00,12.47,1.95,5.81,-9.8,-1.1,-2.7
193958,1194,1194,1194,1194,0.05,619,11.92,3.52,1.93,9.68,-7.66,8.02,14.72,-3.2,-14.1,-6.3
193958,1194,1194,1194,1194,0.00,614,11.92,3.82,1.30,9.46,-1.20,-2.59,10.46,-1.9,-16.9,-2.3
193958,1194,1194,1194,1194,0.01,615,11.91,3.75,0.65,9.26,-4.86,-0.15,19.60,1.6,-27.2,-4.3
193958,1194,1194,1194,1194,0.09,624,11.91,4.00,-0.30,8.96,-12.13,-3.09,19.53,2.0,-21.7,-6.6
193958,1194,1194,1194,1194,0.09,624,11.91,4.10,-1.54,8.53,-12.00,-0.46,19.60,3.1,-14.8,-7.6
193959,1194,1194,1194,1194,0.07,621,11.92,4.12,-1.79,8.12,12.49,-3.98,6.57,0.4,-19.8,-6.3
193959,1194,1194,1194,1194,0.13,628,11.91,3.91,-3.15,7.71,-16.12,5.84,19.60,0.4,-18.8,-9.3
193959,1194,1194,1194,1194,0.08,623,11.91,3.64,-3.44,7.27,2.56,-4.59,5.05,2.7,-7.8,-8.3
193959,1194,1194,1194,1194,0.08,622,11.93,3.57,-4.90,6.84,4.86,0.02,6.21,4.8,-5.4,-8.7
193959,1194,1194,1194,1194,0.12,627,11.92,3.87,-5.27,6.25,4.01,5.79,5.88,4.3,-7.1,-12.7
193959,1194,1194,1194,1194,0.13,628,11.93,4.10,-6.23,5.55,-10.59,-7.88,19.60,1.4,-3.5,-14.7
193959,1194,1194,1194,1194,0.17,632,11.90,3.87,-5.70,4.79,10.49,-2.97,10.06,1.2,0.7,-18.6
193959,1194,1194,1194,1194,0.17,632,11.91,4.07,-6.19,3.93,2.80,7.40,-0.41,0.0,9.2,-18.8
193959,1194,1194,1194,1194,0.16,631,11.92,4.46,-6.50,2.86,-4.02,2.96,7.94,-2.2,8.1,-23.9
193959,1194,1194,1194,1194,0.15,630,11.92,4.53,-6.71,1.69,-4.92,-1.28,13.49,0.2,-7.8,-26.6
193959,1194,1194,1194,1194,0.17,632,11.92,4.31,-7.48,0.38,-2.15,4.42,13.00,0.0,-4.0,-27.6
193959,1194,1194,1194,1194,0.17,632,11.90,4.64,-6.33,-1.04,0.75,0.49,9.02,1.2,-1.4,-27.3
193959,1194,1194,1194,1194,0.16,631,11.92,4.68,-6.52,-2.51,0.60,10.27,8.66,3.5,-1.3,-30.8
193959,1194,1194,1194,1194,0.19,634,11.90,5.33,-6.63,-4.20,-3.32,-4.02,12.64,1.8,-7.1,-31.9
193959,1194,1194,1194,1194,0.19,634,11.93,5.44,-7.26,-5.82,5.44,-2.94,9.88,1.6,-2.3,-31.5
193959,1194,1194,1194,1194,0.17,632,11.91,5.65,-7.18,-7.46,7.08,-2.90,4.67,1.9,-5.5,-29.9
193959,1194,1194,1194,1194,0.19,634,11.91,6.04,-7.51,-9.11,1.21,-3.32,10.88,0.1,-4.7,-31.4
193959,1194,1194,1194,1194,0.19,634,11.92,6.27,-7.46,-10.69,10.53,0.38,7.84,2.9,1.2,-31.0
193959,1194,1194,1194,1194,0.21,636,11.92,6.52,-6.82,-12.17,11.77,0.34,4.48,3.7,1.4,-29.4
193959,1194,1194,1194,1194,0.19,634,11.93,6.85,-7.66,-13.57,0.77,2.86,10.25,2.4,-2.9,-27.6
194000,1194,1194,1194,1194,0.21,636,11.92,7.30,-7.50,-14.99,1.39,-2.82,6.92,4.4,1.2,-30.6
194000,1194,1194,1194,1194,0.18,633,11.92,7.32,-7.45,-16.43,-8.61,4.63,5.79,4.8,-1.8,-31.3
194000,1194,1194,1194,1194,0.23,638,11.93,7.77,-7.88,-18.00,2.84,-2.86,14.77,4.3,3.7,-33.6
194000,1194,1194,1194,1194,0.25,640,11.92,8.30,-7.46,-19.66,10.14,-0.10,3.78,5.8,3.2,-35.2
194000,1194,1194,1194,1194,0.23,638,11.92,8.67,-7.33,-21.39,-15.39,6.85,19.38,5.7,-2.3,-37.5
194000,1194,1194,1194,1194,0.24,639,11.91,8.98,-6.71,-23.16,8.94,10.98,7.83,5.4,5.6,-36.7
194000,1194,1194,1194,1194,0.25,641,11.91,9.88,-6.02,-25.05,-0.16,-2.26,7.80,5.5,2.0,-38.1
194000,1194,1194,1194,1194,0.21,636,11.91,10.17,-4.96,-26.93,-1.28,-0.90,8.92,1.8,-3.3,-38.6
194000,1194,1194,1194,1194,0.23,638,11.92,10.38,-4.38,-28.77,6.16,-0.53,11.41,-0.6,9.9,-38.1
194000,1194,1194,1194,1194,0.24,639,11.91,10.11,-4.88,-30.62,3.06,-2.89,12.59,1.8,-0.1,-38.5
194000,1194,1194,1194,1194,0.24,639,11.92,10.10,-4.33,-32.46,-10.40,8.58,12.20,-1.6,-0.6,-38.5
194000,1194,1194,1194,1194,0.25,641,11.91,10.45,-3.97,-34.35,1.60,-5.97,8.01,2.3,5.7,-40.4
194000,1194,1194,1194,1194,0.25,640,11.91,10.51,-3.05,-36.22,-1.55,5.73,12.10,-0.2,6.2,-39.2
194000,1194,1194,1194,1194,0.28,644,11.93,10.90,-2.75,-38.18,8.33,-0.22,0.59,3.8,4.3,-42.0
194000,1194,1194,1194,1194,0.25,640,11.92,11.03,-3.00,-40.26,-1.14,-1.03,18.17,1.5,-3.5,-42.1
194000,1194,1194,1194,1194,0.26,642,11.93,11.20,-2.43,-42.26,0.82,-2.72,3.59,-1.3,-3.5,-38.8
194000,1194,1194,1194,1194,0.27,643,11.91,11.22,-1.88,-44.22,11.34,2.23,-2.20,0.9,-1.7,-38.2
194000,1194,1194,1194,1194,0.21,636,11.91,11.34,-1.66,-46.15,-2.55,-3.91,9.64,-3.6,-7.4,-36.5
194000,1194,1194,1194,1194,0.25,641,11.90,10.76,-0.92,-48.04,-4.61,8.44,13.39,-7.2,0.5,-38.6
194000,1194,1194,1194,1194,0.24,639,11.91,10.22,-0.37,-49.94,2.54,2.45,10.28,-4.2,4.9,-36.7
194001,1194,1194,1194,1194,0.25,641,11.92,9.61,0.16,-51.77,6.90,1.67,7.73,-9.5,-1.7,-36.8
194001,1194,1194,1194,1194,0.28,644,11.90,9.18,0.39,-53.63,-10.56,4.26,12.87,-7.7,0.2,-38.4
194001,1194,1194,1194,1194,0.25,641,11.92,8.55,1.21,-55.57,11.05,-3.33,6.32,-8.3,3.2,-40.1
194001,1194,1194,1194,1194,0.25,641,11.91,7.71,0.91,-57.57,6.90,3.75,8.57,-6.3,7.2,-43.2
194001,1194,1194,1194,1194,0.26,642,11.90,7.37,0.83,-59.61,-2.60,-1.79,0.63,-1.7,1.9,-42.7
194001,1194,1194,1194,1194,0.27,643,11.92,6.88,1.47,-61.66,1.40,0.93,10.08,-0.5,3.4,-40.5
194001,1194,1194,1194,1194,0.24,639,11.91,6.60,1.20,-63.58,-0.40,-2.88,12.55,-0.3,-1.0,-39.2
194001,1194,1194,1194,1194,0.29,645,11.91,6.07,1.89,-65.49,-1.22,5.82,10.77,1.9,-3.5,-38.6
194001,1194,1194,1194,1194,0.30,646,11.93,6.32,1.79,-67.45,-3.15,-0.62,13.29,2.9,-7.4,-39.9
194001,1194,1194,1194,1194,0.26,642,11.91,6.37,2.15,-69.47,-7.31,-2.03,10.77,3.2,3.1,-39.4
194001,1194,1194,1194,1194,0.29,645,11.92,6.50,1.80,-71.41,1.90,1.90,6.75,2.7,-0.6,-38.6
194001,1194,1194,1194,1194,0.26,642,11.92,6.69,1.82,-73.36,2.99,-0.75,8.24,3.1,2.1,-39.3
194001,1194,1194,1194,1194,0.30,646,11.90,6.23,2.01,-75.37,3.20,-7.94,11.09,1.6,4.5,-41.7
194001,1194,1194,1194,1194,0.28,644,11.92,6.08,1.92,-77.38,-6.43,3.62,9.47,1.3,-4.6,-40.6
194001,1194,1194,1194,1194,0.31,647,11.89,6.03,1.72,-79.38,9.22,1.55,7.96,-0.6,4.2,-40.1
194001,1194,1194,1194,1194,0.30,646,11.91,5.94,2.34,-81.32,6.00,-3.31,3.96,-0.4,0.7,-39.1
194001,1194,1194,1194,1194,0.28,644,11.90,5.65,2.37,-83.24,-3.56,4.15,8.20,-1.2,-3.4,-38.1
194001,1194,1194,1194,1194,0.31,647,11.91,5.43,1.43,-85.13,-7.02,-0.73,11.95,-2.3,6.7,-37.5
194001,1194,1194,1194,1194,0.30,646,11.91,5.32,1.62,-87.05,-2.33,0.41,8.64,-2.3,-6.1,-39.1
194001,1194,1194,1194,1194,0.32,648,11.91,4.85,0.78,-89.08,12.47,0.37,2.61,-2.3,-3.7,-38.6
194002,1194,1194,1194,1194,0.29,645,11.92,4.73,0.50,-91.07,4.42,1.57,10.08,-1.0,-0.4,-39.9
194002,1194,1194,1194,1194,0.29,645,11.90,4.62,-0.28,-93.08,-3.03,-6.22,11.89,-1.0,-10.6,-37.8
194002,1194,1194,1194,1194,0.30,646,11.91,3.99,-0.61,-94.97,-3.32,-2.60,9.02,-1.2,-4.3,-35.0
194002,1194,1194,1194,1194,0.31,647,11.91,3.70,-0.61,-96.76,-6.36,1.03,12.02,-1.0,-2.4,-35.2
194002,1194,1194,1194,1194,0.32,648,11.90,3.68,-0.12,-98.60,0.63,-1.49,12.25,0.1,-3.8,-37.7
194002,1194,1194,1194,1194,0.29,645,11.90,3.67,-0.18,-100.45,-11.93,2.08,19.60,1.8,-2.4,-37.7
194002,1194,1194,1194,1194,0.32,648,11.91,3.28,-0.62,-102.35,12.80,-6.44,5.03,3.5,2.9,-40.3
194002,1194,1194,1194,1194,0.31,647,11.90,3.55,-0.77,-104.25,-3.13,4.78,11.99,4.3,0.1,-39.0
194002,1194,1194,1194,1194,0.29,645,11.91,3.75,-0.33,-106.16,1.36,4.23,5.41,5.9,3.6,-40.2
194002,1194,1194,1194,1194,0.33,649,11.90,3.94,-0.65,-108.23,-1.80,0.94,5.97,6.0,2.6,-44.1
194002,1194,1194,1194,1194,0.36,652,11.91,4.22,-0.12,-110.40,-1.04,1.48,11.45,4.9,1.7,-45.7
194002,1194,1194,1194,1194,0.34,650,11.92,4.59,0.13,-112.60,1.05,-5.50,10.83,5.6,3.7,-45.8
194002,1194,1194,1194,1194,0.33,649,11.91,4.85,0.45,-114.83,-6.01,-1.53,19.60,3.8,6.8,-45.8
194002,1194,1194,1194,1194,0.33,649,11.90,4.86,0.78,-117.01,-4.05,-7.06,12.44,2.7,5.4,-45.5
194002,1194,1194,1194,1194,0.33,649,11.91,4.60,1.34,-119.19,10.42,-4.60,-2.75,4.8,11.4,-41.4
194002,1194,1194,1194,1194,0.31,647,11.90,4.43,0.94,-121.23,3.62,1.33,10.86,0.6,2.8,-39.9
194002,1194,1194,1194,1194,0.35,651,11.90,4.41,1.56,-123.24,1.29,2.03,7.45,-0.1,-0.9,-39.6
194002,1194,1194,1194,1194,0.26,642,11.90,4.48,1.54,-125.21,-2.66,-0.01,12.77,0.8,-1.0,-39.1
194002,1194,1194,1194,1194,0.33,649,11.91,4.08,1.69,-127.26,6.80,-1.55,4.26,0.4,0.9,-41.4
194002,1194,1194,1194,1194,0.34,650,11.90,3.73,1.49,-129.41,12.84,0.47,1.31,0.9,6.7,-44.3
194003,1194,1194,1194,1194,0.28,644,11.89,3.94,1.60,-131.61,-4.18,-6.69,12.45,1.4,0.9,-45.7
194003,1194,1194,1194,1194,0.32,648,11.92,3.42,1.02,-133.87,-5.19,1.88,5.15,3.5,-1.4,-46.2
194003,1194,1194,1194,1194,0.31,647,11.91,3.89,1.27,-136.13,-7.81,-2.52,12.48,2.1,-2.1,-45.8
194003,1194,1194,1194,1194,0.31,647,11.91,3.45,1.47,-138.40,5.38,3.31,4.06,-0.4,-4.4,-43.8
194003,1194,1194,1194,1194,0.31,647,11.91,3.21,1.13,-140.60,8.85,-5.35,4.56,-1.6,-1.3,-43.0
194003,1194,1194,1194,1194,0.32,648,11.90,2.87,1.07,-142.73,4.51,-0.80,6.15,-2.7,2.1,-40.6
194003,1194,1194,1194,1194,0.31,647,11.89,2.75,0.26,-144.76,0.86,5.86,11.58,-2.4,-2.6,-38.6
194003,1194,1194,1194,1194,0.33,649,11.91,2.87,0.17,-146.71,9.18,-3.69,3.25,-2.7,4.4,-37.5
194003,1195,1195,1195,1195,0.31,647,11.89,2.34,-0.22,-148.68,4.84,8.00,8.18,-1.8,1.5,-38.1
194003,1195,1195,1195,1195,0.32,648,11.91,2.11,-0.96,-150.57,-13.15,-0.62,13.28,0.2,2.4,-37.4
194003,1195,1195,1195,1195,0.35,651,11.91,2.06,-0.25,-152.48,-3.91,-1.00,11.32,0.6,4.0,-37.8
194003,1195,1195,1195,1195,0.32,648,11.91,1.98,0.24,-154.35,8.42,0.90,11.82,0.1,6.3,-37.0
194003,1195,1195,1195,1195,0.30,646,11.89,2.01,0.26,-156.21,-4.62,-1.34,8.39,1.0,3.3,-37.7
194003,1195,1195,1195,1195,0.29,645,11.92,2.46,1.64,-158.00,1.60,1.26,12.54,1.1,9.8,-36.2
194003,1195,1195,1195,1195,0.38,654,11.91,2.57,1.97,-159.78,-0.69,-1.41,6.20,0.0,6.5,-36.1
194003,1195,1195,1195,1195,0.31,647,11.89,2.38,2.96,-161.51,1.21,1.01,7.94,-2.5,11.1,-35.1
194003,1195,1195,1195,1195,0.35,651,11.91,2.14,2.85,-163.24,3.42,-3.35,6.34,-4.6,5.9,-36.1
194003,1195,1195,1195,1195,0.33,649,11.89,1.66,2.42,-165.11,-3.66,-1.20,10.36,-4.8,-0.4,-37.3
194003,1195,1195,1195,1195,0.39,655,11.91,1.06,2.31,-166.98,5.35,4.81,9.31,-5.4,2.7,-37.5
194003,1195,1195,1195,1195,0.32,648,11.91,0.86,1.71,-168.84,2.37,2.90,11.21,-5.4,1.6,-36.6
194004,1195,1195,1195,1195,0.32,648,11.89,0.86,1.78,-170.72,6.60,0.16,4.88,-1.2,0.9,-36.0
194004,1195,1195,1195,1195,0.33,649,11.91,0.95,2.15,-172.56,8.17,-3.20,7.46,0.3,-0.7,-38.9
194004,1195,1195,1195,1195,0.34,650,11.88,0.57,1.67,-174.54,-3.84,1.62,10.02,-1.8,-0.7,-39.0
194004,1195,1195,1195,1195,0.33,649,11.90,0.61,1.68,-176.55,-6.97,10.26,14.43,2.5,-0.5,-40.3
194004,1195,1195,1195,1195,0.34,650,11.91,0.67,1.37,-178.57,-11.13,-2.12,15.71,2.4,-2.1,-42.4
194004,1195,1195,1195,1195,0.34,650,11.89,0.60,1.95,179.27,-2.32,4.27,4.47,7.6,6.2,-46.4
194004,1195,1195,1195,1195,0.35,651,11.91,0.74,1.71,176.99,4.71,-6.02,9.96,7.3,4.5,-45.7
194004,1195,1195,1195,1195,0.31,647,11.92,0.82,1.31,174.84,-1.00,-0.57,5.81,7.3,4.1,-41.1
194004,1195,1195,1195,1195,0.30,646,11.89,0.99,1.42,172.84,8.80,-6.39,5.54,8.4,0.2,-42.4
194004,1195,1195,1195,1195,0.34,650,11.90,1.16,0.93,170.84,8.23,0.06,8.58,5.9,0.5,-39.2
194004,1195,1195,1195,1195,0.35,651,11.89,1.15,0.41,168.87,0.91,1.31,3.75,4.1,4.7,-41.1
194004,1195,1195,1195,1195,0.33,649,11.91,1.19,-0.11,166.96,-2.08,8.11,5.82,1.1,1.6,-36.7
194004,1195,1195,1195,1195,0.32,648,11.90,1.49,-0.48,165.09,-6.52,2.63,11.07,1.7,-2.0,-37.0
194004,1195,1195,1195,1195,0.34,650,11.90,1.71,-0.62,163.27,1.07,-2.33,7.66,0.1,6.8,-34.3
194004,1195,1195,1195,1195,0.35,651,11.91,1.79,-0.98,161.58,12.16,3.79,1.72,3.7,1.0,-35.2
194004,1195,1195,1195,1195,0.34,650,11.90,2.11,-1.28,159.90,-1.53,-5.57,5.24,5.7,0.2,-34.1
194004,1195,1195,1195,1195,0.32,648,11.91,2.22,-1.64,158.26,6.14,-0.17,2.09,3.1,0.1,-31.3
194004,1195,1195,1195,1195,0.34,650,11.91,2.50,-1.92,156.72,2.93,-1.70,3.67,4.3,-4.6,-29.2
194004,1195,1195,1195,1195,0.35,651,11.90,2.66,-2.46,155.33,2.06,3.27,13.39,4.8,-3.0,-25.4
194004,1195,1195,1195,1195,0.35,651,11.91,3.09,-1.80,154.08,-2.68,9.19,3.54,4.1,1.3,-24.4
194005,1195,1195,1195,1195,0.31,647,11.90,3.54,-1.91,152.86,-3.49,-2.72,7.02,5.2,-0.2,-22.7
194005,1195,1195,1195,1195,0.30,646,11.91,3.81,-0.82,151.75,3.19,-1.93,6.07,6.0,2.8,-22.2
194005,1195,1195,1195,1195,0.32,648,11.90,4.33,-1.16,150.66,-3.61,-4.01,13.20,3.1,1.0,-20.4
194005,1195,1195,1195,1195,0.31,647,11.89,4.37,-1.39,149.73,-1.50,-1.05,14.98,4.1,0.7,-17.9
194005,1195,1195,1195,1195,0.33,649,11.90,4.79,-0.39,148.88,-0.46,-3.59,8.42,4.5,-1.2,-16.3
194005,1195,1195,1195,1195,0.31,647,11.90,4.77,-0.67,148.03,11.78,7.69,-3.80,3.3,6.5,-17.2
194005,1195,1195,1195,1195,0.31,647,11.90,5.09,-0.25,147.05,1.52,2.60,10.13,4.6,1.4,-20.8
194005,1195,1195,1195,1195,0.34,650,11.90,5.22,-0.35,146.01,3.76,-0.52,8.93,3.5,1.0,-20.7
194005,1195,1195,1195,1195,0.31,647,11.90,5.36,-0.77,145.01,10.45,-2.42,-2.01,4.6,4.8,-19.8
194005,1195,1195,1195,1195,0.31,647,11.89,5.37,-0.99,144.04,-4.13,4.97,13.57,3.2,-3.7,-18.0
194005,1195,1195,1195,1195,0.33,649,11.91,6.40,-0.43,143.21,-2.60,-2.06,16.39,3.1,-2.4,-15.9
194005,1195,1195,1195,1195,0.33,649,11.91,6.36,-1.04,142.41,-0.31,7.16,7.35,4.5,-3.1,-15.4
194005,1195,1195,1195,1195,0.31,647,11.89,6.90,-0.36,141.61,-6.60,-4.32,14.53,4.5,-4.0,-14.3
194005,1195,1195,1195,1195,0.31,647,11.90,6.66,-0.82,140.84,6.57,2.21,8.62,2.6,0.5,-14.5
194005,1195,1195,1195,1195,0.37,653,11.90,7.42,-0.56,140.12,5.56,1.63,11.40,3.2,2.3,-14.8
194005,1195,1195,1195,1195,0.29,645,11.89,7.30,-1.48,139.46,7.54,3.34,11.69,3.4,1.0,-14.1
194005,1195,1195,1195,1195,0.28,644,11.90,7.37,-1.63,138.77,-1.11,0.53,9.76,5.5,0.2,-14.2
194005,1195,1195,1195,1195,0.27,643,11.91,7.48,-1.54,138.13,13.19,0.08,3.23,4.6,5.5,-13.2
194005,1195,1195,1195,1195,0.30,646,11.90,7.66,-1.50,137.47,-3.55,-0.74,13.63,6.4,2.3,-15.6
194005,1195,1195,1195,1195,0.30,646,11.90,7.77,-1.49,136.82,-3.01,-0.38,15.51,5.9,-3.9,-13.4
194006,1195,1195,1195,1195,0.33,649,11.91,8.17,-1.57,136.19,-19.39,-1.89,19.34,4.5,-3.5,-14.0
194006,1195,1195,1195,1195,0.33,649,11.89,8.21,-1.42,135.55,-2.36,0.10,13.91,1.7,4.9,-14.7
194006,1195,1195,1195,1195,0.33,649,11.89,8.16,-0.58,134.77,10.14,-2.07,6.45,2.4,7.1,-17.9
194006,1195,1195,1195,1195,0.34,650,11.89,8.41,-0.59,133.84,-0.44,5.72,7.70,0.1,9.0,-19.7
194006,1195,1195,1195,1195,0.29,645,11.90,8.55,-0.07,132.88,-10.46,8.14,14.90,-2.0,5.2,-21.2
194006,1195,1195,1195,1195,0.32,648,11.90,8.64,1.10,131.90,-2.79,5.67,15.19,-2.7,9.1,-22.2
194006,1195,1195,1195,1195,0.29,645,11.90,8.33,1.36,130.78,16.57,1.20,1.01,-4.5,8.0,-25.0
194006,1195,1195,1195,1195,0.32,648,11.90,7.92,1.70,129.65,-9.78,0.86,15.92,-4.6,-3.1,-24.8
194006,1195,1195,1195,1195,0.29,645,11.89,7.80,2.42,128.48,5.56,-3.78,6.20,-4.1,8.5,-25.0
194006,1195,1195,1195,1195,0.32,648,11.90,7.28,1.70,127.25,-7.25,-0.52,12.20,-3.8,-0.5,-24.7
194006,1195,1195,1195,1195,0.33,649,11.91,6.92,1.86,125.94,-14.21,3.40,19.60,-4.2,-7.2,-24.7
194006,1195,1195,1195,1195,0.27,643,11.90,6.45,1.54,124.69,1.94,-5.35,12.95,-5.1,-2.7,-25.5
194006,1195,1195,1195,1195,0.29,645,11.90,5.87,1.00,123.41,0.49,-3.06,9.32,-5.1,-5.9,-23.7
194006,1195,1195,1195,1195,0.26,642,11.89,5.62,0.95,122.11,6.66,2.91,3.63,-1.4,1.5,-26.1
194006,1195,1195,1195,1195,0.31,647,11.90,5.56,1.12,120.75,13.49,0.90,3.51,-3.2,-2.4,-25.7
194006,1195,1195,1195,1195,0.28,644,11.88,5.56,0.65,119.39,3.55,-1.90,3.65,-3.3,-3.2,-25.6
194006,1195,1195,1195,1195,0.32,648,11.89,5.39,0.77,118.05,3.68,-2.98,7.37,-1.4,-5.2,-26.0
194006,1195,1195,1195,1195,0.32,648,11.89,5.10,0.43,116.69,5.27,-0.65,5.40,-0.1,3.0,-27.8
194006,1195,1195,1195,1195,0.31,647,11.91,4.84,-0.69,115.24,-7.24,2.29,10.76,-0.1,-6.5,-30.9
194006,1195,1195,1195,1195,0.28,644,11.90,4.97,0.42,113.76,4.93,-0.03,1.66,1.0,7.9,-31.1
194007,1195,1195,1195,1195,0.31,647,11.89,5.36,1.62,112.29,-2.36,-0.38,2.04,1.4,-4.5,-29.5
194007,1195,1195,1195,1195,0.27,643,11.90,5.47,1.45,110.93,5.26,-0.62,2.80,1.7,-0.2,-27.8
194007,1195,1195,1195,1195,0.31,647,11.91,4.99,0.98,109.47,-5.85,3.33,14.03,3.2,-2.7,-31.7
194007,1195,1195,1195,1195,0.26,642,11.90,4.97,2.14,107.98,5.63,-6.85,-0.70,2.5,10.4,-30.3
194007,1195,1195,1195,1195,0.25,641,11.88,4.99,1.86,106.62,-7.82,-2.05,9.60,0.2,7.0,-27.2
194007,1195,1195,1195,1195,0.28,644,11.89,5.24,2.27,105.21,6.79,-2.09,6.45,0.9,3.9,-30.2
194007,1195,1195,1195,1195,0.29,645,11.90,5.18,2.27,103.74,0.10,1.49,13.46,-1.6,-4.2,-28.3
194007,1195,1195,1195,1195,0.26,642,11.89,4.74,1.49,102.31,-1.41,3.25,1.88,0.0,-0.2,-27.3
194007,1195,1195,1195,1195,0.26,642,11.89,4.79,1.78,100.85,0.83,-8.24,13.56,2.4,-2.0,-29.9
194007,1195,1195,1195,1195,0.26,642,11.90,4.77,1.23,99.27,4.11,0.02,8.13,2.7,1.6,-31.7
194007,1195,1195,1195,1195,0.28,644,11.90,4.70,1.34,97.59,-5.24,0.75,6.76,4.8,-4.3,-33.3
194007,1195,1195,1195,1195,0.30,646,11.90,5.02,1.83,95.89,5.16,-1.49,6.11,4.8,-1.0,-34.2
194007,1195,1195,1195,1195,0.26,642,11.89,5.14,1.28,94.14,10.91,-1.14,6.77,5.0,1.8,-34.7
194007,1195,1195,1195,1195,0.27,643,11.90,5.16,1.70,92.31,-1.79,3.91,11.02,3.7,-4.0,-38.0
194007,1195,1195,1195,1195,0.24,639,11.91,5.14,1.59,90.39,-0.99,3.19,3.26,3.5,-3.1,-37.8
194007,1195,1195,1195,1195,0.26,642,11.90,5.43,1.99,88.58,7.44,-5.53,0.14,1.5,7.5,-36.5
194007,1195,1195,1195,1195,0.25,641,11.89,5.50,1.31,86.84,4.07,0.39,12.30,-0.3,1.0,-35.9
194007,1195,1195,1195,1195,0.22,637,11.91,5.68,0.96,84.96,-8.31,2.06,18.55,-2.9,-0.1,-37.9
194007,1195,1195,1195,1195,0.26,642,11.89,5.20,1.16,82.94,3.29,-4.62,9.00,-0.2,5.0,-41.6
194007,1195,1195,1195,1195,0.26,642,11.89,5.33,1.42,80.83,-2.31,0.32,9.71,3.2,-2.7,-42.9
194008,1195,1195,1195,1195,0.25,641,11.91,5.53,1.77,78.74,-10.24,4.23,15.42,5.3,-5.1,-40.5
194008,1195,1195,1195,1195,0.26,642,11.90,5.55,1.55,76.70,5.86,-4.91,3.70,3.4,3.2,-41.9
194008,1195,1195,1195,1195,0.24,639,11.91,5.57,1.36,74.74,-2.72,-0.43,14.18,2.6,0.9,-40.4
194008,1195,1195,1195,1195,0.24,639,11.88,5.97,1.61,72.78,4.47,-0.39,11.39,3.4,4.1,-41.9
194008,1195,1195,1195,1195,0.25,640,11.88,5.79,0.69,70.83,-5.11,-0.94,8.86,1.1,-0.8,-39.3
194008,1195,1195,1195,1195,0.22,637,11.90,5.30,0.13,68.83,6.68,0.11,5.03,2.1,-3.8,-41.6
194008,1195,1195,1195,1195,0.25,640,11.91,5.67,-0.21,66.74,-2.65,-1.50,9.03,4.3,-7.8,-41.3
194008,1195,1195,1195,1195,0.25,640,11.90,5.64,-0.42,64.77,-2.94,-1.05,9.44,2.4,-8.6,-37.0
194008,1196,1196,1196,1196,0.23,638,11.89,5.68,-1.18,62.86,7.89,2.39,7.44,3.2,-4.7,-38.0
194008,1196,1196,1196,1196,0.25,640,11.88,5.64,-2.00,61.10,2.22,-4.91,11.11,-0.2,-7.6,-34.9
194008,1196,1196,1196,1196,0.23,638,11.90,5.34,-1.97,59.39,4.22,0.47,9.32,-0.9,1.0,-34.0
194008,1196,1196,1196,1196,0.22,637,11.89,5.30,-1.43,57.77,-1.67,5.99,8.55,-2.1,-0.4,-30.2
194008,1196,1196,1196,1196,0.23,638,11.90,5.46,-1.25,56.23,3.02,1.37,4.61,-1.4,-0.2,-30.7
194008,1196,1196,1196,1196,0.22,637,11.89,5.64,-0.91,54.68,2.75,2.65,11.99,-4.2,1.0,-31.5
194008,1196,1196,1196,1196,0.21,636,11.88,6.05,-0.53,52.99,0.47,-1.44,8.68,-3.2,-1.4,-33.6
194008,1196,1196,1196,1196,0.20,635,11.88,5.57,-0.19,51.27,-0.41,-1.48,13.93,-3.7,0.9,-32.8
194008,1196,1196,1196,1196,0.21,636,11.88,5.31,0.16,49.62,-2.42,1.63,5.27,-2.6,-1.3,-31.4
194008,1196,1196,1196,1196,0.19,634,11.89,4.99,-0.49,47.92,-3.49,-1.55,18.40,0.2,0.1,-35.1
194008,1196,1196,1196,1196,0.20,635,11.89,5.15,-0.58,46.21,-3.96,0.14,9.98,-1.2,-6.8,-33.4
194008,1196,1196,1196,1196,0.17,632,11.89,5.09,-0.23,44.53,-7.21,-4.91,13.66,1.5,-3.9,-33.7
194009,1196,1196,1196,1196,0.20,635,11.88,5.14,-0.31,42.87,-5.81,3.03,13.44,1.1,2.7,-32.1
194009,1196,1196,1196,1196,0.21,636,11.89,5.25,-0.65,41.30,-3.01,1.45,13.61,4.5,-5.8,-31.6
194009,1196,1196,1196,1196,0.24,639,11.90,5.18,-0.98,39.73,-11.15,4.70,14.03,5.9,2.1,-30.9
194009,1196,1196,1196,1196,0.18,633,11.90,5.72,0.34,38.18,7.13,1.59,10.04,6.7,5.4,-31.9
194009,1196,1196,1196,1196,0.22,637,11.90,6.04,1.07,36.54,3.74,-4.93,7.42,6.3,6.7,-34.8
194009,1196,1196,1196,1196,0.21,636,11.89,5.80,1.46,34.79,-18.84,-2.16,13.37,1.3,-4.6,-36.1
194009,1196,1196,1196,1196,0.22,637,11.90,5.70,1.38,33.12,1.90,-3.07,7.69,-0.7,-1.2,-34.9
194009,1196,1196,1196,1196,0.25,641,11.89,5.41,1.71,31.51,2.13,-2.16,11.05,-1.1,-1.0,-31.3
194009,1196,1196,1196,1196,0.23,638,11.89,5.21,1.33,30.00,4.93,3.13,6.48,-1.8,-5.2,-31.6
194009,1196,1196,1196,1196,0.26,642,11.89,4.93,1.09,28.49,4.65,-6.92,7.98,0.4,-0.6,-29.8
194009,1196,1196,1196,1196,0.22,637,11.90,4.73,0.11,26.92,-0.97,8.53,11.73,-1.6,-1.2,-33.1
194009,1196,1196,1196,1196,0.25,641,11.88,4.79,-0.25,25.25,-1.15,5.86,9.32,-3.8,-2.1,-33.0
194009,1196,1196,1196,1196,0.25,640,11.88,4.65,0.14,23.61,0.72,-3.37,7.24,-8.1,1.3,-33.4
194009,1196,1196,1196,1196,0.21,636,11.89,4.10,-0.88,21.95,-6.77,1.00,17.68,-8.4,-7.1,-33.5
194009,1196,1196,1196,1196,0.24,639,11.87,3.79,-0.90,20.31,-3.96,1.76,13.74,-8.7,-5.0,-32.6
194009,1196,1196,1196,1196,0.26,642,11.89,3.39,-0.64,18.69,14.48,-4.91,4.01,-3.6,-3.8,-32.0
194009,1196,1196,1196,1196,0.22,637,11.88,3.04,-1.62,17.09,-7.04,-2.28,15.31,-2.4,-12.1,-30.5
194009,1196,1196,1196,1196,0.23,638,11.88,2.31,-2.37,15.55,-1.21,-1.06,14.03,-4.6,-4.1,-30.3
194009,1196,1196,1196,1196,0.27,643,11.89,2.30,-1.95,13.97,10.38,-0.27,1.34,-3.7,6.1,-30.4
194009,1196,1196,1196,1196,0.26,642,11.90,2.38,-2.15,12.45,-7.44,-2.18,13.96,-1.5,-2.4,-29.0
194010,1196,1196,1196,1196,0.24,639,11.90,2.25,-2.33,10.94,5.52,3.21,6.16,-1.8,0.7,-28.8
194010,1196,1196,1196,1196,0.24,639,11.89,2.14,-2.89,9.39,8.50,-4.60,2.16,0.2,-3.0,-31.8
194010,1196,1196,1196,1196,0.24,639,11.88,2.03,-3.83,7.79,7.89,0.31,4.53,2.6,3.9,-32.9
194010,1196,1196,1196,1196,0.25,641,11.89,2.36,-4.38,6.17,5.88,5.57,6.93,5.2,0.1,-33.7
194010,1196,1196,1196,1196,0.25,641,11.89,2.84,-3.69,4.55,6.90,-4.61,4.44,8.4,7.2,-33.1
194010,1196,1196,1196,1196,0.26,642,11.89,2.88,-3.72,2.93,1.47,-2.26,8.44,7.2,6.4,-35.6
194010,1196,1196,1196,1196,0.29,645,11.88,3.17,-3.56,1.22,2.35,2.00,9.94,7.9,2.6,-36.4
194010,1196,1196,1196,1196,0.25,641,11.91,3.55,-3.28,-0.58,7.14,-3.68,8.28,8.9,5.3,-36.4
194010,1196,1196,1196,1196,0.26,642,11.88,3.88,-3.15,-2.41,-5.31,-0.15,12.26,6.3,0.5,-37.8
194010,1196,1196,1196,1196,0.26,642,11.89,4.12,-3.02,-4.31,2.83,-1.83,6.29,5.1,4.8,-38.8
194010,1196,1196,1196,1196,0.29,645,11.90,4.35,-3.13,-6.30,8.05,-0.58,11.99,0.0,2.9,-40.1
194010,1196,1196,1196,1196,0.27,643,11.89,4.16,-3.63,-8.39,-1.47,6.31,11.70,0.1,-1.8,-42.1
194010,1196,1196,1196,1196,0.30,646,11.88,4.49,-3.14,-10.46,-9.56,5.49,12.90,-1.3,-6.5,-42.1
194010,1196,1196,1196,1196,0.27,643,11.89,4.84,-2.32,-12.63,3.09,-0.89,2.52,-2.0,0.7,-43.7
194010,1196,1196,1196,1196,0.27,643,11.89,4.72,-2.74,-14.70,-0.01,-0.23,11.53,-3.3,-1.5,-41.0
194010,1196,1196,1196,1196,0.25,640,11.89,4.43,-2.59,-16.66,-1.10,4.94,9.54,-5.1,-3.8,-38.4
194010,1196,1196,1196,1196,0.28,644,11.88,4.39,-2.09,-18.64,1.51,1.17,12.70,-7.8,-2.9,-40.4
194010,1196,1196,1196,1196,0.30,646,11.89,4.11,-2.07,-20.71,-5.70,-1.78,9.95,-7.1,-0.4,-42.4
194010,1196,1196,1196,1196,0.26,642,11.88,3.73,-2.73,-22.90,3.55,-0.67,4.89,-4.2,4.5,-44.3
194010,1196,1196,1196,1196,0.29,645,11.89,3.58,-2.71,-25.16,4.93,-4.40,2.27,-5.9,-5.7,-44.3
194011,1196,1196,1196,1196,0.28,644,11.89,2.85,-3.80,-27.40,-14.51,4.58,12.30,-7.1,-16.5,-46.0
194011,1196,1196,1196,1196,0.28,644,11.88,2.54,-4.54,-29.78,0.59,-2.03,9.68,-5.6,1.5,-46.3
194011,1196,1196,1196,1196,0.29,645,11.88,2.20,-4.84,-32.11,17.23,0.39,1.05,-4.6,-0.5,-48.0
194011,1196,1196,1196,1196,0.27,643,11.89,2.14,-5.56,-34.52,-8.69,6.84,13.61,-4.7,-6.8,-47.9
194011,1196,1196,1196,1196,0.31,647,11.90,2.23,-5.46,-36.88,-4.73,4.21,9.29,-0.9,0.3,-46.6
194011,1196,1196,1196,1196,0.30,646,11.89,2.29,-4.99,-39.35,3.67,1.03,9.47,-1.8,-4.8,-50.8
194011,1196,1196,1196,1196,0.33,649,11.88,2.74,-5.24,-41.82,4.64,-0.67,3.14,-2.0,-7.4,-49.0
194011,1196,1196,1196,1196,0.29,645,11.89,2.61,-5.51,-44.21,-3.30,2.96,13.91,-2.2,1.7,-47.5
194011,1196,1196,1196,1196,0.33,649,11.89,3.02,-5.03,-46.60,-6.27,-3.14,19.60,-0.9,3.7,-48.2
194011,1196,1196,1196,1196,0.32,648,11.89,3.25,-4.73,-48.99,-3.26,7.34,13.97,-0.5,5.9,-50.1
194011,1196,1196,1196,1196,0.34,650,11.89,3.69,-3.66,-51.41,-3.23,1.68,14.33,2.4,0.1,-47.9
194011,1196,1196,1196,1196,0.34,650,11.88,4.09,-3.39,-53.84,6.87,1.47,4.54,2.2,4.8,-50.5
194011,1196,1196,1196,1196,0.34,650,11.88,4.41,-3.06,-56.25,9.60,1.25,-0.31,3.5,2.3,-47.9
194011,1196,1196,1196,1196,0.29,645,11.87,4.30,-3.44,-58.73,-3.47,1.79,12.65,3.0,4.5,-50.3
194011,1196,1196,1196,1196,0.32,648,11.89,4.33,-2.54,-61.17,15.05,4.97,-2.99,1.9,15.5,-47.7
194011,1196,1196,1196,1196,0.34,650,11.88,4.58,-2.37,-63.58,-0.62,3.97,15.86,4.8,9.3,-48.4
194011,1196,1196,1196,1196,0.34,650,11.88,4.52,-1.18,-66.03,-9.79,5.43,16.21,4.3,-0.5,-49.6
194011,1196,1196,1196,1196,0.33,649,11.88,5.08,-0.73,-68.45,-3.75,-0.17,13.84,2.9,8.4,-48.8
194011,1196,1196,1196,1196,0.33,649,11.88,5.22,0.42,-70.87,-4.83,-4.71,17.55,0.8,4.5,-48.2
194011,1196,1196,1196,1196,0.32,648,11.89,5.13,0.46,-73.24,3.66,2.73,5.52,-0.6,-2.9,-48.2
194012,1196,1196,1196,1196,0.33,649,11.88,5.05,0.42,-75.69,-9.09,-1.32,8.72,-1.5,0.5,-49.9
194012,1196,1196,1196,1196,0.32,648,11.88,5.14,0.32,-78.16,5.21,-2.07,-1.53,-0.5,-0.2,-51.0
194012,1196,1196,1196,1196,0.32,648,11.90,4.99,-0.83,-80.65,2.12,1.71,12.43,-0.9,-6.3,-48.9
194012,1196,1196,1196,1196,0.35,651,11.89,5.06,-0.57,-83.15,2.81,-6.23,5.80,0.5,-2.3,-49.6
194012,1196,1196,1196,1196,0.34,650,11.87,5.24,-0.89,-85.65,-8.77,-2.92,11.68,2.8,-9.4,-47.2
194012,1196,1196,1196,1196,0.34,650,11.89,5.20,-0.59,-88.07,-1.82,0.21,14.70,2.1,-5.8,-45.4
194012,1196,1196,1196,1196,0.34,650,11.88,5.44,-0.27,-90.45,2.53,1.11,9.01,2.9,-0.2,-46.4
194012,1196,1196,1196,1196,0.34,650,11.90,6.08,-0.16,-92.75,3.42,-5.77,9.47,4.1,9.3,-44.5
194012,1196,1196,1196,1196,0.35,651,11.88,6.10,0.61,-95.00,15.58,2.75,5.62,3.9,3.1,-46.2
194012,1196,1196,1196,1196,0.31,647,11.87,6.67,-0.19,-97.20,2.77,1.61,7.03,7.1,5.9,-43.6
194012,1196,1196,1196,1196,0.35,651,11.89,6.91,0.38,-99.33,-6.35,-4.17,19.60,6.0,1.1,-43.8
194012,1196,1196,1196,1196,0.36,652,11.89,7.09,0.75,-101.49,2.97,-6.29,6.79,7.6,3.7,-43.3
194012,1196,1196,1196,1196,0.33,649,11.88,7.53,1.08,-103.62,-0.56,-1.62,8.29,5.9,3.4,-43.6
194012,1196,1196,1196,1196,0.32,648,11.87,8.08,1.36,-105.80,11.97,-0.53,5.04,4.9,1.0,-44.2
194012,1196,1196,1196,1196,0.34,650,11.89,8.03,1.18,-107.91,-10.88,-0.83,12.54,1.8,-5.8,-42.7
194012,1196,1196,1196,1196,0.36,652,11.90,8.13,1.20,-109.96,5.25,-0.43,8.44,1.3,-6.0,-40.2
194012,1196,1196,1196,1196,0.34,650,11.89,8.54,1.33,-111.98,-1.11,4.47,7.39,0.2,-2.7,-39.3
194012,1196,1196,1196,1196,0.35,651,11.86,8.27,1.17,-113.84,3.15,0.70,3.09,-2.9,2.1,-35.8
194012,1196,1196,1196,1196,0.31,647,11.88,7.99,0.58,-115.60,1.98,4.19,12.71,-4.6,-2.8,-35.0
194012,1196,1196,1196,1196,0.34,650,11.88,8.10,1.61,-117.36,-1.69,0.38,15.43,-3.8,-2.9,-36.1
194013,1196,1196,1196,1196,0.31,647,11.89,7.61,1.61,-119.09,5.34,0.51,-2.04,-3.6,8.9,-35.0
194013,1196,1196,1196,1196,0.37,653,11.88,7.64,1.76,-120.83,-0.45,-5.24,12.48,-3.1,9.3,-38.5
194013,1196,1196,1196,1196,0.33,649,11.88,7.24,2.15,-122.62,6.44,2.77,5.65,-4.6,10.4,-36.9
194013,1196,1196,1196,1196,0.36,652,11.88,7.03,2.90,-124.34,-1.79,1.28,13.10,-3.7,9.0,-36.1
