time,pwm1,pwm2,pwm3,pwm4,depth,press,voltage,roll,pitch,yaw,a_x,a_y,a_z,w_row,w_pitch,w_yaw
162530,1100,1100,1100,1100,0.00,619,12.13,6.80,0.55,69.36,-0.13,1.07,8.63,-2.3,2.9,0.1
162530,1100,1100,1100,1100,-0.02,617,12.12,6.66,0.70,69.38,-0.18,1.01,8.61,-2.7,2.4,-0.1
162530,1100,1100,1100,1100,-0.01,618,12.11,6.53,0.82,69.39,-0.18,0.99,8.59,-2.5,1.5,0.1
162530,1100,1100,1100,1100,0.01,620,12.09,6.41,0.89,69.39,-0.22,0.90,8.63,-2.0,0.5,0.0
162530,1201,1201,1201,1201,-0.04,615,12.08,6.32,0.91,69.40,-0.24,0.94,8.62,-1.6,-0.6,0.2
162530,1201,1201,1201,1201,0.06,625,11.98,6.26,0.91,69.41,-1.03,1.05,9.15,-0.9,-0.9,0.1
162530,1201,1201,1201,1201,0.05,624,11.99,6.27,0.87,69.35,-2.04,2.54,7.37,1.6,-1.8,-2.1
162530,1201,1201,1201,1201,0.06,625,11.98,6.40,0.42,69.14,2.25,-2.33,7.89,1.0,-3.4,-4.6
162531,1201,1201,1201,1201,0.05,624,11.99,6.27,0.83,68.87,-3.77,3.55,11.74,-3.6,-2.5,-6.5
162531,1201,1201,1201,1201,0.07,626,12.01,5.97,-0.72,68.47,8.34,1.43,5.86,-14.2,-7.9,-9.5
162531,1201,1201,1201,1201,0.03,622,11.97,5.44,-0.38,67.86,3.58,-2.39,2.53,-8.0,-9.3,-12.4
162531,1201,1201,1201,1201,0.08,627,11.99,4.92,-1.38,67.25,3.85,-1.33,0.65,-10.2,-8.9,-11.1
162531,1201,1201,1201,1201,0.08,628,11.97,4.61,-1.22,66.64,10.62,-0.87,5.42,-8.5,2.1,-12.2
162531,1201,1201,1201,1201,0.12,632,11.98,4.45,-0.38,66.13,-8.91,-1.96,9.59,-6.3,-3.5,-12.9
162531,1201,1201,1201,1201,0.14,634,11.98,4.14,-0.10,65.47,-1.79,3.20,14.31,-7.4,-0.6,-15.1
162531,1201,1201,1201,1201,0.10,630,11.98,3.91,1.33,64.74,-11.68,1.26,10.75,-6.9,-4.7,-13.4
162531,1201,1201,1201,1201,0.08,628,11.98,3.65,1.99,63.96,-8.02,-2.60,12.44,-3.7,1.6,-15.9
162531,1201,1201,1201,1201,0.11,631,11.97,2.94,1.69,63.09,-12.14,0.63,16.35,-5.7,-1.2,-15.9
162531,1201,1201,1201,1201,0.14,634,11.98,2.43,1.54,62.19,-10.77,0.48,14.26,-7.0,-9.9,-20.0
162531,1201,1201,1201,1201,0.10,630,11.98,1.74,0.80,61.17,-5.15,-0.25,9.15,-8.0,-8.7,-21.8
162531,1201,1201,1201,1201,0.12,632,11.98,1.35,0.93,59.99,-2.23,0.20,7.96,-7.9,1.4,-25.4
162531,1201,1201,1201,1201,0.14,634,12.00,0.69,0.22,58.76,7.38,-2.43,2.86,-5.6,0.4,-24.9
162531,1201,1201,1201,1201,0.12,632,11.98,0.42,-1.27,57.46,9.51,-0.58,1.62,-3.7,-2.6,-24.0
162531,1201,1201,1201,1201,0.17,637,11.97,0.13,-2.30,56.13,2.76,1.26,6.48,-2.1,0.0,-26.6
162531,1201,1201,1201,1201,0.15,635,11.97,0.02,-2.02,54.77,3.29,5.23,6.38,5.1,-0.5,-27.3
162531,1201,1201,1201,1201,0.15,635,11.97,0.37,-2.04,53.38,-5.32,-1.71,9.75,5.4,-6.8,-27.6
162531,1201,1201,1201,1201,0.21,641,11.98,1.02,-1.74,51.94,-14.98,2.36,15.51,5.2,-5.6,-29.0
162531,1201,1201,1201,1201,0.20,640,11.96,1.52,-1.29,50.41,0.98,-6.06,15.78,7.9,-7.6,-32.3
162532,1201,1201,1201,1201,0.17,637,11.99,1.75,-1.85,48.81,4.54,-1.36,10.88,6.7,5.3,-31.9
162532,1201,1201,1201,1201,0.16,636,11.98,2.42,-1.85,47.19,6.74,2.40,5.11,7.1,1.4,-32.5
162532,1201,1201,1201,1201,0.18,638,11.98,2.90,-1.92,45.53,-10.81,-2.91,18.48,6.0,-5.7,-34.9
162532,1201,1201,1201,1201,0.22,642,11.97,2.86,-1.18,43.85,2.19,-2.60,9.87,4.0,1.3,-34.2
162532,1201,1201,1201,1201,0.23,643,11.98,2.97,-2.28,42.24,1.19,6.34,3.54,3.0,-4.3,-31.4
162532,1201,1201,1201,1201,0.22,642,11.98,3.28,-2.74,40.69,3.55,5.21,3.06,4.9,-2.2,-31.4
162532,1201,1201,1201,1201,0.23,643,11.97,3.48,-2.26,39.17,10.15,0.11,4.18,2.9,4.5,-29.7
162532,1201,1201,1201,1201,0.21,641,11.97,3.43,-2.13,37.74,2.15,-2.14,12.58,-0.2,5.7,-29.5
162532,1201,1201,1201,1201,0.18,638,11.97,3.53,-1.87,36.24,-0.24,-1.84,7.00,1.5,7.9,-32.2
162532,1201,1201,1201,1201,0.25,645,11.98,3.67,-1.85,34.83,2.80,-0.02,7.18,0.0,6.3,-26.5
162532,1201,1201,1201,1201,0.22,642,11.98,3.60,-2.57,33.55,3.22,-2.85,5.91,1.2,5.9,-27.4
162532,1201,1201,1201,1201,0.23,643,11.98,3.89,-2.26,32.26,5.69,1.82,-3.49,1.6,5.9,-25.3
162532,1201,1201,1201,1201,0.25,646,11.98,3.96,-2.67,31.00,2.22,-3.75,13.57,5.0,4.2,-22.5
162532,1201,1201,1201,1201,0.28,649,11.96,4.47,-1.82,29.82,4.86,3.18,6.54,6.8,12.6,-25.4
162532,1201,1201,1201,1201,0.27,648,11.98,4.89,-1.54,28.64,-0.09,1.20,8.22,7.0,4.9,-24.4
162532,1201,1201,1201,1201,0.26,647,11.96,5.04,-0.56,27.47,-2.11,6.00,5.40,5.7,1.5,-25.3
162532,1201,1201,1201,1201,0.23,643,11.98,5.34,0.02,26.24,4.53,-1.71,8.38,1.3,6.8,-25.0
162532,1201,1201,1201,1201,0.25,646,11.98,5.36,-0.01,24.96,1.28,-0.63,7.86,1.5,-0.7,-24.7
162532,1201,1201,1201,1201,0.30,651,11.97,5.22,0.46,23.63,-5.88,0.50,8.81,-0.1,-0.1,-25.1
162532,1201,1201,1201,1201,0.27,648,11.97,4.87,0.24,22.31,5.16,0.26,2.36,1.5,-1.6,-27.3
162533,1201,1201,1201,1201,0.29,650,11.98,4.89,-0.66,20.99,-4.16,1.14,7.00,2.4,-10.5,-27.0
162533,1201,1201,1201,1201,0.28,649,11.97,4.75,-0.70,19.63,-2.59,-0.39,7.17,-0.2,-2.2,-28.7
162533,1201,1201,1201,1201,0.29,650,11.98,4.72,0.05,18.23,-3.78,6.89,11.81,0.5,1.0,-26.4
162533,1201,1201,1201,1201,0.30,651,11.98,4.89,-0.26,16.85,-1.31,5.21,7.66,-0.1,-4.3,-27.5
162533,1201,1201,1201,1201,0.30,651,11.98,4.54,-0.30,15.40,-0.41,0.44,7.34,3.1,-2.6,-28.7
162533,1201,1201,1201,1201,0.32,653,11.97,4.65,-0.93,13.90,-2.51,3.92,18.26,1.6,-4.3,-29.8
162533,1201,1201,1201,1201,0.30,651,11.96,4.58,-1.47,12.52,4.63,-2.51,5.88,-0.1,9.9,-30.7
162533,1201,1201,1201,1201,0.29,650,11.98,4.36,-1.51,11.11,-1.75,0.80,9.02,-0.1,-0.8,-28.4
162533,1201,1201,1201,1201,0.37,658,11.98,4.52,-1.48,9.69,-7.20,1.24,10.30,-0.7,-0.2,-28.1
162533,1201,1201,1201,1201,0.28,649,11.97,4.58,-1.60,8.34,6.69,3.75,8.67,0.1,10.5,-27.3
162533,1201,1201,1201,1201,0.34,655,11.98,4.73,-0.92,6.90,-1.29,-1.00,0.85,0.1,3.5,-27.8
162533,1201,1201,1201,1201,0.33,654,11.98,4.75,-0.22,5.51,1.03,4.63,1.30,0.5,3.4,-27.3
162533,1201,1201,1201,1201,0.30,651,11.98,4.74,0.16,4.12,-4.84,-1.21,9.49,-1.0,2.0,-29.7
162533,1201,1201,1201,1201,0.34,655,11.97,4.62,-0.19,2.63,1.34,-0.56,9.08,-0.2,1.0,-30.6
162533,1201,1201,1201,1201,0.36,657,11.97,4.34,0.94,1.14,-7.36,-2.87,11.70,1.3,-2.2,-30.4
162533,1201,1201,1201,1201,0.32,653,11.98,4.00,1.38,-0.39,5.99,-5.11,4.49,1.0,3.1,-30.3
162533,1201,1201,1201,1201,0.34,655,11.97,3.87,1.75,-1.87,3.20,6.13,7.67,0.7,7.7,-28.9
162533,1201,1201,1201,1201,0.33,654,11.97,3.99,1.13,-3.29,-0.59,-1.34,6.83,1.7,7.5,-28.0
162533,1201,1201,1201,1201,0.33,654,11.97,3.70,1.40,-4.66,1.34,3.17,5.63,-1.4,6.8,-27.3
162533,1201,1201,1201,1201,0.39,660,11.97,3.77,0.96,-6.02,0.28,-3.69,1.14,3.1,7.7,-27.5
162534,1201,1201,1201,1201,0.36,657,11.97,4.03,0.10,-7.32,-6.09,3.86,16.67,-0.6,-3.7,-25.0
162534,1201,1201,1201,1201,0.36,657,11.96,3.96,0.53,-8.62,-10.28,0.00,6.54,-1.8,6.8,-24.4
162534,1201,1201,1201,1201,0.38,659,11.97,3.44,0.67,-9.91,-1.76,-1.34,1.89,0.5,2.1,-23.4
162534,1201,1201,1201,1201,0.38,659,11.96,3.38,-0.13,-11.15,2.60,-5.62,8.46,1.2,5.0,-24.7
162534,1201,1201,1201,1201,0.38,659,11.97,3.04,0.45,-12.31,-3.82,2.16,12.36,2.4,5.1,-22.9
162534,1201,1201,1201,1201,0.38,659,11.96,3.03,1.10,-13.44,-4.33,2.22,7.74,-0.5,-0.3,-25.6
162534,1201,1201,1201,1201,0.34,655,11.97,2.66,1.03,-14.47,2.48,-4.89,13.47,-0.8,0.8,-21.6
162534,1201,1201,1201,1201,0.38,659,11.95,2.21,1.23,-15.43,-12.21,6.13,13.71,0.2,-5.9,-18.4
162534,1201,1201,1201,1201,0.42,663,11.97,2.39,2.56,-16.29,-4.66,0.97,17.02,0.9,-1.0,-15.6
162534,1201,1201,1201,1201,0.38,659,11.98,2.34,3.37,-17.08,-3.69,-0.49,7.36,0.7,-0.5,-13.4
162534,1201,1201,1201,1201,0.41,662,11.97,2.19,2.55,-17.77,0.06,-2.86,4.97,1.3,3.5,-11.8
162534,1201,1201,1201,1201,0.38,659,11.97,2.15,3.63,-18.35,-1.79,4.79,8.58,1.3,4.6,-11.7
162534,1201,1201,1201,1201,0.35,656,11.98,1.98,3.65,-18.93,17.13,-2.22,1.78,2.3,2.1,-12.4
162534,1201,1201,1201,1201,0.41,662,11.97,1.77,3.15,-19.43,-2.62,1.59,-0.06,1.8,-4.5,-11.2
162534,1201,1201,1201,1201,0.42,663,11.96,2.09,2.67,-19.89,1.54,-5.08,12.87,4.4,4.2,-8.2
162534,1201,1201,1201,1201,0.39,660,11.98,2.37,3.30,-20.28,0.41,-3.38,12.78,1.0,3.6,-6.5
162534,1201,1201,1201,1201,0.41,662,11.95,2.29,1.91,-20.64,-0.42,-1.94,5.17,1.2,-0.4,-6.6
162534,1201,1201,1201,1201,0.42,664,11.96,2.35,1.54,-20.98,-9.62,1.31,16.28,1.3,-0.9,-6.8
162534,1201,1201,1201,1201,0.42,664,11.96,2.85,1.95,-21.35,-8.32,0.81,11.39,4.7,4.0,-7.2
162534,1201,1201,1201,1201,0.39,660,11.97,2.91,2.90,-21.68,-10.04,-2.69,11.70,3.1,-3.4,-6.2
162535,1201,1201,1201,1201,0.42,663,11.98,2.80,2.86,-22.00,0.56,-4.06,11.09,2.8,1.0,-6.9
162535,1201,1201,1201,1201,0.42,664,11.96,2.94,3.66,-22.31,3.48,-0.44,6.20,3.7,8.1,-4.5
162535,1201,1201,1201,1201,0.42,663,11.96,2.99,3.49,-22.58,-10.05,1.01,16.23,7.0,-3.4,-4.4
162535,1201,1201,1201,1201,0.43,665,11.95,3.47,3.94,-22.69,5.11,-2.94,3.73,8.9,-4.9,-1.9
162535,1201,1201,1201,1201,0.41,662,11.97,3.81,3.12,-22.76,10.76,-2.21,-0.03,8.3,8.7,-2.0
162535,1201,1201,1201,1201,0.44,666,11.96,3.97,2.03,-22.77,0.41,0.47,6.61,6.7,-5.9,-0.4
162535,1201,1201,1201,1201,0.42,664,11.96,4.40,1.91,-22.77,-3.33,-0.54,9.38,2.1,2.9,1.2
162535,1201,1201,1201,1201,0.41,662,11.97,4.57,2.59,-22.73,-5.29,1.88,14.32,0.0,1.0,1.3
162535,1201,1201,1201,1201,0.42,664,11.97,4.80,2.32,-22.65,0.98,0.95,13.44,2.4,-3.5,2.9
162535,1201,1201,1201,1201,0.46,668,11.96,4.76,2.51,-22.60,7.47,-0.95,4.86,2.6,1.9,-0.4
162535,1201,1201,1201,1201,0.44,666,11.96,5.06,2.48,-22.63,-8.49,1.78,6.10,6.0,-2.9,-2.1
162535,1201,1201,1201,1201,0.45,667,11.96,5.48,3.09,-22.55,13.28,-4.56,3.70,5.2,3.3,1.4
162535,1201,1201,1201,1201,0.42,664,11.97,5.62,1.43,-22.42,-4.01,4.80,11.02,1.8,-7.1,3.1
162535,1201,1201,1201,1201,0.39,660,11.97,5.90,2.18,-22.35,-9.83,-2.63,7.21,0.7,5.6,2.3
162535,1201,1201,1201,1201,0.40,661,11.95,5.66,1.34,-22.20,1.92,-1.46,5.77,0.5,1.8,6.3
162535,1201,1201,1201,1201,0.42,663,11.95,5.65,0.95,-22.03,1.92,0.85,9.60,1.0,-1.8,4.7
162535,1201,1201,1201,1201,0.44,666,11.96,5.63,0.59,-21.84,11.29,-4.56,6.34,1.0,13.5,2.7
162535,1201,1201,1201,1201,0.42,664,11.97,5.47,1.11,-21.67,10.95,-0.55,-0.58,3.4,4.6,3.8
162535,1201,1201,1201,1201,0.43,665,11.97,5.33,0.33,-21.53,2.13,0.51,5.10,2.0,0.8,-0.1
162535,1201,1201,1201,1201,0.43,665,11.98,5.49,-0.28,-21.36,-3.64,1.28,13.29,-2.0,2.0,3.4
162536,1201,1201,1201,1201,0.42,663,11.95,5.50,0.49,-21.31,5.39,0.04,6.41,-4.0,5.4,0.4
162536,1201,1201,1201,1201,0.41,662,11.96,5.18,-0.55,-21.44,4.41,-1.00,11.30,-3.8,7.0,-0.9
162536,1201,1201,1201,1201,0.46,668,11.95,4.70,-0.42,-21.59,-15.32,-2.33,16.64,-2.5,-10.5,-2.9
162536,1201,1201,1201,1201,0.44,666,11.95,4.54,0.53,-21.84,6.64,-2.88,1.81,-3.1,9.8,-7.0
162536,1201,1201,1201,1201,0.45,667,11.97,4.30,-0.16,-22.15,13.48,-1.27,2.83,-4.3,6.4,-6.5
162536,1201,1201,1201,1201,0.43,665,11.98,3.84,-0.03,-22.43,1.56,4.04,7.62,-4.3,3.1,-6.8
162536,1201,1201,1201,1201,0.46,668,11.95,3.78,0.92,-22.86,9.16,-0.71,6.97,-5.9,10.1,-9.7
162536,1201,1201,1201,1201,0.45,667,11.97,3.38,1.43,-23.28,-9.30,-3.86,19.60,-4.3,-0.2,-8.5
162536,1201,1201,1201,1201,0.46,668,11.97,2.86,0.86,-23.74,-0.96,-2.96,10.75,-1.9,-3.6,-8.6
162536,1201,1201,1201,1201,0.44,666,11.96,2.69,0.43,-24.18,-4.29,2.16,6.24,0.3,-0.1,-11.7
162536,1201,1201,1201,1201,0.44,666,11.96,2.52,0.71,-24.73,-2.62,3.05,10.38,-0.7,2.6,-13.6
162536,1201,1201,1201,1201,0.49,671,11.96,2.46,0.58,-25.35,3.76,-2.27,1.49,-1.6,-3.1,-13.7
162536,1201,1201,1201,1201,0.48,670,11.96,1.96,-0.53,-26.04,1.91,3.20,4.26,0.7,3.0,-13.1
162536,1201,1201,1201,1201,0.44,666,11.96,2.24,-0.62,-26.77,7.88,3.70,8.28,-0.1,3.1,-12.7
162536,1201,1201,1201,1201,0.40,661,11.95,2.60,-0.68,-27.36,-19.54,2.63,13.73,1.3,-7.3,-11.4
162536,1201,1201,1201,1201,0.52,674,11.96,2.89,0.12,-28.02,6.35,-1.58,4.25,2.1,-1.6,-15.4
162536,1201,1201,1201,1201,0.43,665,11.94,2.59,-0.95,-28.77,6.91,1.56,10.39,-0.9,4.5,-15.1
162536,1201,1201,1201,1201,0.44,666,11.95,2.63,-0.54,-29.49,-8.32,1.31,12.02,-1.2,-5.9,-16.2
162536,1201,1201,1201,1201,0.43,665,11.95,2.71,0.43,-30.23,4.53,3.61,4.88,0.9,2.4,-16.5
162536,1201,1201,1201,1201,0.45,667,11.96,2.68,0.57,-30.99,3.45,-0.43,2.09,-3.2,9.5,-15.1
162537,1201,1201,1201,1201,0.43,665,11.96,2.43,-0.05,-31.72,-0.35,2.03,8.64,-2.4,-1.6,-11.5
162537,1201,1201,1201,1201,0.45,667,11.94,2.06,-0.79,-32.41,-3.95,-2.30,4.71,-3.3,0.1,-13.9
162537,1201,1201,1201,1201,0.44,666,11.96,2.05,0.05,-33.24,-1.92,0.65,11.66,-1.6,-1.2,-17.1
162537,1201,1201,1201,1201,0.43,665,11.95,1.58,0.33,-34.10,1.42,0.96,8.82,0.7,-0.9,-16.8
162537,1201,1201,1201,1201,0.42,663,11.96,1.22,0.25,-34.89,0.78,-2.25,7.91,-1.8,7.7,-17.2
162537,1201,1201,1201,1201,0.44,666,11.97,1.38,0.14,-35.66,-14.06,0.11,19.24,-1.1,-3.2,-15.6
162537,1201,1201,1201,1201,0.40,661,11.95,1.46,1.67,-36.42,-7.79,-1.89,14.63,-1.5,0.5,-13.4
162537,1201,1201,1201,1201,0.43,665,11.95,1.46,-2.07,-39.40,3.89,-0.27,8.69,4.5,-1.6,-0.9
162537,1201,1201,1201,1201,0.45,667,11.95,1.24,-3.29,-39.53,-10.23,3.23,10.38,3.7,-7.6,-3.5
162537,1201,1201,1201,1201,0.44,666,11.95,1.54,-4.00,-39.58,-5.09,-1.59,8.18,2.7,-4.6,-1.3
162537,1201,1201,1201,1201,0.42,664,11.95,1.47,-3.81,-39.57,2.81,2.73,3.19,2.2,3.0,-1.0
162537,1201,1201,1201,1201,0.45,667,11.95,1.67,-3.42,-39.58,7.18,1.12,4.26,2.1,7.7,0.5
162537,1201,1201,1201,1201,0.46,668,11.95,2.05,-3.32,-39.64,1.06,-3.49,11.24,3.2,4.0,-1.0
162537,1201,1201,1201,1201,0.42,664,11.95,2.30,-2.35,-39.57,-10.05,-3.08,15.85,1.0,4.6,4.0
162537,1201,1201,1201,1201,0.44,666,11.96,2.30,-2.14,-39.45,-0.06,2.26,6.85,5.2,3.6,3.4
162537,1201,1201,1201,1201,0.44,666,11.96,2.79,-1.68,-39.32,-2.17,0.28,13.34,5.2,3.9,3.1
162537,1201,1201,1201,1201,0.42,663,11.95,3.23,-1.15,-39.29,2.03,0.96,8.33,3.8,1.2,-1.5
162537,1201,1201,1201,1201,0.44,666,11.96,3.40,-0.80,-39.30,2.50,3.25,5.11,3.9,2.3,-1.9
162537,1201,1201,1201,1201,0.44,666,11.94,3.25,-1.23,-39.29,-2.28,5.68,0.83,3.2,0.7,-2.5
162537,1201,1201,1201,1201,0.41,662,11.94,3.13,-1.10,-39.21,3.13,3.63,1.29,1.6,-0.2,2.4
162538,1201,1201,1201,1201,0.44,666,11.96,3.13,-1.58,-39.16,3.48,-0.75,5.93,1.8,1.6,0.9
162538,1201,1201,1201,1201,0.44,666,11.95,3.40,-0.98,-39.18,8.77,0.26,4.60,-1.0,9.8,1.0
162538,1201,1201,1201,1201,0.42,663,11.96,3.33,-0.99,-39.29,3.99,0.60,1.87,1.3,1.2,-2.1
162538,1201,1201,1201,1201,0.42,664,11.94,3.14,-1.28,-39.50,-4.58,1.89,8.12,1.1,-2.6,-5.0
162538,1201,1201,1201,1201,0.43,665,11.95,3.31,-0.91,-39.77,-8.04,-2.07,11.74,2.4,2.6,-8.1
162538,1201,1201,1201,1201,0.41,662,11.96,3.48,-0.12,-40.12,-0.17,0.40,11.55,-0.1,7.5,-8.5
162538,1201,1201,1201,1201,0.40,661,11.95,3.23,0.52,-40.48,2.10,0.82,0.14,0.2,3.2,-7.3
162538,1201,1201,1201,1201,0.42,664,11.94,3.26,-0.86,-40.78,7.39,0.29,1.58,1.6,2.6,-5.3
162538,1201,1201,1201,1201,0.42,663,11.95,3.20,-0.83,-41.14,0.45,4.13,11.48,-1.5,7.9,-7.8
162538,1201,1201,1201,1201,0.39,660,11.96,3.00,-0.21,-41.59,-10.91,3.45,16.82,-1.5,-0.7,-10.5
162538,1201,1201,1201,1201,0.35,656,11.96,2.50,1.41,-42.08,14.93,-7.88,-2.00,-5.0,3.2,-9.2
162538,1201,1201,1201,1201,0.42,664,11.95,1.89,0.54,-42.57,2.75,2.69,3.94,-4.6,-0.5,-10.3
162538,1201,1201,1201,1201,0.36,657,11.96,1.65,-0.03,-43.17,7.24,2.29,5.35,-4.8,1.0,-12.1
162538,1201,1201,1201,1201,0.42,664,11.95,1.55,0.44,-43.86,1.29,-1.00,5.32,-5.9,1.3,-15.7
162538,1201,1201,1201,1201,0.42,663,11.95,1.11,1.57,-44.55,9.96,-3.09,7.64,-6.3,-2.9,-11.8
162538,1201,1201,1201,1201,0.41,662,11.95,0.47,1.05,-45.24,-2.35,-1.27,10.96,-4.0,-1.2,-13.7
162538,1201,1201,1201,1201,0.43,665,11.95,0.09,0.37,-45.92,0.39,4.31,3.85,-1.1,-4.0,-13.5
162538,1201,1201,1201,1201,0.39,660,11.96,0.13,0.75,-46.69,-2.36,4.04,9.57,-0.4,-1.7,-15.5
162538,1201,1201,1201,1201,0.42,664,11.96,0.41,0.67,-47.52,1.41,-1.31,4.13,2.0,-0.9,-18.2
162538,1201,1201,1201,1201,0.40,661,11.96,0.32,-0.14,-48.44,5.76,7.70,4.47,1.2,-2.6,-17.0
162539,1201,1201,1201,1201,0.39,660,11.95,0.54,-0.09,-49.34,12.51,-8.02,4.54,0.2,-1.6,-17.6
162539,1201,1201,1201,1201,0.40,661,11.95,0.20,-1.52,-50.38,9.54,0.14,10.89,4.3,7.7,-22.2
162539,1201,1201,1201,1201,0.39,660,11.93,0.59,-0.42,-51.41,-11.54,-1.64,19.28,2.9,0.3,-19.3
162539,1201,1201,1201,1201,0.39,660,11.96,0.59,-0.11,-52.27,0.18,-6.26,7.25,2.0,-3.1,-17.5
162539,1201,1201,1201,1201,0.37,658,11.94,0.52,-0.45,-53.09,-4.69,6.68,8.14,3.9,-4.9,-15.9
162539,1201,1201,1201,1201,0.39,660,11.95,0.66,-1.07,-53.82,7.67,-6.69,6.09,1.8,4.9,-12.3
162539,1201,1201,1201,1201,0.36,657,11.93,0.45,-1.09,-54.48,0.15,1.77,10.94,1.0,2.4,-12.8
162539,1201,1201,1201,1201,0.38,659,11.94,0.64,-1.06,-55.23,-1.74,-0.92,6.87,1.2,-3.4,-11.7
162539,1201,1201,1201,1201,0.34,655,11.96,0.50,-1.20,-55.98,-1.00,-0.43,9.08,0.4,-6.9,-17.5
162539,1201,1201,1201,1201,0.36,657,11.96,0.23,-0.88,-56.67,-5.41,0.72,11.98,-0.4,-4.8,-12.6
162539,1201,1201,1201,1201,0.39,660,11.96,0.42,-0.82,-57.24,4.52,-3.58,6.52,1.2,-5.6,-10.5
162539,1201,1201,1201,1201,0.35,656,11.94,0.10,-1.84,-57.67,5.40,-0.58,6.14,1.5,-3.7,-6.5
162539,1201,1201,1201,1201,0.30,651,11.95,0.24,-1.97,-57.94,-1.76,-2.47,9.64,2.9,-2.9,-4.1
162539,1201,1201,1201,1201,0.35,656,11.96,0.22,-1.94,-58.14,11.11,-1.29,8.12,1.8,-0.1,-3.4
162539,1201,1201,1201,1201,0.36,657,11.96,0.40,-2.84,-58.26,0.33,4.45,6.51,3.5,-3.3,-2.6
162539,1201,1201,1201,1201,0.31,652,11.94,0.58,-2.95,-58.35,1.17,0.38,1.83,4.2,-8.1,-1.0
162539,1201,1201,1201,1201,0.35,656,11.95,0.52,-3.16,-58.33,-7.46,4.97,13.63,4.8,-4.0,2.3
162539,1201,1201,1201,1201,0.31,652,11.94,0.53,-2.94,-58.23,8.46,-1.79,6.26,6.3,-3.8,5.0
162539,1201,1201,1201,1201,0.34,655,11.97,0.57,-2.98,-58.16,-2.78,4.21,11.52,3.1,-4.1,1.5
162539,1201,1201,1201,1201,0.34,655,11.96,0.85,-3.40,-58.04,12.87,-1.97,-1.63,-1.4,4.1,3.9
162540,1201,1201,1201,1201,0.32,653,11.96,0.81,-4.03,-57.83,11.24,1.59,-2.18,-5.5,8.1,3.5
162540,1201,1201,1201,1201,0.34,655,11.95,0.66,-3.76,-57.63,7.08,-5.12,1.99,-4.8,13.4,3.7
162540,1201,1201,1201,1201,0.32,653,11.94,0.13,-4.70,-57.22,-1.20,3.83,9.11,-7.2,5.1,9.5
162540,1201,1201,1201,1201,0.32,653,11.96,-0.22,-4.24,-56.89,4.72,-1.37,8.31,-4.0,9.6,7.2
162540,1201,1201,1201,1201,0.25,646,11.95,-0.30,-3.17,-56.61,-5.20,5.27,11.07,-4.7,3.0,8.2
162540,1201,1201,1201,1201,0.28,649,11.95,-0.19,-2.05,-56.25,-6.47,-4.02,7.70,-1.1,7.9,5.9
162540,1201,1201,1201,1201,0.29,650,11.94,-0.72,-2.14,-55.88,-1.10,-2.05,14.22,-1.8,15.5,7.3
