time,pwm1,pwm2,pwm3,pwm4,depth,press,voltage,roll,pitch,yaw,a_x,a_y,a_z,w_row,w_pitch,w_yaw
151630,1100,1100,1100,1100,0.02,609,12.07,6.46,1.26,-138.79,-0.14,0.87,8.63,-0.5,0.1,-0.1
151630,1100,1100,1100,1100,-0.03,604,12.07,6.44,1.28,-138.80,-0.22,0.96,8.68,-0.1,0.2,-0.2
151630,1100,1100,1100,1100,-0.01,606,12.05,6.44,1.30,-138.80,-0.40,1.06,8.67,0.5,0.9,0.2
151630,1100,1100,1100,1100,-0.02,605,12.05,6.37,1.00,-138.79,6.95,2.18,2.89,-0.9,7.8,-1.6
151631,1201,1201,1201,1201,-0.05,602,11.99,6.15,1.32,-138.78,-2.89,-0.89,11.27,-6.4,13.2,-1.1
151631,1201,1201,1201,1201,-0.04,603,11.94,5.76,1.47,-138.83,12.12,4.11,-1.94,-9.6,6.2,-2.7
151631,1201,1201,1201,1201,0.03,610,11.93,5.15,1.88,-138.99,3.73,0.50,4.59,-14.5,-9.5,-4.3
151631,1201,1201,1201,1201,0.08,616,11.93,4.81,1.53,-139.21,-4.52,-0.32,10.14,-13.5,-5.8,-3.8
151631,1201,1201,1201,1201,0.04,611,11.93,4.25,1.15,-139.56,3.56,0.28,9.25,-16.4,-6.7,-7.6
151631,1201,1201,1201,1201,0.05,612,11.92,3.55,0.71,-140.09,-4.04,0.43,1.66,-12.0,-11.5,-10.2
151631,1201,1201,1201,1201,0.10,618,11.93,2.88,-0.48,-140.60,7.92,-1.27,5.85,-8.3,-8.9,-9.6
151631,1201,1201,1201,1201,0.07,614,11.91,2.38,-1.87,-141.09,4.23,0.04,5.41,-7.4,-10.6,-11.3
151631,1201,1201,1201,1201,0.09,617,11.91,1.75,-2.58,-141.71,5.56,-0.89,6.55,-8.8,-7.2,-12.3
151631,1201,1201,1201,1201,0.12,620,11.92,1.26,-2.62,-142.40,7.73,-7.14,12.73,-7.0,-7.9,-14.8
151631,1201,1201,1201,1201,0.10,618,11.92,0.51,-3.92,-143.07,-17.94,-0.81,18.69,-6.0,-21.8,-13.8
151631,1201,1201,1201,1201,0.13,621,11.93,-0.07,-3.58,-143.79,-19.60,4.32,19.60,-4.0,-14.8,-15.6
151631,1201,1201,1201,1201,0.14,622,11.93,0.04,-3.24,-144.60,-5.82,0.41,11.85,-2.4,0.4,-16.5
151631,1201,1201,1201,1201,0.09,617,11.93,0.19,-3.17,-145.48,6.90,3.12,9.69,-1.4,-4.1,-16.4
151631,1201,1201,1201,1201,0.17,625,11.93,0.16,-1.94,-146.38,-3.01,2.40,7.96,-1.3,-5.6,-17.7
151631,1201,1201,1201,1201,0.18,626,11.94,0.38,-1.57,-147.29,2.05,3.18,4.69,-2.6,-1.2,-19.4
151631,1201,1201,1201,1201,0.16,624,11.91,0.17,-1.54,-148.27,-5.34,4.62,10.40,-2.7,2.9,-19.7
151631,1201,1201,1201,1201,0.18,626,11.92,0.12,-0.67,-149.27,-6.63,-0.35,13.49,-1.5,-2.1,-21.5
151631,1201,1201,1201,1201,0.18,626,11.93,0.16,-1.00,-150.30,12.68,-2.80,3.78,-1.3,10.4,-21.4
151631,1201,1201,1201,1201,0.20,628,11.93,0.06,-1.44,-151.35,-0.27,0.65,4.51,-0.1,-0.4,-19.2
151632,1201,1201,1201,1201,0.17,625,11.91,-0.08,-1.86,-152.43,-10.58,1.86,18.27,4.1,-5.2,-19.5
151632,1201,1201,1201,1201,0.19,627,11.91,0.06,-1.75,-153.48,-4.71,-1.47,15.63,6.2,-0.7,-21.7
151632,1201,1201,1201,1201,0.20,628,11.93,0.80,-0.85,-154.55,2.81,0.24,2.86,9.0,3.5,-21.4
151632,1201,1201,1201,1201,0.23,631,11.93,1.02,-0.75,-155.62,13.82,2.45,1.91,4.5,10.6,-22.3
151632,1201,1201,1201,1201,0.23,631,11.93,1.25,-0.29,-156.77,0.42,-1.89,11.34,5.2,-1.2,-23.7
151632,1201,1201,1201,1201,0.21,629,11.93,1.60,-0.92,-157.97,-3.79,-2.74,12.84,5.5,0.1,-24.7
151632,1201,1201,1201,1201,0.25,633,11.91,1.84,-0.92,-159.17,-0.15,1.29,5.61,5.9,2.0,-23.2
151632,1201,1201,1201,1201,0.25,633,11.93,2.12,-0.84,-160.38,2.75,2.08,11.36,4.0,2.2,-23.3
151632,1201,1201,1201,1201,0.25,633,11.93,2.39,-0.90,-161.60,-0.98,-3.08,1.53,3.2,1.8,-25.1
151632,1201,1201,1201,1201,0.23,631,11.93,2.19,-1.41,-162.71,-2.58,-4.25,8.52,2.7,0.2,-23.0
151632,1201,1201,1201,1201,0.22,630,11.92,2.02,-1.44,-163.84,2.67,0.19,11.58,0.1,1.2,-23.1
151632,1201,1201,1201,1201,0.25,633,11.93,1.94,-0.75,-164.89,3.03,-0.11,5.09,-1.5,6.0,-22.0
151632,1201,1201,1201,1201,0.24,632,11.93,2.27,-0.36,-165.92,-10.45,-0.41,13.08,-1.2,2.9,-20.0
151632,1201,1201,1201,1201,0.25,634,11.92,2.40,0.66,-166.96,-2.60,0.88,9.62,-1.6,-1.8,-20.7
151632,1201,1201,1201,1201,0.28,637,11.92,2.17,0.90,-167.99,2.64,-2.28,6.76,-1.7,-2.9,-20.0
151632,1201,1201,1201,1201,0.25,634,11.93,1.84,0.68,-168.94,-2.23,0.41,6.18,0.3,-2.5,-18.6
151632,1201,1201,1201,1201,0.25,634,11.92,1.91,0.80,-169.90,-0.76,0.71,11.03,0.1,-2.5,-20.8
151632,1201,1201,1201,1201,0.24,632,11.91,1.67,0.93,-170.93,-7.38,-3.28,13.40,-1.3,-1.2,-20.3
151632,1201,1201,1201,1201,0.26,635,11.91,1.47,0.67,-171.95,4.84,3.44,7.11,-2.4,5.4,-20.1
151632,1201,1201,1201,1201,0.30,639,11.92,1.18,0.31,-172.92,-4.35,2.56,9.53,-1.6,1.7,-18.6
151633,1201,1201,1201,1201,0.28,637,11.92,1.20,0.55,-173.91,0.61,-3.51,9.49,-2.0,0.2,-20.9
151633,1201,1201,1201,1201,0.32,641,11.92,0.82,0.70,-175.01,-2.10,-4.27,14.01,0.1,-0.9,-21.1
151633,1201,1201,1201,1201,0.28,637,11.93,0.92,1.40,-176.03,-3.69,-1.59,12.71,-0.8,6.9,-19.1
151633,1201,1201,1201,1201,0.29,638,11.92,0.80,1.87,-177.06,1.59,1.32,3.44,0.9,2.6,-19.5
151633,1201,1201,1201,1201,0.31,640,11.92,0.77,1.33,-178.13,-9.16,1.29,10.92,1.5,-1.7,-21.5
151633,1201,1201,1201,1201,0.33,642,11.92,0.67,1.57,-179.26,0.91,2.38,6.57,0.7,-0.9,-22.5
151633,1201,1201,1201,1201,0.30,639,11.92,0.64,1.40,179.58,3.72,-2.54,8.12,5.2,0.2,-28.3
151633,1201,1201,1201,1201,0.31,640,11.92,0.69,0.85,178.28,7.36,2.09,7.46,0.7,6.1,-27.9
151633,1201,1201,1201,1201,0.32,641,11.92,0.70,1.07,176.97,2.98,-0.30,2.80,1.3,9.3,-26.3
151633,1201,1201,1201,1201,0.32,641,11.92,0.68,0.93,175.69,-5.66,2.15,9.05,-0.7,8.4,-25.3
151633,1201,1201,1201,1201,0.33,642,11.91,0.74,1.18,174.46,-7.47,2.39,7.68,0.0,3.7,-23.4
151633,1201,1201,1201,1201,0.36,645,11.93,0.74,1.21,173.31,2.33,-4.58,7.79,0.7,11.4,-22.2
151633,1201,1201,1201,1201,0.34,643,11.92,0.29,0.65,172.16,1.77,0.61,8.52,1.9,4.8,-22.0
151633,1201,1201,1201,1201,0.37,646,11.91,0.38,0.91,171.04,10.04,1.68,2.00,3.2,11.0,-23.3
151633,1201,1201,1201,1201,0.39,648,11.92,0.48,1.14,169.91,3.59,-2.85,-2.11,1.6,6.8,-25.1
151633,1201,1201,1201,1201,0.37,646,11.91,0.51,1.37,168.81,-15.70,1.05,19.60,0.8,0.4,-24.0
151633,1201,1201,1201,1201,0.36,645,11.91,0.67,2.68,167.65,3.45,0.85,10.70,-0.4,9.8,-23.1
151633,1201,1201,1201,1201,0.33,642,11.92,0.40,3.25,166.44,9.24,4.47,3.23,1.8,16.4,-23.3
151633,1201,1201,1201,1201,0.36,645,11.91,0.78,3.92,165.23,-18.38,3.06,19.60,0.0,7.7,-22.5
151633,1201,1201,1201,1201,0.34,643,11.91,0.75,5.09,164.01,1.80,0.65,7.08,1.3,8.1,-22.6
151634,1201,1201,1201,1201,0.36,645,11.92,0.31,4.56,162.81,9.81,-5.36,6.03,0.9,15.4,-23.3
151634,1201,1201,1201,1201,0.32,641,11.93,0.31,4.99,161.62,6.79,2.23,7.98,2.6,2.9,-23.3
151634,1201,1201,1201,1201,0.35,644,11.92,0.16,4.55,160.45,-2.45,4.56,6.94,0.7,3.7,-21.5
151634,1201,1201,1201,1201,0.39,648,11.92,0.33,4.90,159.41,-9.81,-1.11,17.22,-0.3,-4.3,-21.2
151634,1201,1201,1201,1201,0.41,650,11.92,0.11,4.74,158.40,-3.65,0.22,12.26,2.7,-0.1,-19.8
151634,1201,1201,1201,1201,0.38,647,11.91,0.04,4.71,157.53,4.56,-5.08,10.92,2.8,-0.4,-18.6
151634,1201,1201,1201,1201,0.37,646,11.91,-0.21,4.12,156.71,4.05,2.99,5.64,4.5,0.3,-15.1
151634,1201,1201,1201,1201,0.41,650,11.91,0.30,3.54,156.02,-8.71,-1.84,11.65,3.6,2.6,-15.2
151634,1201,1201,1201,1201,0.38,647,11.92,0.55,3.62,155.37,0.70,4.25,8.62,4.8,1.0,-11.7
151634,1201,1201,1201,1201,0.39,648,11.92,0.69,3.90,154.78,2.52,3.06,7.53,6.5,0.5,-9.9
151634,1201,1201,1201,1201,0.36,645,11.90,0.76,3.23,154.31,2.99,-4.23,3.68,6.5,-4.2,-8.1
151634,1201,1201,1201,1201,0.40,649,11.91,1.09,2.52,153.93,0.25,-0.45,8.04,6.3,-6.2,-8.3
151634,1201,1201,1201,1201,0.39,648,11.90,1.14,2.83,153.59,-10.34,3.55,7.79,7.0,-13.2,-7.4
151634,1201,1201,1201,1201,0.39,648,11.92,1.38,2.70,153.31,-3.23,4.34,8.47,4.0,-1.1,-5.6
151634,1201,1201,1201,1201,0.39,648,11.90,1.06,1.70,153.10,-4.43,-0.62,19.60,2.4,-1.3,-2.7
151634,1201,1201,1201,1201,0.40,649,11.91,1.38,2.72,152.94,-6.07,0.93,17.00,3.9,6.2,-2.4
151634,1201,1201,1201,1201,0.40,649,11.91,1.85,2.90,152.87,1.84,-0.67,8.12,4.0,0.5,1.5
151634,1201,1201,1201,1201,0.44,654,11.91,2.14,2.49,152.91,3.03,1.25,5.73,5.2,-3.4,1.2
151634,1201,1201,1201,1201,0.39,648,11.89,2.42,1.67,152.92,-4.74,2.93,14.15,1.6,-3.4,-0.2
151634,1201,1201,1201,1201,0.42,651,11.91,2.74,2.15,153.03,1.15,-2.54,9.11,2.7,-2.5,1.5
151635,1201,1201,1201,1201,0.39,648,11.91,3.02,1.66,153.12,-11.48,0.78,16.04,4.5,0.1,2.0
151635,1201,1201,1201,1201,0.43,653,11.90,3.26,1.65,153.36,5.23,1.00,6.65,3.5,-4.1,5.2
151635,1201,1201,1201,1201,0.42,651,11.92,3.48,1.48,153.63,1.58,0.48,13.23,4.9,1.5,5.4
151635,1201,1201,1201,1201,0.42,651,11.90,3.67,1.94,153.90,-11.80,5.54,14.49,3.8,0.7,6.2
151635,1201,1201,1201,1201,0.40,649,11.92,4.07,1.60,154.20,6.31,-2.05,6.28,1.6,6.8,6.3
151635,1201,1201,1201,1201,0.41,650,11.90,4.27,0.94,154.42,-4.23,-1.76,14.03,2.7,0.9,2.4
151635,1201,1201,1201,1201,0.41,650,11.91,4.22,0.79,154.66,-0.79,0.18,8.43,2.1,-0.8,5.5
151635,1201,1201,1201,1201,0.44,654,11.91,4.38,0.82,154.98,3.28,-0.89,6.72,-1.1,1.8,6.6
151635,1201,1201,1201,1201,0.44,654,11.92,4.50,0.93,155.35,-0.53,3.51,2.92,-2.0,-0.1,6.9
151635,1201,1201,1201,1201,0.42,652,11.90,4.53,0.74,155.75,0.43,-2.10,6.12,-2.7,0.7,7.6
151635,1201,1201,1201,1201,0.42,652,11.91,4.25,0.10,156.12,-0.79,-6.55,13.21,-1.5,0.2,6.8
151635,1201,1201,1201,1201,0.40,649,11.91,3.82,-0.16,156.55,6.76,1.19,6.78,-2.7,-0.5,8.0
151635,1201,1201,1201,1201,0.41,650,11.90,3.59,-0.57,156.92,2.02,4.21,6.49,-1.8,1.8,6.8
151635,1201,1201,1201,1201,0.39,648,11.91,3.23,-1.68,157.18,0.01,3.54,5.60,-6.6,3.8,4.0
151635,1201,1201,1201,1201,0.42,651,11.90,3.04,-0.88,157.35,-4.56,5.00,9.18,-4.0,-1.6,4.8
151635,1201,1201,1201,1201,0.46,656,11.89,2.85,-0.84,157.42,2.14,0.81,10.07,-5.7,7.1,1.9
151635,1201,1201,1201,1201,0.42,652,11.91,2.53,0.06,157.39,-0.35,-0.13,9.60,-4.5,-1.3,0.3
151635,1201,1201,1201,1201,0.42,652,11.90,2.12,0.89,157.32,2.69,-1.21,7.04,-5.9,-9.0,-1.8
151635,1201,1201,1201,1201,0.42,651,11.91,1.69,0.02,157.14,16.33,0.25,-8.20,-4.8,5.8,-4.6
151635,1201,1201,1201,1201,0.45,655,11.91,1.30,0.20,156.99,-2.19,-0.11,12.68,-5.4,-1.2,-3.1
151636,1201,1201,1201,1201,0.42,652,11.90,1.16,-0.12,156.87,-8.32,-0.49,12.62,-4.0,-3.5,-2.7
151636,1201,1201,1201,1201,0.42,651,11.91,0.78,0.17,156.71,-2.14,0.97,10.74,-5.2,3.4,-3.7
151636,1201,1201,1201,1201,0.38,647,11.90,0.89,-0.41,156.43,-7.33,-1.18,17.77,-1.7,0.5,-4.5
151636,1201,1201,1201,1201,0.44,654,11.92,0.67,-1.10,156.22,-3.19,-1.84,11.74,-1.2,-2.0,-3.9
151636,1201,1201,1201,1201,0.43,653,11.91,0.45,-1.37,156.08,0.81,1.56,9.08,0.1,0.3,-2.2
151636,1201,1201,1201,1201,0.45,655,11.90,0.61,-0.49,155.98,0.94,-0.11,12.57,0.0,-2.7,-2.6
151636,1201,1201,1201,1201,0.43,653,11.92,0.34,-1.00,155.95,-9.36,-3.08,16.05,1.4,-2.1,-1.1
151636,1201,1201,1201,1201,0.43,653,11.89,0.22,-0.45,156.00,3.70,-1.50,4.39,0.0,5.9,1.8
151636,1201,1201,1201,1201,0.44,654,11.92,-0.00,-0.00,156.13,-10.87,4.42,13.96,2.6,2.8,3.2
151636,1201,1201,1201,1201,0.44,654,11.90,0.44,1.53,156.26,17.54,-3.82,2.23,4.0,10.9,4.5
151636,1201,1201,1201,1201,0.42,652,11.91,0.74,1.25,156.40,8.95,-1.31,2.81,4.3,8.4,5.7
151636,1201,1201,1201,1201,0.42,651,11.90,0.79,1.08,156.62,4.05,3.60,5.81,4.6,7.0,4.5
151636,1201,1201,1201,1201,0.46,656,11.91,1.33,1.34,156.82,-2.42,1.43,7.37,9.8,-1.8,2.7
151636,1201,1201,1201,1201,0.44,654,11.89,1.69,1.69,157.00,-3.93,-1.40,9.95,9.0,-6.4,1.2
151636,1201,1201,1201,1201,0.47,657,11.90,2.34,1.45,157.14,7.02,2.67,6.97,7.8,6.7,2.7
151636,1201,1201,1201,1201,0.45,655,11.90,2.49,1.14,157.32,-3.14,0.60,11.60,5.7,-3.3,5.8
151636,1201,1201,1201,1201,0.47,657,11.90,2.42,1.10,157.52,-9.74,2.37,17.97,2.7,-12.1,5.1
151636,1201,1201,1201,1201,0.44,654,11.92,2.52,1.16,157.68,6.08,3.55,5.46,3.9,-7.6,3.1
151636,1201,1201,1201,1201,0.42,651,11.89,2.67,0.74,157.73,2.38,-1.62,12.59,3.9,-4.1,0.5
151636,1201,1201,1201,1201,0.42,652,11.90,3.01,0.63,157.72,-5.14,-2.30,10.44,2.6,-2.0,-1.5
151637,1201,1201,1201,1201,0.45,655,11.92,3.24,1.89,157.72,4.31,0.97,5.97,-0.2,0.4,-1.2
151637,1201,1201,1201,1201,0.42,651,11.90,3.47,0.85,157.76,-18.88,-2.92,19.60,-2.9,-7.7,0.4
151637,1201,1201,1201,1201,0.45,655,11.91,3.45,1.95,157.86,1.82,0.84,8.42,-1.3,2.7,4.7
151637,1201,1201,1201,1201,0.40,649,11.91,3.42,1.13,158.02,10.10,-4.45,8.00,-3.1,-2.7,4.4
151637,1201,1201,1201,1201,0.40,649,11.91,3.42,0.71,158.16,-4.56,3.49,11.93,-4.0,-5.3,3.1
151637,1201,1201,1201,1201,0.46,656,11.90,3.38,0.17,158.24,5.21,3.05,2.45,0.4,-1.2,-0.4
151637,1201,1201,1201,1201,0.41,650,11.90,3.04,-0.25,158.19,6.17,2.86,3.83,-0.4,-1.1,-3.1
151637,1201,1201,1201,1201,0.42,651,11.91,3.17,-0.35,158.11,-9.29,-1.23,16.85,-1.4,5.9,-0.3
151637,1201,1201,1201,1201,0.45,655,11.91,3.47,0.29,158.00,9.85,-0.09,2.93,-0.8,5.7,-2.0
151637,1201,1201,1201,1201,0.49,659,11.90,3.20,1.14,157.86,-6.89,-0.25,13.62,-3.2,-1.0,-3.8
151637,1201,1201,1201,1201,0.43,653,11.90,3.01,1.24,157.64,-13.31,2.42,16.13,-2.9,0.0,-5.1
151637,1201,1201,1201,1201,0.41,650,11.89,2.61,1.38,157.37,16.18,-0.82,-5.01,-2.6,9.7,-6.0
151637,1201,1201,1201,1201,0.45,655,11.90,2.40,1.07,157.07,-6.41,2.43,11.88,-4.6,-4.8,-8.4
151637,1201,1201,1201,1201,0.46,656,11.90,2.66,1.56,156.71,-6.91,0.11,12.04,-5.6,-1.6,-8.0
151637,1201,1201,1201,1201,0.46,656,11.90,2.36,0.93,156.36,-5.53,3.30,11.49,-6.5,-0.1,-7.5
151637,1201,1201,1201,1201,0.43,653,11.88,1.85,0.99,156.06,-1.80,3.71,8.79,-5.7,-4.6,-4.2
151637,1201,1201,1201,1201,0.41,650,11.91,1.89,0.54,155.63,-0.64,-0.22,6.57,-3.8,-7.5,-9.3
151637,1201,1201,1201,1201,0.43,653,11.88,1.72,0.71,155.33,-5.91,-3.08,16.15,-4.2,-4.1,-4.2
151637,1201,1201,1201,1201,0.42,652,11.90,1.49,1.06,155.12,-1.84,2.17,7.98,-3.7,-14.2,-5.8
151637,1201,1201,1201,1201,0.42,651,11.90,1.33,0.53,154.92,2.14,-0.09,6.83,-0.9,-4.9,-4.5
151638,1201,1201,1201,1201,0.43,653,11.90,1.17,-0.53,154.77,4.11,-2.96,7.63,-2.9,-2.4,-3.0
151638,1201,1201,1201,1201,0.44,654,11.90,1.18,-1.03,154.70,7.02,-5.97,6.52,1.2,-3.1,0.2
151638,1201,1201,1201,1201,0.41,650,11.89,0.96,-1.53,154.71,-0.10,-4.87,7.69,-0.3,4.5,-0.4
151638,1201,1201,1201,1201,0.43,653,11.90,0.77,-1.58,154.72,-16.78,-0.02,19.60,2.6,-8.4,1.1
151638,1201,1201,1201,1201,0.42,651,11.90,0.76,-0.72,154.69,3.24,-5.11,7.96,1.0,-3.9,-1.6
151638,1201,1201,1201,1201,0.42,651,11.90,0.70,-1.22,154.67,-7.08,-0.90,15.05,0.4,-5.7,0.1
151638,1201,1201,1201,1201,0.40,649,11.90,0.92,-0.67,154.68,5.70,5.03,6.21,1.0,4.0,-0.5
151638,1201,1201,1201,1201,0.42,651,11.89,1.15,-1.22,154.79,-0.91,-3.04,8.25,2.0,-0.4,2.6
151638,1201,1201,1201,1201,0.43,653,11.90,1.24,-0.78,154.87,-0.42,3.13,1.24,3.8,-3.7,1.2
151638,1201,1201,1201,1201,0.44,654,11.90,1.45,-1.66,154.97,3.37,0.39,5.12,2.4,7.1,5.0
151638,1201,1201,1201,1201,0.42,652,11.90,1.51,-1.99,155.18,0.42,3.81,10.19,3.3,-1.2,4.0
151638,1201,1201,1201,1201,0.43,653,11.89,1.64,-1.91,155.35,-9.75,3.86,11.15,1.6,-5.9,4.4
151638,1201,1201,1201,1201,0.42,651,11.90,1.92,-2.21,155.67,4.13,1.05,8.19,4.3,-4.6,6.6
151638,1201,1201,1201,1201,0.40,649,11.90,2.05,-2.81,155.95,-4.59,0.67,13.04,0.4,-0.4,5.1
151638,1201,1201,1201,1201,0.44,654,11.89,2.09,-1.82,156.33,5.34,-3.05,4.26,2.2,5.6,9.0
151638,1201,1201,1201,1201,0.42,652,11.91,2.21,-1.40,156.84,2.02,2.03,0.67,2.8,5.8,10.9
151638,1201,1201,1201,1201,0.43,653,11.90,2.48,-1.36,157.40,-3.58,0.31,7.03,4.5,-5.6,10.4
151638,1201,1201,1201,1201,0.43,653,11.91,2.42,-2.39,157.93,-19.60,-4.47,18.38,3.2,-9.7,10.6
151638,1201,1201,1201,1201,0.42,651,11.90,2.14,-1.72,158.50,2.53,4.42,7.29,4.5,2.6,10.7
151638,1201,1201,1201,1201,0.42,651,11.91,2.40,-1.97,159.01,6.02,0.80,3.64,2.6,-0.3,10.6
151639,1201,1201,1201,1201,0.42,651,11.91,2.69,-2.27,159.57,1.62,-2.78,8.36,2.3,-7.9,14.3
151639,1201,1201,1201,1201,0.38,647,11.90,2.53,-3.06,160.12,-4.96,3.29,10.68,4.9,-5.7,8.9
151639,1201,1201,1201,1201,0.42,651,11.89,3.05,-3.17,160.52,6.73,-1.10,10.29,2.3,-3.7,9.7
151639,1201,1201,1201,1201,0.40,649,11.89,3.01,-3.78,160.97,0.13,5.12,6.12,0.5,-2.0,7.3
151639,1201,1201,1201,1201,0.41,650,11.90,3.13,-4.05,161.32,13.20,-5.57,5.23,2.0,-3.6,4.9
151639,1201,1201,1201,1201,0.41,650,11.91,3.03,-4.48,161.55,-3.44,2.61,11.33,0.0,-5.1,2.4
151639,1201,1201,1201,1201,0.38,647,11.89,2.82,-4.72,161.93,-9.10,4.27,12.65,-1.3,-12.6,-1.6
151639,1201,1201,1201,1201,0.39,648,11.90,2.74,-4.52,161.76,12.38,-2.33,2.07,-2.0,2.2,-4.7
151639,1201,1201,1201,1201,0.38,647,11.90,2.37,-4.28,161.56,-0.53,0.84,9.51,-1.5,0.9,-6.0
151639,1201,1201,1201,1201,0.32,641,11.89,2.16,-4.26,161.19,0.31,1.66,7.42,-3.6,2.7,-8.9
151639,1201,1201,1201,1201,0.42,651,11.90,2.15,-4.64,160.76,12.32,-1.04,7.72,-4.3,-2.6,-9.8
151639,1201,1201,1201,1201,0.42,652,11.90,1.83,-4.10,160.18,-7.79,4.97,9.95,-2.9,-4.6,-12.1
151639,1201,1201,1201,1201,0.42,652,11.89,1.71,-3.81,159.57,2.55,-0.78,4.06,-4.3,2.8,-12.5
151639,1201,1201,1201,1201,0.40,649,11.89,1.42,-4.33,158.94,7.02,1.81,2.63,-4.6,5.6,-12.2
151639,1201,1201,1201,1201,0.45,655,11.90,1.52,-5.05,158.29,5.16,-2.82,10.11,-5.4,13.0,-13.5
151639,1201,1201,1201,1201,0.41,650,11.89,1.16,-4.69,157.72,-15.22,-4.35,16.01,-3.1,-3.1,-12.7
151639,1201,1201,1201,1201,0.42,652,11.88,0.62,-3.94,157.15,5.45,3.24,2.27,-3.8,10.3,-11.4
151639,1201,1201,1201,1201,0.39,648,11.88,0.66,-3.69,156.52,5.13,2.39,9.96,-1.8,-0.2,-12.1
151639,1201,1201,1201,1201,0.40,649,11.89,0.85,-2.83,155.90,12.09,1.07,-1.22,-3.7,10.2,-11.4
151639,1201,1201,1201,1201,0.41,650,11.90,0.52,-3.22,155.33,10.82,-6.39,-0.33,-3.7,8.9,-13.1
151640,1201,1201,1201,1201,0.40,649,11.89,0.47,-3.13,154.72,-6.41,-0.70,14.81,-3.1,3.2,-14.4
151640,1201,1201,1201,1201,0.42,651,11.88,0.27,-2.64,154.04,-2.22,0.85,9.47,-3.6,-0.1,-13.8
151640,1201,1201,1201,1201,0.39,648,11.89,0.45,-2.48,153.40,-0.54,1.87,8.26,0.2,1.6,-12.8
151640,1201,1201,1201,1201,0.39,648,11.89,0.49,-1.92,152.84,1.63,-3.24,1.87,-2.9,6.5,-9.9
151640,1201,1201,1201,1201,0.42,651,11.90,0.44,-2.31,152.31,0.32,-2.34,14.03,-0.2,2.2,-10.3
151640,1201,1201,1201,1201,0.36,645,11.88,0.45,-2.32,151.74,-4.83,-2.46,14.42,-1.3,-3.2,-11.7
151640,1201,1201,1201,1201,0.37,646,11.88,0.26,-2.59,151.26,5.82,-1.23,11.14,-2.3,0.3,-9.5
151640,1201,1201,1201,1201,0.41,650,11.89,0.25,-1.37,150.83,-6.34,0.04,14.43,-1.6,-0.4,-7.5
151640,1201,1201,1201,1201,0.40,649,11.91,0.46,-1.59,150.46,2.51,-2.61,12.33,0.2,1.3,-8.4
151640,1201,1201,1201,1201,0.38,647,11.90,0.37,-1.34,150.12,-10.65,6.04,16.97,-0.2,-4.7,-4.7
151640,1201,1201,1201,1201,0.38,647,11.88,0.56,-0.56,150.00,-17.25,1.86,15.19,-1.8,-3.4,-2.4
151640,1201,1201,1201,1201,0.40,649,11.89,0.57,0.24,149.87,4.05,-4.81,7.88,0.0,10.3,-2.0
