time,pwm1,pwm2,pwm3,pwm4,depth,press,voltage,roll,pitch,yaw,a_x,a_y,a_z,w_row,w_pitch,w_yaw
152939,1100,1100,1100,1100,-0.01,602,12.02,6.11,1.93,-126.89,-0.38,0.88,8.80,-2.3,0.5,0.1
152939,1100,1100,1100,1100,0.01,604,12.01,6.03,1.93,-126.88,-0.31,0.95,8.48,-1.0,-0.5,0.2
152939,1203,1203,1203,1203,0.01,604,12.00,6.02,1.88,-126.87,-0.31,0.90,8.84,0.1,-1.8,0.4
152939,1203,1203,1203,1203,0.03,606,11.95,6.07,1.77,-126.86,-0.29,0.90,8.64,1.2,-2.7,0.4
152939,1203,1203,1203,1203,-0.02,601,11.88,6.16,1.61,-126.85,-0.09,1.01,8.58,1.9,-3.5,0.6
152939,1203,1203,1203,1203,0.00,603,11.89,6.30,1.54,-126.83,-1.12,1.19,9.32,1.6,0.7,0.5
152939,1203,1203,1203,1203,0.04,607,11.88,6.35,2.21,-126.77,-8.80,0.56,12.69,1.2,11.2,0.0
152939,1203,1203,1203,1203,0.08,611,11.88,6.52,3.00,-126.64,9.30,-2.25,2.66,-1.5,29.8,-1.3
152939,1203,1203,1203,1203,0.06,609,11.87,6.02,4.28,-126.56,-0.70,-0.50,4.91,-11.7,18.7,-3.8
152939,1203,1203,1203,1203,0.08,612,11.88,5.28,5.14,-126.73,4.35,0.35,2.64,-13.6,-2.4,-4.2
152939,1203,1203,1203,1203,0.08,611,11.87,4.64,4.65,-127.09,0.60,0.04,11.57,-12.5,-9.5,-6.5
152939,1203,1203,1203,1203,0.10,614,11.88,3.83,5.09,-127.51,0.22,6.69,5.97,-10.0,-14.6,-5.4
152939,1203,1203,1203,1203,0.11,615,11.86,3.63,4.47,-127.80,6.35,1.32,7.31,-8.8,-14.8,-6.5
152939,1203,1203,1203,1203,0.14,618,11.88,3.09,4.15,-128.18,6.73,1.41,4.79,-8.9,-1.7,-6.8
152940,1203,1203,1203,1203,0.13,617,11.87,2.80,3.34,-128.59,-12.05,4.10,15.25,-10.0,-11.0,-8.1
152940,1203,1203,1203,1203,0.15,619,11.86,2.51,2.85,-129.04,0.55,1.00,8.14,-10.1,-10.9,-9.5
152940,1203,1203,1203,1203,0.18,622,11.88,1.94,1.47,-129.64,0.57,-6.72,10.22,-7.2,-12.9,-13.9
152940,1203,1203,1203,1203,0.18,622,11.88,1.37,0.98,-130.33,2.17,-1.15,7.20,-9.7,-5.7,-12.2
152940,1203,1203,1203,1203,0.17,621,11.88,0.82,-0.18,-131.11,-17.62,6.90,15.59,-8.2,-16.7,-16.5
152940,1203,1203,1203,1203,0.15,619,11.87,0.60,-0.11,-131.98,2.12,3.10,4.93,-7.6,-3.5,-20.7
152940,1203,1203,1203,1203,0.16,620,11.87,0.05,-1.52,-132.94,-1.60,-2.02,4.74,-6.7,-13.4,-22.1
152940,1203,1203,1203,1203,0.22,626,11.87,-0.49,-1.79,-134.05,6.08,-0.06,4.36,-7.2,-13.0,-23.8
152940,1203,1203,1203,1203,0.20,624,11.87,-1.15,-2.70,-135.25,2.54,1.34,2.66,-7.0,-5.0,-23.8
152940,1203,1203,1203,1203,0.19,623,11.87,-1.35,-2.50,-136.50,2.09,-2.67,6.10,-3.2,-12.9,-25.4
152940,1203,1203,1203,1203,0.24,628,11.88,-1.51,-3.10,-137.82,12.85,-1.53,3.88,-2.3,2.3,-26.9
152940,1203,1203,1203,1203,0.21,625,11.89,-1.58,-3.37,-139.15,-2.44,-7.25,14.16,0.4,-1.4,-27.6
152940,1203,1203,1203,1203,0.22,626,11.87,-1.55,-3.72,-140.48,3.73,-2.47,8.49,1.3,1.7,-28.0
152940,1203,1203,1203,1203,0.24,628,11.87,-1.45,-4.05,-141.85,6.57,-4.02,6.01,2.8,5.7,-27.3
152940,1203,1203,1203,1203,0.21,625,11.88,-1.22,-3.17,-143.26,-3.80,4.88,8.31,6.7,4.3,-30.3
152940,1203,1203,1203,1203,0.22,626,11.87,-0.74,-3.24,-144.73,-9.76,1.74,13.99,5.2,1.0,-28.9
152940,1203,1203,1203,1203,0.27,632,11.86,-0.57,-2.79,-146.07,0.12,-2.94,8.00,6.3,4.3,-26.7
152940,1203,1203,1203,1203,0.23,627,11.87,-0.22,-3.16,-147.39,-4.47,-3.90,7.37,6.3,5.8,-25.0
152940,1203,1203,1203,1203,0.26,631,11.87,0.14,-2.40,-148.59,8.58,-2.63,6.59,8.2,1.6,-21.5
152940,1203,1203,1203,1203,0.27,632,11.87,0.32,-2.52,-149.69,13.79,-1.53,-0.50,3.7,17.0,-22.6
152941,1203,1203,1203,1203,0.27,632,11.89,0.66,-3.13,-150.76,-7.13,-3.12,19.13,2.7,4.4,-19.2
152941,1203,1203,1203,1203,0.25,630,11.86,0.71,-3.02,-151.72,6.67,3.09,10.67,0.2,6.9,-18.1
152941,1203,1203,1203,1203,0.25,630,11.87,0.66,-2.95,-152.65,-6.31,-0.41,9.65,0.7,10.1,-19.3
152941,1203,1203,1203,1203,0.29,634,11.88,0.62,-2.70,-153.55,-12.40,-5.23,14.70,0.5,3.5,-18.5
152941,1203,1203,1203,1203,0.25,630,11.88,0.74,-1.42,-154.36,-5.41,-0.96,10.99,2.3,1.6,-16.5
152941,1203,1203,1203,1203,0.29,634,11.87,0.76,-0.38,-155.12,-0.82,-4.20,6.86,1.0,14.2,-14.6
152941,1203,1203,1203,1203,0.30,635,11.88,1.05,-0.19,-155.83,2.90,2.29,10.00,2.0,-1.7,-12.9
152941,1203,1203,1203,1203,0.29,634,11.88,1.04,0.16,-156.46,-0.49,3.59,9.39,4.3,4.7,-10.2
152941,1203,1203,1203,1203,0.25,630,11.87,1.67,0.52,-156.97,-10.38,0.10,10.47,4.3,4.4,-9.3
152941,1203,1203,1203,1203,0.27,632,11.88,1.68,0.84,-157.39,7.49,-0.75,-0.73,5.9,0.4,-8.6
152941,1203,1203,1203,1203,0.31,636,11.86,1.51,0.19,-157.74,10.05,3.09,-3.68,7.4,3.4,-8.8
152941,1203,1203,1203,1203,0.28,633,11.87,1.67,0.41,-158.07,-10.78,1.41,13.10,4.4,0.4,-8.7
152941,1203,1203,1203,1203,0.28,633,11.87,2.01,0.81,-158.45,4.05,-1.31,9.81,6.0,4.8,-8.8
152941,1203,1203,1203,1203,0.34,639,11.87,2.58,0.90,-158.89,3.97,-6.06,8.43,4.0,2.1,-8.0
152941,1203,1203,1203,1203,0.28,633,11.86,2.35,-0.12,-159.38,-3.63,6.45,12.92,3.4,-1.1,-8.5
152941,1203,1203,1203,1203,0.32,637,11.87,2.54,-0.60,-159.80,3.60,-2.41,10.65,3.7,2.4,-7.9
152941,1203,1203,1203,1203,0.33,638,11.88,2.46,-0.69,-160.27,-1.97,-0.87,13.91,1.6,-5.7,-11.5
152941,1203,1203,1203,1203,0.28,633,11.86,2.56,-1.08,-160.85,1.56,5.51,3.47,-0.1,-4.5,-12.3
152941,1203,1203,1203,1203,0.37,642,11.86,2.52,-0.97,-161.43,2.34,-2.14,9.05,-1.6,6.3,-12.8
152941,1203,1203,1203,1203,0.33,638,11.87,2.35,-1.36,-162.04,11.39,1.36,0.63,-1.8,0.0,-11.7
152942,1203,1203,1203,1203,0.31,636,11.87,2.27,-1.68,-162.62,-10.40,3.31,16.44,-3.8,-17.2,-12.5
152942,1203,1203,1203,1203,0.36,641,11.87,1.82,-1.42,-163.34,7.53,1.46,0.17,-5.3,4.9,-16.4
152942,1203,1203,1203,1203,0.33,638,11.87,1.67,-1.79,-164.17,4.79,-4.40,13.07,-4.7,-0.4,-16.0
152942,1203,1203,1203,1203,0.32,637,11.87,1.37,-1.85,-164.99,-0.02,-1.75,8.37,-6.2,-3.2,-17.5
152942,1203,1203,1203,1203,0.33,638,11.87,1.12,-1.46,-165.85,6.04,-1.99,3.04,-2.2,1.6,-18.9
152942,1203,1203,1203,1203,0.33,638,11.86,0.85,-2.39,-166.82,6.62,3.08,3.26,-3.3,-9.6,-18.0
152942,1203,1203,1203,1203,0.34,639,11.87,0.56,-2.85,-167.76,-16.32,2.78,9.42,-2.0,-15.1,-18.6
152942,1203,1203,1203,1203,0.36,641,11.86,0.72,-1.61,-168.73,6.93,-3.00,6.18,0.2,1.2,-18.8
152942,1203,1203,1203,1203,0.36,641,11.86,0.45,-1.87,-169.63,-4.14,0.19,8.04,-1.0,-7.0,-18.3
152942,1203,1203,1203,1203,0.37,642,11.87,0.25,-2.00,-170.50,8.31,-2.89,3.12,-1.6,6.8,-17.7
152942,1203,1203,1203,1203,0.34,639,11.87,0.21,-2.80,-171.34,-0.76,3.32,5.51,2.1,-9.1,-18.0
152942,1203,1203,1203,1203,0.35,640,11.86,0.32,-2.22,-172.11,-7.17,2.58,9.75,2.4,-3.2,-15.1
152942,1203,1203,1203,1203,0.36,641,11.87,0.43,-2.19,-172.83,-4.65,-0.73,13.43,0.7,3.8,-13.5
152942,1203,1203,1203,1203,0.32,637,11.86,0.46,-1.50,-173.56,-9.11,-2.41,14.67,1.3,6.3,-12.5
152942,1203,1203,1203,1203,0.36,641,11.86,0.42,-1.60,-174.29,6.17,-2.75,3.73,2.6,5.1,-15.6
152942,1203,1203,1203,1203,0.36,641,11.86,0.40,-2.11,-174.99,-0.16,2.88,10.47,2.9,0.9,-14.3
152942,1203,1203,1203,1203,0.31,636,11.85,0.79,-2.29,-175.60,7.77,0.62,7.88,0.9,7.8,-12.2
152942,1203,1203,1203,1203,0.34,639,11.85,0.58,-2.58,-176.16,-4.60,-1.05,13.23,-0.7,8.3,-12.2
152942,1203,1203,1203,1203,0.34,639,11.86,0.54,-2.75,-176.67,5.26,1.99,7.01,0.6,3.6,-10.3
152942,1203,1203,1203,1203,0.36,641,11.86,0.45,-3.11,-177.04,4.59,-7.81,8.38,0.8,2.3,-6.8
152943,1203,1203,1203,1203,0.39,644,11.86,0.30,-2.72,-177.41,-6.32,-0.95,12.55,4.5,1.3,-5.3
152943,1203,1203,1203,1203,0.38,643,11.84,0.63,-1.68,-177.72,6.99,-2.00,7.88,2.6,7.0,-6.3
152943,1203,1203,1203,1203,0.37,642,11.86,0.72,-1.22,-177.97,-4.23,-1.41,9.89,0.5,-3.5,-3.5
152943,1203,1203,1203,1203,0.36,641,11.86,0.77,-0.47,-178.09,-3.98,3.98,8.15,4.5,-4.2,-3.1
152943,1203,1203,1203,1203,0.37,642,11.87,0.83,-1.02,-178.15,7.24,1.29,0.24,4.2,12.1,-1.6
152943,1203,1203,1203,1203,0.37,642,11.87,0.92,-0.87,-178.08,5.69,2.04,6.18,3.1,4.2,3.7
152943,1203,1203,1203,1203,0.34,639,11.86,1.41,-1.00,-177.99,4.79,-1.90,2.04,3.2,1.3,2.1
152943,1203,1203,1203,1203,0.37,642,11.88,1.55,-0.49,-177.79,-3.45,-3.67,14.81,2.0,-0.7,4.3
152943,1203,1203,1203,1203,0.34,639,11.85,1.50,0.12,-177.60,-1.18,2.12,7.76,3.2,4.5,3.8
152943,1203,1203,1203,1203,0.38,643,11.86,1.48,-0.48,-177.39,5.98,-2.00,6.61,2.3,1.4,4.8
152943,1203,1203,1203,1203,0.34,639,11.85,1.26,-0.42,-177.09,11.55,-4.00,8.71,-2.1,9.5,4.5
152943,1203,1203,1203,1203,0.36,641,11.85,1.16,-1.16,-176.80,4.93,-1.58,9.46,-1.0,5.2,5.5
152943,1203,1203,1203,1203,0.38,643,11.85,1.11,-0.73,-176.48,-9.86,-4.96,14.48,-2.0,-1.3,6.5
152943,1203,1203,1203,1203,0.34,639,11.86,0.94,-0.20,-176.15,1.85,-0.46,5.27,-0.7,4.3,7.6
152943,1203,1203,1203,1203,0.39,644,11.85,0.91,-0.40,-175.74,9.47,1.98,5.05,-1.8,5.1,8.2
152943,1203,1203,1203,1203,0.40,645,11.87,0.83,0.15,-175.29,-4.80,3.16,9.08,-4.9,-1.2,11.0
152943,1203,1203,1203,1203,0.40,645,11.85,0.80,0.82,-174.79,2.01,1.61,5.21,-2.7,7.6,9.1
152943,1203,1203,1203,1203,0.36,641,11.86,0.77,0.99,-174.35,-1.27,-1.86,12.42,-0.3,1.0,8.4
152943,1203,1203,1203,1203,0.39,644,11.86,0.71,1.44,-173.83,1.52,-0.02,8.95,1.0,10.9,11.2
152943,1203,1203,1203,1203,0.38,643,11.86,0.94,2.30,-173.26,-9.53,0.65,14.54,1.8,1.3,10.8
152944,1203,1203,1203,1203,0.39,644,11.87,1.08,2.50,-172.69,-10.51,0.29,16.57,4.0,-15.1,13.1
152944,1203,1203,1203,1203,0.40,645,11.87,1.34,2.17,-172.09,-2.58,-0.50,8.46,4.9,-5.6,10.7
152944,1203,1203,1203,1203,0.38,643,11.85,1.67,2.01,-171.61,5.28,2.42,0.24,3.6,-3.3,9.3
152944,1203,1203,1203,1203,0.38,643,11.84,2.15,1.83,-171.11,-5.71,2.17,4.91,2.1,-12.7,9.2
152944,1203,1203,1203,1203,0.37,642,11.87,2.40,1.22,-170.59,7.65,-5.05,3.53,0.0,-1.4,8.8
152944,1203,1203,1203,1203,0.37,642,11.86,2.30,1.14,-170.11,-3.36,2.08,16.49,-0.4,-5.9,12.5
152944,1203,1203,1203,1203,0.33,638,11.85,2.53,1.34,-169.54,6.25,3.72,1.81,1.3,-8.4,11.7
152944,1203,1203,1203,1203,0.36,641,11.86,2.50,0.14,-169.06,-6.76,-0.29,14.98,2.6,-6.3,10.3
152944,1203,1203,1203,1203,0.36,641,11.87,2.60,-0.13,-168.74,3.13,2.29,7.20,0.0,-3.3,6.3
152944,1203,1203,1203,1203,0.39,644,11.85,2.67,0.20,-168.49,19.20,-6.19,-3.52,0.9,3.0,2.1
152944,1203,1203,1203,1203,0.37,642,11.86,2.48,-0.56,-168.34,-12.42,2.82,17.01,-0.2,-8.2,0.2
152944,1203,1203,1203,1203,0.37,642,11.87,2.80,-0.02,-168.31,-17.05,2.88,15.60,-1.0,-8.3,-0.6
152944,1203,1203,1203,1203,0.38,643,11.85,2.90,-0.65,-168.32,-0.38,-0.07,7.06,-1.4,1.7,-1.2
152944,1203,1203,1203,1203,0.38,643,11.87,3.04,-0.80,-168.43,-18.73,1.26,19.60,-2.7,-7.4,-2.0
152944,1203,1203,1203,1203,0.36,641,11.85,3.05,-0.19,-168.70,15.62,-4.66,2.25,-4.5,13.2,-4.9
152944,1203,1203,1203,1203,0.35,640,11.86,2.57,-1.26,-169.18,8.98,5.37,3.32,-3.9,-1.6,-9.6
152944,1203,1203,1203,1203,0.36,641,11.86,2.59,-1.24,-169.80,-0.56,4.31,12.05,-5.4,1.4,-14.8
152944,1203,1203,1203,1203,0.38,643,11.84,2.26,-0.89,-170.56,-3.22,-0.46,11.53,-7.9,5.3,-17.3
152944,1203,1203,1203,1203,0.35,640,11.87,1.81,-0.59,-171.41,-1.94,1.59,12.85,-7.5,-6.4,-21.0
152944,1203,1203,1203,1203,0.36,641,11.87,1.57,-1.18,-172.34,0.53,-5.21,5.90,-8.3,5.6,-16.9
152945,1203,1203,1203,1203,0.37,642,11.86,1.18,-1.19,-173.18,-2.64,3.36,7.39,-4.0,-2.4,-16.5
152945,1203,1203,1203,1203,0.36,641,11.87,1.16,-1.29,-174.09,-2.70,2.26,14.49,-5.9,-7.1,-17.2
152945,1203,1203,1203,1203,0.39,644,11.85,0.52,-1.85,-175.00,4.64,-6.89,-0.38,-4.1,5.2,-18.7
152945,1203,1203,1203,1203,0.35,640,11.85,0.12,-1.85,-175.94,-2.77,4.65,10.81,-4.0,0.7,-18.7
152945,1203,1203,1203,1203,0.39,644,11.86,0.04,-1.94,-176.83,-11.04,-2.27,18.15,-4.0,-5.8,-17.7
152945,1203,1203,1203,1203,0.37,642,11.86,0.10,-2.08,-177.60,-5.73,-0.74,11.05,-4.7,0.5,-14.6
152945,1203,1203,1203,1203,0.40,645,11.84,-0.46,-1.89,-178.27,19.60,-1.01,-1.39,-2.4,11.9,-11.5
152945,1203,1203,1203,1203,0.37,642,11.84,-0.91,-2.14,-178.82,4.75,-2.79,5.88,-3.4,-3.3,-11.0
152945,1203,1203,1203,1203,0.35,640,11.84,-1.28,-2.66,-179.29,-2.13,-1.69,10.52,-1.7,-4.8,-8.2
152945,1203,1203,1203,1203,0.37,642,11.84,-1.50,-2.85,-179.58,6.02,-0.66,2.60,-0.9,2.9,-4.7
152945,1203,1203,1203,1203,0.35,640,11.84,-1.57,-2.90,-179.72,-2.98,0.75,5.27,2.7,-0.3,-5.0
152945,1203,1203,1203,1203,0.37,642,11.86,-1.36,-1.97,-179.88,2.27,-5.15,9.91,3.6,4.8,-2.5
152945,1203,1203,1203,1203,0.36,641,11.84,-1.26,-1.52,-179.81,13.01,-5.64,5.97,4.0,3.2,4.5
152945,1203,1203,1203,1203,0.36,641,11.86,-1.10,-1.12,-179.58,0.45,-3.32,7.33,5.1,0.5,6.2
152945,1203,1203,1203,1203,0.33,638,11.85,-1.13,-0.87,-179.28,-0.97,0.24,9.48,7.6,-3.2,7.4
152945,1203,1203,1203,1203,0.33,638,11.86,-0.96,-0.26,-178.93,1.52,1.12,7.63,5.9,7.2,7.9
152945,1203,1203,1203,1203,0.36,641,11.85,-0.77,-0.08,-178.48,1.39,0.12,8.04,8.7,8.2,8.2
152945,1203,1203,1203,1203,0.38,643,11.85,-0.21,0.82,-178.05,-10.94,-1.95,15.38,8.1,0.3,8.5
152945,1203,1203,1203,1203,0.34,639,11.85,0.29,0.49,-177.53,1.78,1.55,3.12,5.0,2.1,11.2
152945,1203,1203,1203,1203,0.31,636,11.86,0.58,-0.32,-176.87,-3.24,6.03,14.35,5.2,2.4,14.8
152946,1203,1203,1203,1203,0.33,638,11.85,1.21,-0.07,-176.07,-1.62,2.72,10.78,5.7,3.8,17.0
152946,1203,1203,1203,1203,0.38,643,11.86,1.38,-0.05,-175.29,-5.03,-1.93,12.02,3.9,3.1,17.0
152946,1203,1203,1203,1203,0.33,638,11.85,1.63,0.34,-174.48,-1.32,2.13,7.01,5.9,-0.1,15.2
152946,1203,1203,1203,1203,0.33,638,11.86,2.17,1.02,-173.66,5.03,-2.22,3.10,5.2,4.3,13.7
152946,1203,1203,1203,1203,0.37,642,11.85,2.49,1.49,-172.86,-6.54,-0.74,10.06,3.8,6.3,14.0
152946,1203,1203,1203,1203,0.34,639,11.86,2.70,1.29,-172.10,16.61,-0.15,5.72,4.4,0.0,13.5
152946,1203,1203,1203,1203,0.34,639,11.85,2.52,0.75,-171.34,1.63,-1.57,8.87,0.4,2.4,16.5
152946,1203,1203,1203,1203,0.33,638,11.86,2.60,1.01,-170.59,-1.35,2.58,11.04,2.7,-6.0,13.5
152946,1203,1203,1203,1203,0.35,640,11.85,2.74,-0.25,-169.86,-11.57,-3.76,17.65,2.0,-11.0,15.5
152946,1203,1203,1203,1203,0.32,637,11.85,2.74,0.28,-169.26,3.27,-1.99,10.47,1.2,3.1,11.8
152946,1203,1203,1203,1203,0.33,638,11.85,3.03,-0.24,-168.60,4.51,-1.23,4.90,2.0,-8.7,13.2
152946,1203,1203,1203,1203,0.35,640,11.85,3.23,-0.88,-167.96,-0.21,2.00,12.73,-0.9,-9.1,10.7
152946,1203,1203,1203,1203,0.37,642,11.85,3.48,-1.32,-167.32,4.03,0.21,2.71,-0.5,-16.7,13.7
152946,1203,1203,1203,1203,0.35,640,11.85,3.42,-1.49,-166.87,7.77,3.27,3.64,0.6,-8.0,7.4
152946,1203,1203,1203,1203,0.32,637,11.84,3.45,-2.09,-166.42,1.96,-3.17,9.58,-1.0,-0.2,8.7
152946,1203,1203,1203,1203,0.32,637,11.86,3.18,-2.27,-166.04,-8.15,5.23,13.47,-1.7,-1.3,5.4
152946,1203,1203,1203,1203,0.36,641,11.83,3.20,-2.03,-165.77,2.43,-1.88,4.64,-5.1,1.3,4.6
152946,1203,1203,1203,1203,0.33,638,11.84,2.94,-2.22,-165.59,11.00,1.62,1.95,-7.3,6.8,2.9
152946,1203,1203,1203,1203,0.33,638,11.83,2.42,-1.59,-165.40,-13.29,3.61,10.91,-11.0,2.6,2.9
152946,1203,1203,1203,1203,0.36,641,11.86,2.33,-1.42,-165.29,2.57,-0.26,7.79,-7.1,5.4,3.0
152947,1203,1203,1203,1203,0.36,641,11.85,2.01,-0.60,-165.24,-2.08,-3.51,9.64,-7.4,1.8,1.3
152947,1203,1203,1203,1203,0.31,636,11.86,1.61,-0.86,-165.25,1.58,2.34,2.69,-7.1,1.1,1.0
152947,1203,1203,1203,1203,0.34,639,11.85,1.35,-0.03,-165.21,5.93,-0.96,10.36,-9.0,13.2,-0.4
152947,1203,1203,1203,1203,0.35,640,11.84,0.89,-0.45,-165.25,-6.06,3.86,12.64,-6.8,-3.4,-2.2
152947,1203,1203,1203,1203,0.36,641,11.85,0.32,-0.19,-165.40,6.44,1.14,4.07,-5.3,0.1,-5.4
152947,1203,1203,1203,1203,0.35,640,11.85,0.06,-0.63,-165.66,-5.55,5.73,10.32,-8.2,4.5,-4.5
152947,1203,1203,1203,1203,0.30,635,11.84,-0.14,-0.59,-165.84,2.81,2.19,5.90,-7.2,-1.3,-4.8
152947,1203,1203,1203,1203,0.34,639,11.85,-0.62,-1.07,-166.10,-5.90,-3.81,11.89,-3.5,-4.7,-4.6
152947,1203,1203,1203,1203,0.32,637,11.84,-0.69,-0.44,-166.35,-0.11,-3.93,13.48,-5.0,15.7,-2.4
152947,1203,1203,1203,1203,0.36,641,11.85,-0.62,0.14,-166.52,2.75,-4.08,7.71,-0.2,-0.4,-3.2
152947,1203,1203,1203,1203,0.37,642,11.86,-1.13,0.05,-166.67,-12.47,5.58,16.25,1.3,-9.3,-3.2
152947,1203,1203,1203,1203,0.33,638,11.85,-1.02,0.70,-166.75,-9.58,-3.82,14.82,-2.5,-1.2,-2.4
152947,1203,1203,1203,1203,0.33,638,11.85,-1.07,0.59,-166.83,-1.34,1.38,12.78,-1.9,2.0,-5.2
152947,1203,1203,1203,1203,0.36,641,11.85,-1.12,1.23,-166.93,-4.28,-0.34,11.75,-1.3,-0.4,-1.4
152947,1203,1203,1203,1203,0.32,637,11.85,-1.24,0.66,-167.02,1.96,1.23,5.60,-1.3,-3.4,-1.9
152947,1203,1203,1203,1203,0.38,643,11.85,-1.12,1.30,-167.05,-2.36,2.73,10.82,-0.1,2.7,0.1
152947,1203,1203,1203,1203,0.32,637,11.85,-1.02,1.20,-167.08,5.75,-3.50,6.04,-1.1,6.5,0.3
152947,1203,1203,1203,1203,0.34,639,11.85,-1.24,1.39,-167.02,-5.06,1.34,7.64,1.8,3.4,1.5
152947,1203,1203,1203,1203,0.30,635,11.85,0.76,2.68,-164.20,-9.47,2.49,11.09,5.4,-2.7,12.3
152947,1203,1203,1203,1203,0.32,637,11.84,1.13,2.32,-163.57,0.07,2.25,10.57,3.8,-3.5,12.9
152948,1203,1203,1203,1203,0.31,636,11.83,1.19,1.93,-162.88,-1.38,-6.57,10.60,2.9,3.4,14.6
152948,1203,1203,1203,1203,0.33,638,11.85,1.27,1.95,-162.16,8.09,-4.30,2.05,3.4,-1.6,13.2
152948,1203,1203,1203,1203,0.32,637,11.84,1.36,1.28,-161.45,12.71,1.93,3.84,4.5,0.7,14.5
152948,1203,1203,1203,1203,0.28,633,11.84,1.63,1.41,-160.62,-1.54,-2.37,9.19,1.8,6.0,15.9
152948,1203,1203,1203,1203,0.33,638,11.85,1.60,2.01,-159.79,-6.26,3.03,11.28,2.6,3.6,14.9
152948,1203,1203,1203,1203,0.33,638,11.85,2.05,2.42,-159.05,13.93,3.05,-0.91,1.5,5.8,15.6
152948,1203,1203,1203,1203,0.29,634,11.85,2.29,1.83,-158.29,-4.38,2.62,12.10,1.6,-3.1,13.7
152948,1203,1203,1203,1203,0.26,631,11.84,2.40,2.13,-157.69,-4.51,0.57,18.19,1.0,-7.8,14.0
152948,1203,1203,1203,1203,0.30,635,11.83,2.71,2.04,-157.04,3.45,-6.50,6.29,-0.7,4.3,11.5
152948,1203,1203,1203,1203,0.30,635,11.85,2.44,2.22,-156.52,-0.78,-0.49,7.01,-2.9,2.1,8.1
152948,1203,1203,1203,1203,0.28,633,11.84,2.51,1.89,-156.04,-3.62,2.13,11.68,-3.9,-3.7,8.7
152948,1203,1203,1203,1203,0.30,635,11.85,2.23,2.02,-155.65,7.20,-2.63,-1.01,-1.5,4.9,7.2
152948,1203,1203,1203,1203,0.25,630,11.85,1.92,2.20,-155.28,5.81,-0.05,5.76,-1.5,1.7,8.3
152948,1203,1203,1203,1203,0.28,633,11.84,1.98,2.45,-154.94,5.38,1.09,5.51,0.4,6.7,5.9
152948,1203,1203,1203,1203,0.25,629,11.84,2.05,1.85,-154.75,3.59,-1.21,5.17,-1.5,5.0,4.0
152948,1203,1203,1203,1203,0.27,632,11.84,2.15,1.89,-154.62,7.56,-0.42,9.61,-4.0,5.1,1.8
152948,1203,1203,1203,1203,0.29,634,11.85,1.71,1.42,-154.62,6.45,0.52,5.47,-6.0,-0.4,0.2
152948,1203,1203,1203,1203,0.31,636,11.84,1.35,1.52,-154.62,1.80,2.83,9.91,-7.0,-4.9,-1.2
152948,1203,1203,1203,1203,0.27,632,11.85,1.06,1.60,-154.72,-1.44,-1.00,10.93,-7.8,0.8,-3.4
152948,1203,1203,1203,1203,0.28,633,11.85,0.99,1.30,-154.86,0.11,-0.97,7.90,-5.9,-6.1,-3.8
152949,1203,1203,1203,1203,0.26,631,11.84,0.93,2.13,-155.15,14.10,-6.15,4.14,-6.2,-4.6,-5.2
152949,1203,1203,1203,1203,0.25,630,11.86,0.28,1.08,-155.35,16.02,-2.69,-2.74,-3.6,0.1,-4.6
