time,pwm1,pwm2,pwm3,pwm4,depth,press,voltage,roll,pitch,yaw,a_x,a_y,a_z,w_row,w_pitch,w_yaw
200035,1100,1100,1100,1100,-0.05,607,12.28,6.87,0.90,56.69,-0.18,1.08,8.63,2.1,-1.5,-0.3
200035,1100,1100,1100,1100,0.04,616,12.27,6.96,0.84,56.66,-0.18,1.02,8.60,2.0,-1.0,-0.4
200035,1200,1200,1200,1200,0.00,612,12.27,7.04,0.81,56.63,2.67,0.88,6.96,1.1,-1.1,-1.2
200035,1200,1200,1200,1200,-0.01,611,12.19,7.11,1.25,56.49,1.03,-0.48,8.57,-1.0,-0.4,-3.8
200035,1200,1200,1200,1200,0.04,616,12.14,7.12,0.83,56.19,-6.05,1.18,12.40,-10.6,-2.3,-9.3
200035,1200,1200,1200,1200,-0.03,609,12.14,6.57,2.41,55.61,-5.93,6.04,5.37,-29.3,16.5,-15.4
200035,1200,1200,1200,1200,0.01,613,12.13,5.40,2.60,54.79,10.20,2.71,5.75,-28.7,15.4,-21.8
200035,1200,1200,1200,1200,-0.05,607,12.11,3.60,3.36,53.64,-6.38,-1.02,13.08,-20.9,-6.8,-20.2
200035,1200,1200,1200,1200,0.10,623,12.11,3.11,3.28,52.69,-7.51,3.17,10.58,-11.4,-11.5,-17.5
200035,1200,1200,1200,1200,0.05,617,12.12,2.50,2.41,51.77,10.37,4.73,-1.89,-6.5,-1.1,-18.1
200035,1200,1200,1200,1200,0.10,623,12.12,2.23,2.10,50.85,-1.37,3.36,11.37,-5.2,-7.6,-18.1
200035,1200,1200,1200,1200,0.09,622,12.13,2.09,1.52,49.96,10.17,-6.70,5.94,-2.3,9.0,-19.3
200035,1200,1200,1200,1200,0.08,620,12.13,1.46,1.18,48.99,15.55,-4.40,-1.76,-0.7,0.6,-21.7
200035,1200,1200,1200,1200,0.10,623,12.11,1.37,0.69,48.04,-1.62,-0.49,5.93,-0.5,-6.3,-19.8
200035,1200,1200,1200,1200,0.09,622,12.12,0.93,0.01,47.03,-15.89,2.72,9.56,-3.1,-12.9,-21.0
200035,1200,1200,1200,1200,0.16,629,12.12,0.68,-0.90,45.91,4.54,-1.44,6.79,-0.7,-4.8,-22.6
200035,1200,1200,1200,1200,0.11,624,12.10,0.44,-1.74,44.77,-1.60,4.46,11.44,-0.1,-4.3,-24.4
200035,1200,1200,1200,1200,0.14,627,12.11,0.63,-1.65,43.61,5.01,3.45,10.33,-1.2,-4.8,-23.7
200036,1200,1200,1200,1200,0.17,630,12.11,0.92,-1.84,42.44,2.44,4.19,5.22,0.8,-8.9,-23.3
200036,1200,1200,1200,1200,0.15,628,12.11,1.18,-2.15,41.24,-4.48,0.38,10.91,0.0,-9.6,-24.2
200036,1200,1200,1200,1200,0.20,633,12.11,1.46,-0.91,39.93,-3.81,-0.01,11.14,0.0,3.4,-26.4
200036,1200,1200,1200,1200,0.11,624,12.12,1.80,0.01,38.57,1.82,-0.62,1.82,2.9,-4.9,-27.8
200036,1200,1200,1200,1200,0.16,629,12.12,1.70,0.39,37.17,9.45,0.49,4.36,2.3,1.3,-27.3
200036,1200,1200,1200,1200,0.19,632,12.08,1.60,-0.08,35.82,2.95,-4.67,14.69,2.4,13.1,-26.4
200036,1200,1200,1200,1200,0.17,630,12.13,1.40,-0.12,34.51,-8.68,0.53,18.13,4.3,2.7,-26.0
200036,1200,1200,1200,1200,0.20,633,12.12,1.80,0.30,33.26,0.60,2.24,6.63,4.6,0.6,-24.4
200036,1200,1200,1200,1200,0.19,632,12.11,1.78,-0.20,32.00,-12.70,-0.93,14.17,4.9,-5.3,-25.3
200036,1200,1200,1200,1200,0.25,638,12.09,1.99,0.22,30.72,0.70,1.84,7.07,2.5,6.7,-23.7
200036,1200,1200,1200,1200,0.22,635,12.10,2.37,0.59,29.57,8.61,-1.76,5.58,1.6,10.1,-23.6
200036,1200,1200,1200,1200,0.20,633,12.11,2.09,-0.15,28.55,3.54,-2.52,7.20,1.5,-3.6,-19.2
200036,1200,1200,1200,1200,0.18,631,12.09,1.79,-0.14,27.59,-8.18,0.22,14.43,0.7,0.3,-18.9
200036,1200,1200,1200,1200,0.27,641,12.13,1.90,0.41,26.61,8.63,3.69,9.50,0.2,2.3,-19.2
200036,1200,1200,1200,1200,0.23,636,12.12,1.99,0.44,25.66,-8.48,4.65,16.25,0.5,0.2,-20.4
200036,1200,1200,1200,1200,0.22,635,12.12,1.78,-0.31,24.73,-0.61,-0.50,12.27,2.6,2.2,-18.9
200036,1200,1200,1200,1200,0.26,640,12.11,1.64,-0.41,23.96,-0.46,1.72,10.80,2.7,2.7,-15.7
200036,1200,1200,1200,1200,0.25,639,12.12,1.70,-0.39,23.23,4.51,1.89,6.41,2.1,-0.9,-16.2
200036,1200,1200,1200,1200,0.24,637,12.11,1.70,-0.86,22.48,2.48,-1.67,8.64,0.4,4.8,-15.2
200036,1200,1200,1200,1200,0.29,643,12.11,1.79,-0.16,21.79,6.16,-1.66,8.26,1.7,14.7,-13.1
200037,1200,1200,1200,1200,0.23,636,12.11,1.52,-0.14,21.14,1.03,2.76,1.73,0.7,4.8,-13.2
200037,1200,1200,1200,1200,0.22,635,12.11,1.26,-0.16,20.55,-8.39,0.72,9.30,1.1,-0.5,-10.6
200037,1200,1200,1200,1200,0.29,643,12.10,1.08,0.69,20.01,4.89,0.70,5.29,2.4,-2.5,-12.6
200037,1200,1200,1200,1200,0.30,644,12.11,1.44,1.01,19.40,18.49,-4.38,5.52,0.6,12.4,-12.3
200037,1200,1200,1200,1200,0.26,640,12.11,1.36,0.66,18.76,4.29,-2.75,5.35,0.2,4.2,-13.0
200037,1200,1200,1200,1200,0.30,644,12.11,1.32,0.52,18.10,-0.29,-0.28,10.91,2.2,-4.5,-12.4
200037,1200,1200,1200,1200,0.27,641,12.12,1.23,0.69,17.45,-1.67,6.65,2.80,1.7,1.5,-12.9
200037,1200,1200,1200,1200,0.31,645,12.11,1.08,0.75,16.78,-14.60,-1.54,10.77,1.2,-7.2,-12.8
200037,1200,1200,1200,1200,0.28,642,12.11,0.82,1.20,16.12,0.42,5.13,9.28,4.4,4.1,-13.5
200037,1200,1200,1200,1200,0.29,643,12.10,0.77,1.44,15.41,2.57,1.74,10.56,4.5,3.1,-14.3
200037,1200,1200,1200,1200,0.31,645,12.10,0.87,0.84,14.61,-11.50,2.60,11.05,4.2,2.0,-15.4
200037,1200,1200,1200,1200,0.29,643,12.09,1.72,0.82,13.74,4.43,-0.75,5.75,4.8,8.4,-16.0
200037,1200,1200,1200,1200,0.32,646,12.10,1.86,0.76,12.86,-2.45,-1.66,11.86,4.9,4.4,-18.7
200037,1200,1200,1200,1200,0.34,648,12.11,1.73,0.65,11.99,-7.54,-1.41,15.77,5.4,-9.5,-18.1
200037,1200,1200,1200,1200,0.28,642,12.08,1.62,0.27,11.08,9.92,-1.57,3.02,3.2,3.4,-20.0
200037,1200,1200,1200,1200,0.32,646,12.10,1.54,0.29,10.14,-2.45,-2.98,11.96,2.2,3.5,-19.1
200037,1200,1200,1200,1200,0.33,647,12.10,1.57,0.71,9.23,5.05,3.02,3.59,2.6,1.5,-18.6
200037,1200,1200,1200,1200,0.32,646,12.09,1.51,0.23,8.31,13.01,-3.24,8.58,2.7,6.8,-17.0
200037,1200,1200,1200,1200,0.30,644,12.11,1.28,-0.76,7.44,-3.83,-0.28,16.49,6.8,-4.2,-19.9
200037,1200,1200,1200,1200,0.35,649,12.10,1.66,-0.54,6.53,0.40,-0.88,8.69,6.6,-1.5,-18.9
200038,1200,1200,1200,1200,0.38,652,12.12,2.04,0.53,5.55,-4.39,2.78,15.43,1.8,10.0,-20.8
200038,1200,1200,1200,1200,0.30,644,12.11,2.19,0.29,4.56,-1.57,-0.34,6.37,0.7,9.8,-19.5
200038,1200,1200,1200,1200,0.35,649,12.10,2.30,0.53,3.57,-5.00,-1.27,9.16,1.8,7.6,-18.8
200038,1200,1200,1200,1200,0.31,645,12.11,2.19,0.24,2.59,-4.00,1.30,13.28,0.7,-1.8,-18.9
200038,1200,1200,1200,1200,0.33,647,12.11,2.37,0.92,1.58,-1.04,0.17,8.69,-0.1,3.4,-19.4
200038,1200,1200,1200,1200,0.35,649,12.09,2.52,0.24,0.57,3.91,-0.35,4.27,3.6,4.4,-19.9
200038,1200,1200,1200,1200,0.32,646,12.11,2.45,-0.06,-0.54,-9.90,-0.39,19.41,1.2,-3.7,-21.9
200038,1200,1200,1200,1200,0.37,651,12.10,2.28,0.39,-1.63,10.42,1.86,7.20,3.0,-1.4,-19.8
200038,1200,1200,1200,1200,0.38,652,12.11,2.14,0.53,-2.66,-14.10,1.99,10.14,3.5,-13.3,-21.1
200038,1200,1200,1200,1200,0.35,649,12.11,2.28,0.84,-3.75,-1.39,-0.72,8.80,1.4,0.1,-22.3
200038,1200,1200,1200,1200,0.36,650,12.11,2.25,0.72,-4.86,4.77,3.82,10.29,-0.4,-4.7,-22.5
200038,1200,1200,1200,1200,0.38,652,12.10,2.50,0.96,-6.04,-13.76,0.87,13.81,-1.8,-5.4,-24.0
200038,1200,1200,1200,1200,0.39,653,12.13,2.58,1.32,-7.24,-5.23,-0.35,9.87,-3.4,-3.4,-26.1
200038,1200,1200,1200,1200,0.36,650,12.10,2.77,0.74,-8.48,9.93,-4.71,3.67,-1.3,-1.4,-26.6
200038,1200,1200,1200,1200,0.38,652,12.11,2.34,0.62,-9.81,3.20,2.91,6.14,-1.7,-0.7,-27.0
200038,1200,1200,1200,1200,0.36,650,12.11,2.40,0.49,-11.16,4.50,-3.65,9.04,-2.0,2.0,-27.2
200038,1200,1200,1200,1200,0.40,654,12.12,2.32,0.75,-12.59,-3.88,-4.38,0.29,-3.5,4.8,-30.5
200038,1200,1200,1200,1200,0.39,653,12.13,1.98,0.52,-14.15,7.56,-6.21,14.57,-1.7,-11.2,-32.8
200038,1200,1200,1200,1200,0.41,655,12.10,1.63,-0.13,-15.73,4.00,-5.40,7.82,-2.7,-3.8,-32.9
200038,1200,1200,1200,1200,0.39,653,12.12,1.35,-0.21,-17.38,9.02,-4.60,5.00,-3.2,6.0,-33.5
200039,1200,1200,1200,1200,0.36,650,12.10,1.40,-0.33,-19.06,14.64,-1.03,-2.64,-3.6,-2.0,-33.8
200039,1200,1200,1200,1200,0.41,655,12.11,1.15,-1.05,-20.82,-2.49,-1.81,5.13,-4.6,-0.8,-35.5
200039,1200,1200,1200,1200,0.39,653,12.10,0.90,-1.51,-22.55,-3.43,2.98,13.19,-2.9,-6.7,-35.0
200039,1200,1200,1200,1200,0.40,654,12.11,0.86,-1.92,-24.31,5.74,-6.02,8.39,-3.1,-2.1,-36.1
200039,1200,1200,1200,1200,0.38,652,12.11,0.70,-2.02,-25.98,10.07,-4.68,8.43,-2.6,9.0,-32.9
200039,1200,1200,1200,1200,0.43,658,12.10,0.79,-1.49,-27.64,15.19,-4.11,3.37,0.4,13.6,-31.7
200039,1200,1200,1200,1200,0.35,649,12.11,0.76,-1.73,-29.23,1.22,-1.69,9.88,1.3,1.6,-29.5
200039,1200,1200,1200,1200,0.41,655,12.11,0.84,-1.60,-30.68,-3.99,4.54,4.84,2.4,-1.5,-26.9
200039,1200,1200,1200,1200,0.42,656,12.09,1.41,-1.68,-32.17,9.51,0.20,3.92,1.9,7.6,-29.1
200039,1200,1200,1200,1200,0.42,657,12.12,1.56,-1.30,-33.60,-2.85,-0.87,3.28,2.3,-4.3,-27.5
200039,1200,1200,1200,1200,0.43,658,12.11,1.80,-0.66,-34.94,19.60,-3.73,0.15,2.1,9.8,-27.7
200039,1200,1200,1200,1200,0.41,655,12.11,1.32,-1.64,-36.28,0.34,-1.67,9.04,-1.0,5.0,-29.0
200039,1200,1200,1200,1200,0.42,657,12.11,1.31,-1.55,-37.66,-1.15,2.87,8.13,0.4,2.0,-27.1
200039,1200,1200,1200,1200,0.42,656,12.09,1.43,-1.43,-39.06,-10.00,-3.61,11.67,2.1,-1.6,-29.6
200039,1200,1200,1200,1200,0.46,661,12.11,1.42,-1.52,-40.37,6.20,0.50,8.02,2.7,5.8,-23.9
200039,1200,1200,1200,1200,0.42,657,12.11,1.69,-1.57,-41.59,0.76,1.71,8.27,3.2,2.0,-24.0
200039,1200,1200,1200,1200,0.42,657,12.09,2.04,-0.93,-42.71,6.68,-1.14,3.80,1.7,5.5,-23.5
200039,1200,1200,1200,1200,0.45,660,12.09,1.85,-1.51,-43.78,5.30,-6.93,10.24,1.2,-2.7,-21.4
200039,1200,1200,1200,1200,0.39,653,12.08,1.65,-2.60,-44.70,0.06,-2.00,8.61,0.4,-0.7,-19.3
200039,1200,1200,1200,1200,0.39,653,12.10,1.77,-1.69,-45.57,7.96,0.09,10.00,1.3,1.2,-15.6
200040,1200,1200,1200,1200,0.40,654,12.10,1.87,-1.34,-46.34,5.30,-4.90,2.15,0.9,4.5,-13.2
200040,1200,1200,1200,1200,0.42,657,12.11,1.73,-1.30,-47.12,-1.08,-3.36,9.59,2.3,0.5,-16.2
200040,1200,1200,1200,1200,0.45,660,12.09,1.76,-1.15,-47.84,-2.14,1.11,10.42,2.6,2.2,-12.6
200040,1200,1200,1200,1200,0.42,656,12.12,2.07,-0.65,-48.52,6.38,0.83,6.58,0.5,9.0,-13.4
200040,1200,1200,1200,1200,0.42,657,12.12,2.25,-1.07,-49.14,-1.11,-0.41,3.80,1.8,0.3,-9.9
200040,1200,1200,1200,1200,0.45,660,12.11,1.80,-1.22,-49.64,11.51,1.81,1.02,-2.0,17.3,-8.1
200040,1200,1200,1200,1200,0.43,658,12.09,1.82,-1.08,-50.09,-5.04,1.03,11.48,-2.5,0.2,-7.3
200040,1200,1200,1200,1200,0.47,662,12.10,1.84,-0.78,-50.57,2.31,-3.25,5.24,-1.9,-2.9,-10.3
200040,1200,1200,1200,1200,0.42,656,12.10,1.49,-1.11,-50.97,8.50,-2.97,2.56,-3.7,9.3,-8.1
200040,1200,1200,1200,1200,0.49,664,12.09,1.31,-0.93,-51.38,5.91,-1.34,4.30,-1.0,5.1,-8.2
200040,1200,1200,1200,1200,0.45,660,12.11,0.99,0.08,-51.78,7.90,-2.20,1.10,-0.3,6.8,-8.5
200040,1200,1200,1200,1200,0.46,661,12.11,0.98,0.33,-52.20,-4.34,-2.72,12.18,-0.1,-2.4,-7.0
200040,1200,1200,1200,1200,0.44,659,12.11,0.78,0.07,-52.63,2.21,-0.20,7.39,0.2,-4.4,-8.5
200040,1200,1200,1200,1200,0.48,663,12.09,0.81,0.02,-52.93,7.04,-3.41,7.63,2.1,10.1,-7.1
200040,1200,1200,1200,1200,0.48,663,12.08,1.29,0.85,-53.23,-0.56,-0.89,12.30,2.1,7.8,-7.1
200040,1200,1200,1200,1200,0.45,660,12.08,1.30,0.32,-53.53,8.38,-0.85,3.06,3.7,-4.2,-7.4
200040,1200,1200,1200,1200,0.45,660,12.10,1.28,-0.26,-53.72,-10.10,5.13,11.67,2.4,-7.6,-6.1
200040,1200,1200,1200,1200,0.47,662,12.10,1.49,0.24,-53.94,0.30,3.69,3.49,2.4,10.1,-1.8
200040,1200,1200,1200,1200,0.48,663,12.11,1.49,0.06,-53.98,-3.44,2.98,9.83,3.4,-0.9,-0.1
200040,1200,1200,1200,1200,0.45,660,12.11,1.71,-0.02,-53.96,-4.62,-1.23,17.11,3.8,0.5,0.0
200041,1200,1200,1200,1200,0.46,661,12.10,1.72,-0.02,-53.99,-5.45,6.84,7.24,4.6,2.5,0.3
200041,1200,1200,1200,1200,0.47,662,12.08,2.35,0.72,-53.96,-6.38,0.33,14.66,2.1,4.3,-0.7
200041,1200,1200,1200,1200,0.44,659,12.10,2.48,1.23,-53.95,-8.69,1.85,8.72,0.9,0.8,-1.1
200041,1200,1200,1200,1200,0.45,660,12.08,2.42,1.29,-54.00,4.25,-0.04,9.56,-1.6,12.0,0.4
200041,1200,1200,1200,1200,0.49,664,12.09,2.43,2.07,-54.06,12.92,-0.32,5.86,0.4,13.2,-1.2
200041,1200,1200,1200,1200,0.48,663,12.08,2.52,2.78,-54.09,4.28,4.04,8.27,-0.9,3.5,1.2
200041,1200,1200,1200,1200,0.46,661,12.09,2.34,2.10,-54.08,5.30,-3.89,6.54,2.4,0.9,-1.1
200041,1200,1200,1200,1200,0.47,662,12.11,2.82,2.17,-54.11,-12.30,0.49,8.51,2.3,-7.0,0.2
200041,1200,1200,1200,1200,0.47,662,12.09,3.23,1.73,-54.09,15.69,-4.72,-0.69,3.3,17.5,1.5
200041,1200,1200,1200,1200,0.51,666,12.10,3.38,1.33,-54.09,3.74,1.64,10.10,3.4,-1.6,1.0
200041,1200,1200,1200,1200,0.48,663,12.08,3.57,0.50,-54.15,17.23,4.14,-0.17,3.4,-7.0,0.4
200041,1200,1200,1200,1200,0.47,662,12.08,3.38,-0.47,-54.17,8.29,-0.93,6.89,4.9,-8.7,-0.2
200041,1200,1200,1200,1200,0.42,657,12.09,3.51,-0.31,-54.22,-1.31,2.85,13.54,4.6,6.8,-0.9
200041,1200,1200,1200,1200,0.48,663,12.08,4.27,0.66,-54.21,9.53,-1.77,0.09,3.8,1.6,0.8
200041,1200,1200,1200,1200,0.50,665,12.11,4.15,-0.34,-54.18,-10.23,2.19,13.06,3.5,-8.2,-0.7
200041,1200,1200,1200,1200,0.49,664,12.09,4.33,0.01,-54.24,-8.10,1.95,9.52,3.5,-1.2,-1.6
200041,1200,1200,1200,1200,0.51,666,12.09,4.15,0.06,-54.30,-1.56,-2.56,8.31,1.6,-1.9,0.9
200041,1200,1200,1200,1200,0.48,663,12.09,3.84,0.24,-54.36,-3.56,3.23,9.58,1.9,2.0,-0.3
200041,1200,1200,1200,1200,0.47,662,12.09,4.28,-0.29,-54.41,-2.25,1.51,4.33,-0.7,4.5,-1.6
200041,1200,1200,1200,1200,0.49,664,12.10,4.25,-0.83,-54.45,-9.37,-0.65,16.56,-0.1,-5.7,-2.9
200042,1200,1200,1200,1200,0.52,667,12.11,4.37,-0.17,-54.46,-1.58,0.93,10.51,0.9,-3.1,-0.7
200042,1200,1200,1200,1200,0.47,662,12.11,4.76,-0.38,-54.48,-0.18,1.65,10.44,0.9,-1.0,-2.5
200042,1200,1200,1200,1200,0.48,663,12.10,4.58,-1.18,-54.56,-3.20,4.42,8.66,-1.2,-4.2,-0.1
200042,1200,1200,1200,1200,0.52,667,12.11,4.40,0.16,-54.79,12.66,2.26,1.24,-3.5,0.4,-3.2
200042,1200,1200,1200,1200,0.48,663,12.08,4.32,-0.27,-55.08,7.75,0.02,8.68,-1.8,5.9,-6.3
200042,1200,1200,1200,1200,0.49,664,12.10,3.89,0.44,-55.45,-12.29,2.55,19.60,-3.2,2.0,-7.3
200042,1200,1200,1200,1200,0.51,666,12.08,3.88,1.07,-55.88,14.53,-4.23,-2.19,-2.4,4.2,-9.8
200042,1200,1200,1200,1200,0.52,667,12.09,3.61,0.36,-56.29,10.01,3.23,5.08,-1.0,0.1,-8.5
200042,1200,1200,1200,1200,0.52,667,12.09,3.67,0.06,-56.76,-8.46,1.03,13.48,-4.0,-7.7,-9.5
200042,1200,1200,1200,1200,0.49,664,12.10,3.55,-0.48,-57.21,-1.11,-2.19,8.32,-3.1,3.4,-8.7
200042,1200,1200,1200,1200,0.52,667,12.09,3.16,-0.60,-57.72,-19.60,1.54,19.60,-2.2,-2.6,-8.3
200042,1200,1200,1200,1200,0.54,669,12.10,3.27,-0.33,-58.12,15.28,-5.44,2.98,-2.6,1.2,-8.1
200042,1200,1200,1200,1200,0.52,667,12.10,3.04,-1.21,-58.54,2.42,6.68,12.70,-1.8,-3.6,-7.6
200042,1200,1200,1200,1200,0.56,671,12.09,3.12,-1.17,-58.86,-2.46,-1.21,10.70,-1.2,-4.4,-4.9
200042,1200,1200,1200,1200,0.52,667,12.10,2.70,-1.40,-59.13,5.04,0.10,4.64,-4.7,6.8,-6.2
200042,1200,1200,1200,1200,0.48,663,12.09,2.52,-2.39,-59.38,3.62,3.82,4.37,-0.6,0.6,-5.9
200042,1200,1200,1200,1200,0.51,666,12.08,2.50,-2.44,-59.61,10.51,2.47,-1.08,-1.6,0.5,-4.9
200042,1200,1200,1200,1200,0.49,664,12.09,2.36,-2.79,-59.86,9.43,-2.89,3.02,1.6,-9.1,-7.4
200042,1200,1200,1200,1200,0.53,668,12.09,2.39,-2.48,-60.14,-10.94,6.77,15.05,-0.2,-4.4,-7.3
200042,1200,1200,1200,1200,0.51,666,12.10,2.79,-2.44,-60.42,9.87,-3.22,0.49,1.0,1.7,-5.7
200043,1200,1200,1200,1200,0.50,665,12.08,2.53,-3.14,-60.63,5.50,-4.33,3.96,1.8,11.3,-4.9
200043,1200,1200,1200,1200,0.51,666,12.09,2.38,-2.55,-60.81,7.16,-1.02,2.43,2.9,8.8,-1.2
200043,1200,1200,1200,1200,0.48,663,12.09,2.59,-2.15,-60.89,-5.10,0.11,5.69,2.9,2.1,-1.3
200043,1200,1200,1200,1200,0.53,668,12.10,2.85,-2.09,-60.93,-2.61,3.28,13.90,2.9,4.7,1.0
200043,1200,1200,1200,1200,0.48,663,12.10,2.82,-1.93,-60.90,0.13,-1.84,5.37,1.1,5.1,1.0
200043,1200,1200,1200,1200,0.50,665,12.09,2.99,-1.65,-60.73,-8.20,-0.62,10.06,2.4,1.2,3.8
200043,1200,1200,1200,1200,0.48,663,12.08,3.00,-1.19,-60.52,-8.08,1.56,12.69,4.4,3.2,3.2
200043,1200,1200,1200,1200,0.51,666,12.08,3.17,-0.49,-60.29,11.46,3.40,6.40,2.3,7.9,5.8
200043,1200,1200,1200,1200,0.51,666,12.08,3.11,-1.04,-60.00,-10.80,-0.65,11.50,0.9,-3.5,8.4
200043,1200,1200,1200,1200,0.49,664,12.08,3.24,-0.88,-59.78,3.19,-1.10,6.73,1.4,0.9,6.7
200043,1200,1200,1200,1200,0.47,662,12.09,3.10,-1.34,-59.65,-17.64,0.43,19.60,1.3,-0.4,3.4
200043,1200,1200,1200,1200,0.53,668,12.09,3.14,-1.41,-59.54,-10.61,-0.65,14.07,0.5,-5.7,3.3
200043,1200,1200,1200,1200,0.52,667,12.09,3.29,-1.50,-59.46,5.34,1.62,0.37,1.2,-3.1,-0.5
200043,1200,1200,1200,1200,0.50,665,12.09,3.54,-1.73,-59.47,-13.73,4.19,19.60,-0.7,-7.9,0.1
200043,1200,1200,1200,1200,0.54,669,12.09,3.59,-1.84,-59.43,16.65,0.57,1.53,1.3,5.6,2.8
200043,1200,1200,1200,1200,0.52,667,12.07,3.30,-2.24,-59.37,-7.49,-2.37,19.00,0.4,-1.2,-0.7
200043,1200,1200,1200,1200,0.55,670,12.08,3.80,-1.41,-59.40,-1.69,1.74,11.57,1.5,3.1,0.4
200043,1200,1200,1200,1200,0.47,662,12.08,3.63,-1.69,-59.37,7.91,0.08,7.56,-1.3,-2.1,2.8
200043,1200,1200,1200,1200,0.54,669,12.08,3.33,-2.14,-59.32,6.25,-3.74,10.62,2.7,-5.6,-0.7
200043,1200,1200,1200,1200,0.50,665,12.09,3.43,-2.37,-59.31,-2.75,-2.02,9.84,-1.8,0.7,0.5
200044,1200,1200,1200,1200,0.49,664,12.09,3.31,-1.35,-59.21,-0.98,-1.71,11.27,-2.3,3.4,3.7
200044,1200,1200,1200,1200,0.54,669,12.09,3.23,-0.99,-59.08,7.15,7.65,6.86,-3.8,4.2,2.1
200044,1200,1200,1200,1200,0.53,668,12.10,2.96,-1.67,-59.01,2.67,-2.87,9.58,-4.2,4.1,-0.9
200044,1200,1200,1200,1200,0.53,668,12.08,2.65,-1.50,-59.07,-19.60,4.22,19.60,-4.6,-4.3,-0.7
200044,1200,1200,1200,1200,0.51,666,12.08,2.41,-0.85,-59.17,-3.60,0.94,11.29,-3.2,1.6,-3.5
200044,1200,1200,1200,1200,0.54,669,12.08,2.32,-0.70,-59.28,4.68,0.52,6.46,-2.0,5.2,-2.1
200044,1200,1200,1200,1200,0.49,664,12.09,1.97,-1.12,-59.35,-1.57,2.48,12.59,-0.2,1.0,-3.7
200044,1200,1200,1200,1200,0.49,664,12.07,2.30,-0.46,-59.55,-5.32,1.91,12.27,0.9,-6.2,-5.2
200044,1200,1200,1200,1200,0.54,669,12.08,2.33,-0.00,-59.76,-1.67,-0.30,12.99,1.0,-2.6,-3.1
200044,1200,1200,1200,1200,0.55,670,12.07,1.71,-0.05,-59.95,8.92,2.62,-1.39,-0.5,2.1,-2.9
200044,1200,1200,1200,1200,0.54,669,12.09,1.96,-0.79,-60.17,-2.20,0.91,6.44,-1.6,4.6,-4.2
200044,1200,1200,1200,1200,0.52,667,12.09,2.01,-0.64,-60.35,-7.76,3.79,18.34,0.4,0.5,-3.9
200044,1200,1200,1200,1200,0.51,666,12.09,2.12,-0.24,-60.58,-8.34,-1.32,12.35,1.2,-13.5,-5.0
200044,1200,1200,1200,1200,0.54,669,12.10,1.55,-1.22,-60.78,-5.32,-1.68,17.36,0.1,-3.5,-1.4
200044,1200,1200,1200,1200,0.54,669,12.08,1.99,-0.16,-60.94,1.92,-1.45,10.60,0.4,-2.1,-0.3
200044,1200,1200,1200,1200,0.46,661,12.08,2.39,-0.21,-61.02,10.16,-1.44,5.47,0.3,10.9,-0.5
200044,1200,1200,1200,1200,0.54,669,12.10,2.29,-0.56,-61.07,-9.29,0.63,12.35,0.0,-3.2,0.1
200044,1200,1200,1200,1200,0.51,666,12.09,2.32,-0.59,-61.13,-3.11,0.50,6.35,0.4,-0.9,-2.1
200044,1200,1200,1200,1200,0.55,670,12.11,2.09,-0.37,-61.28,1.07,-0.80,8.99,-2.4,-3.5,-4.6
200044,1200,1200,1200,1200,0.54,669,12.09,2.24,-0.54,-61.59,2.42,4.86,10.26,-3.4,5.2,-6.4
