time,pwm1,pwm2,pwm3,pwm4,depth,press,voltage,roll,pitch,yaw,a_x,a_y,a_z,w_row,w_pitch,w_yaw
194453,1100,1100,1100,1100,0.01,611,12.35,7.22,1.17,-83.42,-0.16,1.09,8.52,0.4,2.6,-1.1
194453,1100,1100,1100,1100,-0.01,609,12.32,7.22,1.28,-83.46,-0.22,1.04,8.62,0.4,1.6,-1.0
194454,1200,1200,1200,1200,-0.01,609,12.31,7.22,1.34,-83.50,-0.53,1.07,8.83,-0.1,0.4,-1.2
194454,1200,1200,1200,1200,0.00,610,12.27,7.19,1.34,-83.62,1.57,1.71,4.55,-3.5,3.4,-2.6
194454,1200,1200,1200,1200,0.08,618,12.19,6.85,0.83,-83.85,0.82,0.76,14.45,-10.2,-4.5,-7.8
194454,1200,1200,1200,1200,0.04,614,12.17,6.12,1.05,-84.35,9.43,4.35,-9.87,-27.2,7.0,-11.4
194454,1200,1200,1200,1200,0.06,616,12.18,4.26,0.58,-85.07,-3.52,-2.30,16.67,-25.5,-3.1,-16.4
194454,1200,1200,1200,1200,0.07,617,12.19,3.45,1.03,-85.91,12.29,-3.35,-0.72,-13.4,1.5,-13.2
194454,1200,1200,1200,1200,0.02,612,12.18,2.83,0.01,-86.60,-4.74,1.92,1.49,-9.7,-12.8,-11.4
194454,1200,1200,1200,1200,0.08,619,12.16,2.20,-0.71,-87.26,4.05,2.14,2.09,-4.7,-0.3,-13.4
194454,1200,1200,1200,1200,0.04,614,12.17,1.97,-0.77,-87.94,9.85,-3.09,11.90,-4.9,-5.7,-14.7
194454,1200,1200,1200,1200,0.08,618,12.17,1.38,-1.43,-88.64,-5.14,0.91,9.70,-7.3,4.2,-13.0
194454,1200,1200,1200,1200,0.11,622,12.18,0.79,-1.73,-89.29,-15.47,-0.48,15.28,-6.2,-12.2,-12.0
194454,1200,1200,1200,1200,0.11,622,12.17,0.94,-1.81,-90.02,5.85,3.60,5.35,-3.6,-2.1,-13.7
194454,1200,1200,1200,1200,0.10,621,12.17,0.96,-2.24,-90.83,-3.77,2.00,10.09,-4.1,-9.5,-17.9
194454,1200,1200,1200,1200,0.13,624,12.16,0.82,-2.39,-91.72,-15.57,-1.51,19.60,-0.5,-12.9,-20.0
194454,1200,1200,1200,1200,0.16,627,12.16,0.95,-2.30,-92.65,-5.95,0.61,11.05,-0.6,-0.1,-20.0
194454,1200,1200,1200,1200,0.15,626,12.17,0.84,-2.10,-93.63,4.09,0.75,4.92,2.1,-6.3,-19.2
194454,1200,1200,1200,1200,0.13,624,12.18,1.14,-1.80,-94.65,18.40,-1.88,-1.54,-0.9,13.2,-20.2
194454,1200,1200,1200,1200,0.18,629,12.17,1.23,-2.27,-95.75,-0.77,-0.03,10.02,0.0,3.6,-22.6
194454,1200,1200,1200,1200,0.17,628,12.17,1.39,-2.05,-96.98,-3.69,-3.18,14.08,-0.9,-0.2,-25.9
194454,1200,1200,1200,1200,0.19,630,12.16,1.23,-2.18,-98.30,9.54,-2.62,9.20,-1.1,6.5,-27.8
194455,1200,1200,1200,1200,0.20,631,12.18,1.03,-2.22,-99.59,-0.95,1.23,6.23,1.8,-11.2,-27.3
194455,1200,1200,1200,1200,0.18,629,12.19,1.07,-2.26,-100.91,-16.38,-0.06,16.91,2.0,-9.9,-26.1
194455,1200,1200,1200,1200,0.22,633,12.18,1.19,-2.06,-102.25,2.82,-2.01,6.09,4.3,0.9,-25.3
194455,1200,1200,1200,1200,0.21,632,12.17,1.37,-2.65,-103.59,11.83,-0.69,7.94,4.8,18.7,-26.9
194455,1200,1200,1200,1200,0.20,631,12.16,1.56,-2.32,-104.93,-3.13,-0.20,15.30,3.0,2.6,-28.6
194455,1200,1200,1200,1200,0.20,631,12.16,1.60,-2.04,-106.30,6.31,-2.42,6.90,3.1,4.3,-29.3
194455,1200,1200,1200,1200,0.24,635,12.17,1.53,-2.28,-107.63,-7.86,-1.84,14.52,5.3,2.9,-25.6
194455,1200,1200,1200,1200,0.20,631,12.17,1.72,-1.77,-108.90,-3.38,-1.23,14.59,7.1,-6.5,-24.6
194455,1200,1200,1200,1200,0.23,634,12.17,1.96,-1.49,-110.12,2.02,-2.31,13.84,7.8,0.2,-23.9
194455,1200,1200,1200,1200,0.18,629,12.16,2.57,-1.07,-111.24,18.73,-0.65,-4.73,7.7,14.2,-23.5
194455,1200,1200,1200,1200,0.27,639,12.16,2.34,-1.43,-112.32,11.03,-1.05,6.07,6.4,7.0,-22.2
194455,1200,1200,1200,1200,0.24,635,12.17,2.71,-1.25,-113.33,-9.68,0.19,15.75,4.3,-1.5,-19.7
194455,1200,1200,1200,1200,0.26,638,12.18,2.77,-1.07,-114.29,3.03,-1.84,5.54,6.7,8.6,-17.2
194455,1200,1200,1200,1200,0.26,638,12.17,2.90,-0.94,-115.24,9.13,4.50,4.91,3.7,5.9,-16.8
194455,1200,1200,1200,1200,0.27,639,12.17,3.19,-1.25,-116.19,-0.69,-1.23,9.98,4.5,2.7,-21.1
194455,1200,1200,1200,1200,0.25,637,12.17,3.41,-1.10,-117.15,-5.75,-0.65,16.19,3.7,-5.8,-19.2
194455,1200,1200,1200,1200,0.28,640,12.16,3.58,-0.94,-118.02,5.86,1.51,10.30,1.0,8.6,-17.2
194455,1200,1200,1200,1200,0.28,640,12.17,3.65,-1.41,-118.82,-16.02,1.29,15.23,-0.8,-15.3,-16.5
194455,1200,1200,1200,1200,0.31,643,12.17,3.32,-0.87,-119.66,-8.91,-0.44,10.98,-1.1,-20.4,-15.4
194455,1200,1200,1200,1200,0.31,643,12.16,3.74,-0.73,-120.44,19.23,-3.61,0.45,1.6,4.9,-14.4
194456,1200,1200,1200,1200,0.28,640,12.15,3.54,-1.58,-121.23,2.39,-7.82,6.79,1.4,-6.9,-15.3
194456,1200,1200,1200,1200,0.30,642,12.17,3.32,-1.80,-121.98,-11.03,5.20,13.70,3.8,-11.7,-14.9
194456,1200,1200,1200,1200,0.28,640,12.17,3.40,-1.97,-122.72,11.04,3.33,0.06,2.1,2.8,-16.3
194456,1200,1200,1200,1200,0.27,639,12.16,3.51,-2.48,-123.56,0.27,5.24,15.18,1.6,-2.3,-18.1
194456,1200,1200,1200,1200,0.33,645,12.16,3.80,-2.11,-124.52,-4.46,-1.17,11.90,3.0,3.3,-20.8
194456,1200,1200,1200,1200,0.28,640,12.17,4.09,-2.06,-125.54,14.49,2.54,8.26,1.6,11.8,-20.0
194456,1200,1200,1200,1200,0.33,645,12.16,3.92,-2.34,-126.60,-3.08,-1.00,13.32,2.5,2.3,-22.5
194456,1200,1200,1200,1200,0.33,645,12.16,3.93,-2.08,-127.65,-6.02,0.64,13.69,3.5,11.5,-21.9
194456,1200,1200,1200,1200,0.36,648,12.16,4.18,-1.35,-128.68,13.86,0.92,3.46,1.4,10.5,-20.1
194456,1200,1200,1200,1200,0.35,647,12.17,4.48,-1.25,-129.66,-11.21,1.13,12.62,1.6,-5.6,-20.0
194456,1200,1200,1200,1200,0.34,646,12.15,4.32,-1.03,-130.76,-9.14,3.88,13.82,0.2,2.0,-20.9
194456,1200,1200,1200,1200,0.35,647,12.16,4.40,-0.26,-131.88,11.85,2.39,2.24,3.2,-1.0,-22.0
194456,1200,1200,1200,1200,0.37,649,12.17,4.93,-0.07,-132.97,-0.72,4.46,14.77,5.1,-1.8,-23.6
194456,1200,1200,1200,1200,0.37,649,12.17,5.08,0.50,-134.10,-5.75,2.67,14.07,0.6,4.4,-25.0
194456,1200,1200,1200,1200,0.39,651,12.16,5.28,0.50,-135.35,7.13,1.62,5.78,-0.4,-2.9,-25.1
194456,1200,1200,1200,1200,0.42,654,12.17,5.13,-0.24,-136.53,4.45,-4.67,9.00,-0.1,2.1,-22.5
194456,1200,1200,1200,1200,0.35,647,12.16,4.86,0.07,-137.71,-3.50,5.98,9.24,-1.4,5.9,-22.5
194456,1200,1200,1200,1200,0.36,648,12.17,4.91,-0.01,-138.99,10.22,4.73,2.19,-0.7,0.6,-26.2
194456,1200,1200,1200,1200,0.39,651,12.16,4.83,-0.41,-140.40,-8.41,-5.36,12.44,0.9,-0.7,-29.9
194456,1200,1200,1200,1200,0.43,656,12.17,4.29,-0.48,-141.87,1.88,-1.56,1.64,0.7,-4.9,-30.3
194457,1200,1200,1200,1200,0.37,649,12.18,4.38,-1.35,-143.31,4.87,0.88,5.67,-0.2,-2.7,-30.5
194457,1200,1200,1200,1200,0.37,649,12.17,4.68,-1.27,-144.83,-11.21,2.11,19.60,-0.9,-3.8,-29.2
194457,1200,1200,1200,1200,0.43,656,12.16,5.01,-0.78,-146.36,14.28,-1.00,0.27,1.6,7.6,-29.4
194457,1200,1200,1200,1200,0.42,654,12.17,5.01,-1.06,-147.79,1.62,-1.80,10.92,2.3,-2.6,-28.9
194457,1200,1200,1200,1200,0.43,656,12.15,4.48,-1.07,-149.30,-6.99,-0.27,10.60,5.6,-6.2,-32.3
194457,1200,1200,1200,1200,0.43,656,12.17,4.96,-0.99,-150.88,12.82,-2.55,6.44,3.2,5.2,-31.7
194457,1200,1200,1200,1200,0.42,655,12.16,4.91,-1.27,-152.49,-16.35,-0.97,19.60,4.3,-9.0,-31.1
194457,1200,1200,1200,1200,0.42,655,12.16,5.40,-1.04,-154.11,7.10,2.65,1.37,4.5,-6.5,-31.7
194457,1200,1200,1200,1200,0.42,655,12.16,5.77,-1.21,-155.65,5.39,-3.06,4.35,4.9,9.7,-28.0
194457,1200,1200,1200,1200,0.44,657,12.18,5.91,-1.23,-157.16,1.40,5.03,7.70,3.8,-9.0,-31.2
194457,1200,1200,1200,1200,0.41,653,12.15,6.48,-1.52,-158.69,17.06,2.07,-2.19,3.2,5.6,-32.3
194457,1200,1200,1200,1200,0.45,658,12.15,6.34,-2.39,-160.20,-9.36,0.76,19.33,1.5,3.1,-32.3
194457,1200,1200,1200,1200,0.42,654,12.15,6.24,-1.74,-161.68,7.57,4.31,0.20,0.6,-0.6,-29.1
194457,1200,1200,1200,1200,0.47,660,12.17,6.03,-1.45,-163.15,4.24,0.64,4.47,1.5,8.8,-30.0
194457,1200,1200,1200,1200,0.40,652,12.16,5.95,-1.31,-164.76,4.16,-1.49,9.83,3.5,1.8,-31.1
194457,1200,1200,1200,1200,0.45,658,12.17,5.67,-0.98,-166.39,13.53,-4.00,-1.67,1.6,6.4,-33.5
194457,1200,1200,1200,1200,0.42,655,12.16,5.45,-1.38,-167.98,17.72,-1.78,-5.94,2.2,2.6,-34.1
194457,1200,1200,1200,1200,0.47,660,12.17,5.16,-0.36,-169.60,8.64,2.25,5.83,-1.3,8.5,-34.1
194457,1200,1200,1200,1200,0.43,656,12.15,5.25,-1.03,-171.11,-9.91,1.88,15.70,-0.7,-1.5,-30.6
194457,1200,1200,1200,1200,0.43,656,12.17,4.97,-0.82,-172.59,-9.74,-1.86,19.58,-1.0,-3.7,-29.6
194458,1200,1200,1200,1200,0.45,658,12.15,4.95,0.43,-173.93,11.97,6.44,-1.85,1.2,15.7,-26.5
194458,1200,1200,1200,1200,0.44,657,12.16,5.33,0.24,-175.26,9.93,2.95,-0.70,2.6,3.8,-25.3
194458,1200,1200,1200,1200,0.45,658,12.17,5.41,-0.27,-176.45,-14.89,-1.02,19.60,1.3,-7.8,-24.2
194458,1200,1200,1200,1200,0.48,661,12.15,5.41,-0.00,-177.58,4.01,-2.23,7.04,0.2,5.5,-22.2
194458,1200,1200,1200,1200,0.44,657,12.16,5.05,-0.29,-178.75,-12.58,-2.55,10.56,1.1,-9.9,-23.1
194458,1200,1200,1200,1200,0.43,656,12.16,5.08,0.25,-179.95,-3.40,-2.25,8.82,2.3,-3.1,-25.3
194458,1200,1200,1200,1200,0.45,658,12.17,4.99,0.46,178.67,5.77,6.23,3.45,4.7,-2.8,-30.0
194458,1200,1200,1200,1200,0.47,660,12.15,5.01,-0.05,177.17,-11.02,0.22,19.60,2.7,-5.6,-30.3
194458,1200,1200,1200,1200,0.44,657,12.15,5.07,0.30,175.60,6.41,2.40,3.72,1.0,18.9,-32.1
194458,1200,1200,1200,1200,0.45,658,12.16,5.03,0.29,174.05,4.56,-2.49,10.39,2.1,9.9,-33.9
194458,1200,1200,1200,1200,0.47,660,12.16,5.22,0.43,172.41,7.80,-1.65,4.82,0.1,7.3,-31.2
194458,1200,1200,1200,1200,0.47,660,12.16,5.02,0.48,170.76,5.77,-0.27,4.85,-2.3,9.3,-33.7
194458,1200,1200,1200,1200,0.47,660,12.16,4.91,0.42,169.06,-0.97,2.19,7.35,-1.1,-1.2,-32.7
194458,1200,1200,1200,1200,0.44,657,12.16,4.73,0.49,167.28,-19.20,-0.42,19.60,-1.2,-12.0,-36.4
194458,1200,1200,1200,1200,0.45,658,12.15,4.47,0.04,165.52,-11.65,2.23,17.11,-2.4,-12.6,-36.9
194458,1200,1200,1200,1200,0.49,662,12.15,4.13,0.06,163.83,15.93,-2.86,-2.31,-2.8,2.5,-35.4
194458,1200,1200,1200,1200,0.48,661,12.16,3.90,0.06,162.12,9.85,3.12,9.67,-4.1,1.3,-35.9
194458,1200,1200,1200,1200,0.52,665,12.15,4.34,0.29,160.48,-2.53,1.39,13.62,-3.2,-3.7,-32.1
194458,1200,1200,1200,1200,0.49,662,12.14,3.80,0.51,158.82,-6.61,4.17,14.42,-4.6,-6.0,-31.8
194458,1200,1200,1200,1200,0.50,663,12.15,3.26,0.54,157.10,0.14,-0.52,15.10,-2.5,2.4,-32.9
194459,1200,1200,1200,1200,0.47,660,12.15,2.78,0.79,155.50,2.64,0.37,7.19,-2.9,6.0,-30.8
194459,1200,1200,1200,1200,0.49,662,12.15,2.24,0.91,153.91,-9.23,-2.25,12.10,-4.2,-1.2,-32.9
194459,1200,1200,1200,1200,0.50,663,12.17,2.11,1.27,152.39,-4.54,-1.18,13.44,-3.2,9.3,-32.8
194459,1200,1200,1200,1200,0.48,661,12.15,1.64,1.88,150.84,-19.60,-0.24,19.60,1.6,-7.1,-31.6
194459,1200,1200,1200,1200,0.47,660,12.15,1.96,2.16,149.33,-7.10,-1.80,13.14,1.8,0.1,-30.8
194459,1200,1200,1200,1200,0.52,665,12.17,1.69,2.12,147.85,2.14,-2.77,3.16,0.7,10.9,-28.1
194459,1200,1200,1200,1200,0.51,664,12.14,1.39,2.45,146.41,3.42,1.04,6.51,-1.5,9.4,-27.6
194459,1200,1200,1200,1200,0.49,662,12.13,1.22,2.37,144.98,12.13,-7.26,5.02,0.1,5.7,-27.6
194459,1200,1200,1200,1200,0.51,664,12.17,0.76,1.71,143.57,-2.58,-2.75,9.97,-0.5,2.9,-26.3
194459,1200,1200,1200,1200,0.52,665,12.17,0.79,0.97,142.27,15.71,0.76,-6.90,2.4,4.9,-24.0
194459,1200,1200,1200,1200,0.51,664,12.16,0.83,0.68,140.97,-14.15,3.41,13.45,2.2,-2.4,-26.3
194459,1200,1200,1200,1200,0.53,666,12.15,0.58,0.75,139.71,-2.59,3.84,7.82,4.8,5.3,-23.3
194459,1200,1200,1200,1200,0.50,663,12.17,0.68,0.57,138.62,1.85,-2.47,8.25,4.5,12.8,-22.6
194459,1200,1200,1200,1200,0.53,666,12.15,0.57,0.93,137.71,-10.86,-0.36,16.99,2.2,1.5,-19.7
194459,1200,1200,1200,1200,0.48,661,12.16,0.45,1.05,136.74,5.97,1.38,0.87,1.6,2.0,-19.3
194459,1200,1200,1200,1200,0.52,665,12.16,0.22,0.55,135.88,-10.71,1.89,15.13,2.3,-1.0,-16.0
194459,1200,1200,1200,1200,0.52,665,12.15,0.25,1.34,135.10,6.50,-0.62,9.19,2.3,7.2,-14.1
194459,1200,1200,1200,1200,0.50,663,12.16,-0.06,0.88,134.28,-1.37,-3.28,12.92,3.0,7.1,-15.4
194459,1200,1200,1200,1200,0.53,666,12.15,0.22,1.68,133.44,7.57,-3.21,8.76,3.8,7.4,-15.8
194459,1200,1200,1200,1200,0.51,664,12.15,0.24,1.94,132.58,-7.81,-3.02,6.31,4.8,-5.1,-18.5
194500,1200,1200,1200,1200,0.52,665,12.17,0.40,2.06,131.68,-2.22,-2.85,9.64,6.1,0.1,-18.6
194500,1200,1200,1200,1200,0.46,659,12.15,0.36,1.96,130.79,-3.99,3.21,10.38,2.3,7.9,-17.3
194500,1200,1200,1200,1200,0.55,668,12.16,0.05,1.52,129.96,-8.24,-3.99,18.41,2.2,-3.7,-16.1
194500,1200,1200,1200,1200,0.52,665,12.14,0.15,2.24,129.20,-2.42,2.57,6.63,4.3,0.4,-13.8
194500,1200,1200,1200,1200,0.51,664,12.16,0.84,3.14,128.41,14.83,-0.37,4.44,4.4,24.3,-12.8
194500,1200,1200,1200,1200,0.51,664,12.15,0.63,3.06,127.67,-6.94,-3.72,12.92,4.0,-2.5,-14.0
194500,1200,1200,1200,1200,0.49,662,12.17,0.50,3.56,126.86,9.91,3.76,-0.80,4.4,8.0,-17.0
194500,1200,1200,1200,1200,0.53,666,12.13,0.96,2.90,126.15,-6.68,-5.12,14.53,1.2,-2.3,-16.7
194500,1200,1200,1200,1200,0.51,664,12.15,0.91,2.67,125.45,-15.78,-0.28,19.60,1.9,-12.7,-12.8
194500,1200,1200,1200,1200,0.52,665,12.15,1.25,3.09,124.93,-9.21,3.69,9.16,2.5,-11.5,-10.1
194500,1200,1200,1200,1200,0.53,666,12.16,1.54,2.85,124.41,1.70,-3.51,11.80,0.1,-2.0,-9.9
194500,1200,1200,1200,1200,0.53,666,12.15,1.57,3.18,123.85,-15.71,0.54,19.60,0.2,-6.1,-9.8
194500,1200,1200,1200,1200,0.50,663,12.17,2.12,3.31,123.41,10.53,1.20,5.78,0.9,1.8,-11.2
194500,1200,1200,1200,1200,0.52,665,12.16,1.94,2.48,122.91,0.37,0.36,11.37,0.0,-7.4,-10.7
194500,1200,1200,1200,1200,0.53,666,12.14,1.99,2.37,122.40,-2.50,2.34,8.10,1.8,-6.3,-9.9
194500,1200,1200,1200,1200,0.57,670,12.13,1.83,1.61,121.92,-3.65,2.64,12.39,1.7,-2.9,-8.6
194500,1200,1200,1200,1200,0.54,667,12.15,1.64,1.70,121.50,14.00,1.43,5.18,2.9,9.6,-7.9
194500,1200,1200,1200,1200,0.54,667,12.15,1.64,1.65,121.09,4.91,2.47,-1.77,3.1,-6.7,-9.6
194500,1200,1200,1200,1200,0.52,665,12.13,1.42,0.94,120.67,5.38,-5.24,9.30,1.5,7.9,-8.5
194500,1200,1200,1200,1200,0.50,663,12.14,1.33,1.41,120.31,6.62,-1.89,8.74,-0.1,8.5,-7.9
194501,1200,1200,1200,1200,0.58,671,12.16,1.71,1.68,120.00,2.77,4.30,5.97,0.1,9.5,-4.7
194501,1200,1200,1200,1200,0.51,664,12.14,1.76,1.45,119.72,-15.28,-0.62,19.60,2.0,-4.6,-3.6
194501,1200,1200,1200,1200,0.54,667,12.16,1.73,1.89,119.48,-5.06,1.03,3.98,1.7,-3.1,-1.6
194501,1200,1200,1200,1200,0.52,665,12.13,2.35,1.87,119.37,-4.10,0.94,13.01,2.2,-6.9,-0.9
194501,1200,1200,1200,1200,0.53,666,12.14,2.40,1.80,119.24,11.11,-1.48,2.52,3.4,1.2,-3.2
194501,1200,1200,1200,1200,0.58,671,12.14,2.44,1.52,119.21,12.26,4.65,5.32,1.3,-1.2,0.7
194501,1200,1200,1200,1200,0.52,665,12.13,2.55,0.51,119.25,7.91,-0.14,3.57,2.4,-3.5,-2.0
194501,1200,1200,1200,1200,0.57,670,12.15,2.51,0.21,119.30,-5.14,-1.10,7.49,2.1,-2.1,2.0
194501,1200,1200,1200,1200,0.55,668,12.14,2.76,0.14,119.40,5.06,-3.26,9.47,-0.4,-2.8,3.4
194501,1200,1200,1200,1200,0.52,665,12.14,2.69,-0.43,119.46,5.98,-2.90,8.18,4.4,-4.1,3.9
194501,1200,1200,1200,1200,0.54,667,12.15,2.61,-0.92,119.41,1.77,-4.30,5.16,1.6,-6.0,-0.5
194501,1200,1200,1200,1200,0.52,665,12.14,2.17,-1.15,119.46,14.21,2.67,8.13,5.6,3.3,-0.2
194501,1200,1200,1200,1200,0.54,667,12.15,2.15,-1.54,119.43,-11.10,-1.63,14.26,2.6,-0.8,-2.8
194501,1200,1200,1200,1200,0.54,667,12.15,2.12,-1.40,119.45,-9.05,4.77,14.56,2.1,-5.9,-3.5
194501,1200,1200,1200,1200,0.55,668,12.14,2.35,-1.48,119.49,-2.57,0.67,10.24,-1.0,-5.9,0.3
194501,1200,1200,1200,1200,0.57,670,12.15,2.43,-1.59,119.49,0.08,1.64,9.91,-1.2,14.4,1.2
194501,1200,1200,1200,1200,0.53,666,12.14,2.37,-1.29,119.60,-7.77,-2.65,15.56,-2.2,2.2,3.3
194501,1200,1200,1200,1200,0.51,664,12.15,2.78,-1.30,119.59,19.12,0.68,-4.07,-1.1,16.6,1.4
194501,1200,1200,1200,1200,0.52,665,12.15,2.85,-1.53,119.56,-8.31,1.75,15.55,-0.4,-1.4,-1.0
194501,1200,1200,1200,1200,0.54,667,12.14,2.54,-1.30,119.44,-0.56,-0.45,9.29,-2.0,-4.1,-3.4
194502,1200,1200,1200,1200,0.58,671,12.16,2.54,-1.34,119.23,16.64,1.04,8.45,-5.1,14.3,-5.7
194502,1200,1200,1200,1200,0.50,663,12.15,2.10,-1.60,118.93,-19.00,2.17,15.70,-3.1,-12.7,-8.1
194502,1200,1200,1200,1200,0.52,665,12.14,2.34,-1.03,118.48,12.33,0.94,1.96,-1.3,11.5,-8.1
194502,1200,1200,1200,1200,0.52,665,12.14,2.23,-1.36,117.92,8.95,-1.29,2.82,0.8,-1.5,-12.6
194502,1200,1200,1200,1200,0.53,666,12.13,1.91,-1.62,117.12,-2.44,-0.49,8.06,-2.0,5.6,-17.3
194502,1200,1200,1200,1200,0.52,665,12.14,1.80,-1.06,116.32,8.92,1.02,-2.85,-2.8,8.5,-17.2
194502,1200,1200,1200,1200,0.53,666,12.15,1.25,-1.47,115.36,-0.14,-8.46,8.27,-3.8,-7.8,-21.5
194502,1200,1200,1200,1200,0.53,666,12.15,0.47,-1.36,114.27,-14.27,-2.72,19.60,-5.1,-4.1,-24.0
194502,1200,1200,1200,1200,0.58,672,12.14,0.22,-1.60,113.09,0.14,-0.06,8.18,-2.9,-3.9,-25.0
194502,1200,1200,1200,1200,0.54,667,12.17,-0.03,-1.67,111.88,2.45,-2.87,10.37,-2.7,-2.0,-24.2
194502,1200,1200,1200,1200,0.52,665,12.14,-0.38,-1.07,110.61,0.65,-0.22,5.32,-2.1,-5.1,-25.9
194502,1200,1200,1200,1200,0.54,667,12.15,-0.35,-1.47,109.35,6.92,-1.77,-1.15,-1.9,-1.4,-25.6
194502,1200,1200,1200,1200,0.53,666,12.15,-0.68,-2.36,108.00,-2.49,1.84,15.54,-2.1,3.1,-28.5
194502,1200,1200,1200,1200,0.52,665,12.16,-0.72,-2.26,106.59,-7.37,-5.82,14.93,-4.0,-4.9,-27.6
194502,1200,1200,1200,1200,0.55,668,12.14,-0.98,-2.31,105.19,12.80,-2.38,2.90,-6.1,1.8,-27.5
194502,1200,1200,1200,1200,0.53,666,12.16,-1.17,-2.46,103.90,11.47,3.20,5.85,-2.4,7.1,-24.4
194502,1200,1200,1200,1200,0.56,669,12.13,-1.56,-2.68,102.59,8.09,-3.42,5.93,-4.9,3.6,-25.1
194502,1200,1200,1200,1200,0.54,667,12.15,-1.78,-2.63,101.27,12.14,-5.36,4.68,-4.9,19.7,-25.6
194502,1200,1200,1200,1200,0.51,664,12.15,-1.96,-2.20,100.08,6.35,2.85,5.66,-0.3,11.8,-24.5
194502,1200,1200,1200,1200,0.54,667,12.16,-1.89,-2.07,99.02,9.81,1.29,8.05,-0.1,14.0,-21.6
194503,1200,1200,1200,1200,0.50,663,12.14,-1.63,-2.11,98.09,-7.25,-4.39,14.70,1.1,-3.4,-16.6
194503,1200,1200,1200,1200,0.54,667,12.16,-1.52,-1.65,97.40,-3.66,2.36,11.08,0.2,6.2,-12.8
194503,1200,1200,1200,1200,0.51,664,12.15,-1.46,-1.18,96.79,-3.29,1.61,7.96,0.9,6.8,-9.2
194503,1200,1200,1200,1200,0.56,669,12.15,-1.11,-0.97,96.32,1.59,-5.06,8.65,2.0,8.8,-5.8
194503,1200,1200,1200,1200,0.54,667,12.14,-1.26,-0.45,96.08,-9.98,6.16,8.91,5.6,2.7,-3.4
194503,1200,1200,1200,1200,0.53,666,12.14,-0.82,-0.14,95.87,14.30,1.01,-5.32,9.3,1.8,-4.9
194503,1200,1200,1200,1200,0.52,665,12.15,-0.22,-0.06,95.65,-6.31,-5.23,9.60,9.2,-2.8,-5.3
194503,1200,1200,1200,1200,0.54,667,12.14,-0.10,0.44,95.52,-8.31,7.08,8.57,7.0,-6.9,-1.5
194503,1200,1200,1200,1200,0.53,666,12.15,0.58,0.47,95.58,14.13,2.97,-3.45,7.3,9.7,-0.2
194503,1200,1200,1200,1200,0.51,664,12.14,1.04,-0.40,95.66,-12.48,-1.75,19.15,8.4,-7.6,3.9
194503,1200,1200,1200,1200,0.51,664,12.15,1.22,-0.02,95.76,14.37,-1.67,0.23,6.9,3.2,3.6
194503,1200,1200,1200,1200,0.55,668,12.14,1.77,0.07,95.84,2.05,-0.84,8.76,7.3,-4.2,2.7
194503,1200,1200,1200,1200,0.53,666,12.16,2.03,-0.49,95.87,-6.28,4.06,11.15,7.3,-6.2,-1.3
194503,1200,1200,1200,1200,0.54,667,12.14,2.66,-0.95,95.92,-3.57,4.57,11.67,9.0,-10.9,1.5
