time,pwm1,pwm2,pwm3,pwm4,depth,press,voltage,roll,pitch,yaw,a_x,a_y,a_z,w_row,w_pitch,w_yaw
205709,1100,1100,1100,1100,-0.01,606,12.04,6.42,1.30,-72.31,-0.22,1.00,8.63,0.4,-0.5,0.1
205709,1100,1100,1100,1100,0.02,609,12.02,6.45,1.27,-72.31,-0.15,1.01,8.51,0.5,-0.5,0.1
205709,1100,1100,1100,1100,0.00,607,12.03,6.48,1.24,-72.31,-0.22,0.84,8.81,0.9,-0.5,0.1
205709,1100,1100,1100,1100,0.03,610,12.00,6.61,1.05,-72.31,4.66,-0.02,7.01,1.0,5.7,-0.5
205709,1202,1202,1202,1202,-0.02,605,11.93,6.51,1.01,-72.29,-5.70,-1.69,13.25,-1.3,11.2,-1.9
205709,1202,1202,1202,1202,0.00,607,11.89,6.34,1.54,-72.31,-2.51,6.40,7.31,-6.8,7.9,-0.1
205709,1202,1202,1202,1202,0.02,609,11.87,5.43,1.26,-72.49,-9.21,3.13,9.27,-14.1,-3.2,-4.0
205709,1202,1202,1202,1202,0.08,615,11.90,4.90,0.90,-72.87,-0.24,1.95,8.34,-13.5,-2.0,-8.5
205710,1202,1202,1202,1202,-0.02,605,11.88,4.30,0.76,-73.23,-13.76,1.95,15.53,-12.6,-16.2,-8.5
205710,1202,1202,1202,1202,0.07,614,11.89,3.85,0.79,-73.63,-0.67,0.45,6.52,-11.2,-9.3,-8.5
205710,1202,1202,1202,1202,0.06,613,11.88,3.48,0.02,-74.13,2.40,2.68,6.74,-8.9,-7.3,-10.4
205710,1202,1202,1202,1202,0.06,613,11.88,3.48,-0.88,-74.66,4.28,-1.89,11.47,-8.0,-10.1,-10.4
205710,1202,1202,1202,1202,0.05,612,11.89,2.77,-2.26,-75.33,-3.16,-2.83,5.70,-8.2,-5.2,-13.8
205710,1202,1202,1202,1202,0.15,623,11.89,2.14,-2.93,-76.08,-14.16,-0.63,17.33,-8.9,-15.7,-16.8
205710,1202,1202,1202,1202,0.12,620,11.88,1.70,-2.90,-76.89,3.12,2.92,8.65,-7.3,-12.5,-16.8
205710,1202,1202,1202,1202,0.13,621,11.86,1.40,-3.48,-77.78,8.73,0.10,9.00,-5.5,-9.7,-18.9
205710,1202,1202,1202,1202,0.08,615,11.88,1.00,-3.84,-78.73,15.22,1.59,-5.06,-4.8,3.1,-21.1
205710,1202,1202,1202,1202,0.13,621,11.87,0.69,-3.90,-79.85,-0.52,3.94,6.14,-2.6,-8.3,-22.8
205710,1202,1202,1202,1202,0.12,620,11.88,0.53,-3.44,-80.94,-1.75,8.76,5.02,-1.9,9.4,-23.6
205710,1202,1202,1202,1202,0.16,624,11.90,0.83,-3.71,-82.12,-8.46,4.22,13.25,-2.9,2.1,-25.0
205710,1202,1202,1202,1202,0.16,624,11.88,1.19,-3.15,-83.36,-12.94,-2.07,13.72,-1.5,-3.0,-25.7
205710,1202,1202,1202,1202,0.14,622,11.89,0.99,-2.53,-84.62,1.21,-3.85,9.29,-2.3,0.7,-25.6
205710,1202,1202,1202,1202,0.19,627,11.88,0.90,-2.62,-85.92,10.53,-2.30,8.50,-0.6,1.3,-25.8
205710,1202,1202,1202,1202,0.20,628,11.88,0.54,-2.68,-87.24,3.50,-1.11,8.75,0.2,-3.8,-26.9
205710,1202,1202,1202,1202,0.20,628,11.89,0.37,-2.49,-88.63,0.75,-2.78,14.12,0.4,5.3,-28.6
205710,1202,1202,1202,1202,0.23,631,11.88,0.61,-1.76,-90.01,-6.57,-0.72,9.66,1.8,8.5,-28.0
205710,1202,1202,1202,1202,0.20,628,11.88,0.77,-1.43,-91.48,5.87,0.81,1.46,4.9,10.3,-32.2
205710,1202,1202,1202,1202,0.23,631,11.88,0.82,-1.53,-93.00,4.19,-2.28,5.35,3.0,11.6,-29.4
205711,1202,1202,1202,1202,0.23,631,11.88,0.85,-1.49,-94.45,-4.87,-0.22,5.96,4.1,-4.5,-28.8
205711,1202,1202,1202,1202,0.22,630,11.89,0.94,-1.36,-95.99,1.71,2.58,11.04,5.5,9.8,-30.3
205711,1202,1202,1202,1202,0.18,626,11.89,0.98,-1.02,-97.47,-5.79,-2.28,8.00,3.5,-5.7,-29.4
205711,1202,1202,1202,1202,0.22,630,11.87,1.11,-0.48,-98.96,-3.01,3.86,11.07,5.2,4.6,-29.8
205711,1202,1202,1202,1202,0.23,631,11.87,1.31,-0.75,-100.37,-5.88,-2.16,0.67,5.0,-5.8,-27.5
205711,1202,1202,1202,1202,0.26,635,11.87,1.42,-0.11,-101.67,-10.08,-1.43,10.53,5.1,1.8,-24.7
205711,1202,1202,1202,1202,0.23,631,11.89,1.53,0.77,-102.91,1.34,-0.44,8.53,2.6,-5.0,-24.2
205711,1202,1202,1202,1202,0.25,633,11.88,1.17,0.58,-104.14,-2.28,3.97,9.47,3.5,-8.2,-22.8
205711,1202,1202,1202,1202,0.24,632,11.88,1.39,0.34,-105.42,-1.04,0.72,8.62,2.6,-2.6,-24.7
205711,1202,1202,1202,1202,0.26,635,11.88,1.19,-0.08,-106.67,-3.67,1.73,10.72,-0.2,-1.9,-25.3
205711,1202,1202,1202,1202,0.26,635,11.87,0.95,-0.91,-107.96,1.36,0.16,10.79,1.0,0.5,-27.5
205711,1202,1202,1202,1202,0.24,632,11.89,0.79,-1.10,-109.32,3.56,-0.49,7.87,0.1,-9.2,-29.1
205711,1202,1202,1202,1202,0.26,635,11.87,0.97,-1.64,-110.74,15.38,1.28,-1.43,3.2,1.0,-29.0
205711,1202,1202,1202,1202,0.27,636,11.88,1.06,-2.19,-112.19,11.67,0.44,2.60,2.7,2.2,-28.3
205711,1202,1202,1202,1202,0.26,635,11.88,1.17,-3.07,-113.54,7.95,-7.30,5.18,3.3,6.5,-26.4
205711,1202,1202,1202,1202,0.25,633,11.88,1.00,-2.76,-114.85,4.45,1.63,13.18,2.0,8.5,-27.2
205711,1202,1202,1202,1202,0.31,640,11.87,1.55,-2.63,-116.17,4.90,2.53,5.90,3.6,0.2,-26.3
205711,1202,1202,1202,1202,0.30,639,11.87,1.73,-3.14,-117.50,8.40,0.12,3.46,4.8,-1.7,-28.6
205711,1202,1202,1202,1202,0.26,635,11.87,1.55,-3.97,-118.78,-12.82,0.44,10.96,3.7,-4.4,-25.3
205711,1202,1202,1202,1202,0.27,636,11.88,1.77,-3.65,-119.97,-5.33,-0.71,13.94,1.4,-1.6,-23.6
205712,1202,1202,1202,1202,0.33,642,11.87,1.78,-3.44,-121.16,0.90,-0.97,13.32,2.6,3.1,-23.8
205712,1202,1202,1202,1202,0.31,640,11.88,1.80,-3.23,-122.30,-1.51,4.06,9.40,3.6,-1.4,-22.5
205712,1202,1202,1202,1202,0.29,638,11.89,1.83,-3.17,-123.48,-3.36,-1.69,3.78,1.8,-5.1,-25.8
205712,1202,1202,1202,1202,0.34,643,11.86,1.75,-3.73,-124.77,-13.57,3.28,15.31,1.3,-9.5,-25.4
205712,1202,1202,1202,1202,0.35,644,11.88,2.19,-3.61,-126.09,2.06,-0.29,6.80,1.0,-1.8,-25.3
205712,1202,1202,1202,1202,0.30,639,11.88,2.18,-4.27,-127.40,7.21,-2.25,7.87,1.5,6.4,-24.4
205712,1202,1202,1202,1202,0.30,639,11.88,2.64,-4.44,-128.76,-0.55,0.15,6.27,3.2,-9.5,-26.6
205712,1202,1202,1202,1202,0.30,639,11.88,2.82,-4.77,-130.12,12.35,-2.51,0.07,1.3,-4.8,-28.4
205712,1202,1202,1202,1202,0.33,642,11.88,2.48,-4.28,-131.47,-11.96,-1.67,19.60,-2.0,-7.0,-28.7
205712,1202,1202,1202,1202,0.30,639,11.86,2.59,-3.93,-132.82,15.34,-0.31,4.73,-3.4,10.7,-28.3
205712,1202,1202,1202,1202,0.31,640,11.88,2.30,-4.29,-134.21,9.91,-0.83,1.31,-3.7,8.3,-28.0
205712,1202,1202,1202,1202,0.36,645,11.88,2.29,-3.38,-135.64,8.33,0.16,5.95,-4.2,-7.1,-29.3
205712,1202,1202,1202,1202,0.33,642,11.89,2.21,-3.03,-137.06,0.18,0.14,8.57,-1.8,1.3,-29.1
205712,1202,1202,1202,1202,0.34,643,11.88,2.01,-2.89,-138.50,1.59,1.75,5.86,-1.2,6.6,-26.9
205712,1202,1202,1202,1202,0.32,641,11.88,1.92,-3.21,-139.91,1.57,0.54,7.42,-1.9,6.5,-30.6
205712,1202,1202,1202,1202,0.30,639,11.87,2.03,-3.13,-141.41,-1.46,-0.52,13.33,-2.0,6.5,-30.1
205712,1202,1202,1202,1202,0.35,644,11.87,1.83,-3.14,-142.77,3.36,0.63,1.94,-1.4,2.4,-27.6
205712,1202,1202,1202,1202,0.34,643,11.87,1.86,-3.22,-144.06,5.59,3.91,6.67,1.2,-6.0,-25.8
205712,1202,1202,1202,1202,0.34,643,11.88,1.67,-3.22,-145.26,-14.79,0.05,17.27,-2.3,-1.3,-22.6
205712,1202,1202,1202,1202,0.37,646,11.88,1.38,-2.52,-146.33,2.86,1.55,6.35,-1.6,1.2,-20.6
205713,1202,1202,1202,1202,0.38,647,11.88,1.22,-2.63,-147.32,2.89,-0.21,6.00,0.5,5.2,-21.7
205713,1202,1202,1202,1202,0.38,647,11.87,0.88,-3.10,-148.41,-4.11,-4.85,11.30,-1.4,0.9,-22.2
205713,1202,1202,1202,1202,0.35,644,11.88,1.03,-2.62,-149.53,-2.45,-1.52,4.50,0.1,7.4,-19.9
205713,1202,1202,1202,1202,0.40,649,11.87,0.93,-2.17,-150.50,6.92,0.43,3.23,0.0,11.3,-19.4
205713,1202,1202,1202,1202,0.36,645,11.88,0.74,-2.56,-151.43,-9.30,0.75,16.54,-0.2,-0.9,-16.8
205713,1202,1202,1202,1202,0.35,644,11.87,0.87,-2.42,-152.30,-2.39,-5.31,10.34,0.5,4.2,-17.3
205713,1202,1202,1202,1202,0.37,646,11.86,0.68,-2.11,-153.16,2.66,-2.45,15.30,2.0,11.0,-16.2
205713,1202,1202,1202,1202,0.40,649,11.87,0.90,-1.40,-153.95,9.99,6.24,1.18,3.8,13.4,-16.6
205713,1202,1202,1202,1202,0.39,648,11.88,1.19,-1.41,-154.74,-0.10,-3.57,7.94,2.3,6.1,-15.9
205713,1202,1202,1202,1202,0.33,642,11.86,1.10,-0.75,-155.41,-17.81,5.16,9.57,2.6,-4.2,-13.0
205713,1202,1202,1202,1202,0.35,644,11.88,1.12,-0.76,-155.97,7.60,-3.60,3.03,1.5,3.8,-9.6
205713,1202,1202,1202,1202,0.36,645,11.86,1.02,-1.40,-156.45,12.86,-1.99,-3.18,1.8,9.5,-8.6
205713,1202,1202,1202,1202,0.38,647,11.88,1.00,-1.09,-156.81,15.44,-2.69,2.58,-0.5,8.6,-7.2
205713,1202,1202,1202,1202,0.39,648,11.87,1.01,-0.13,-157.20,8.72,-1.02,3.22,0.8,7.6,-8.8
205713,1202,1202,1202,1202,0.40,649,11.87,0.74,0.18,-157.73,2.25,4.30,7.42,0.1,11.1,-14.4
205713,1202,1202,1202,1202,0.42,652,11.87,0.86,0.08,-158.33,2.39,3.61,10.18,-0.1,10.0,-12.8
205713,1202,1202,1202,1202,0.40,649,11.87,0.72,-0.32,-158.96,-19.60,-2.46,19.60,0.8,-9.4,-12.8
205713,1202,1202,1202,1202,0.40,649,11.87,0.86,0.62,-159.50,-8.05,1.66,13.34,2.0,5.4,-9.5
205713,1202,1202,1202,1202,0.37,646,11.87,0.99,0.63,-159.97,14.62,-0.82,0.49,4.0,9.9,-6.0
205713,1202,1202,1202,1202,0.39,648,11.86,0.78,-0.43,-160.25,1.34,-1.30,12.58,5.9,2.4,-4.7
205714,1202,1202,1202,1202,0.42,651,11.88,1.04,-0.31,-160.46,-6.21,-2.94,7.49,7.4,-5.4,-4.8
205714,1202,1202,1202,1202,0.41,650,11.86,1.46,-0.25,-160.66,7.09,-6.37,7.24,6.5,9.8,-4.3
205714,1202,1202,1202,1202,0.41,650,11.87,1.91,0.13,-160.71,-12.28,0.81,10.69,6.3,0.8,-2.1
205714,1202,1202,1202,1202,0.42,652,11.88,2.58,0.56,-160.74,5.95,-2.91,4.29,8.4,13.2,-1.2
205714,1202,1202,1202,1202,0.42,651,11.86,2.77,0.54,-160.68,-12.55,4.55,14.85,5.3,-8.5,2.3
205714,1202,1202,1202,1202,0.37,646,11.87,3.06,0.84,-160.59,1.79,5.87,7.11,7.6,-8.1,2.0
205714,1202,1202,1202,1202,0.43,653,11.87,3.18,-0.01,-160.59,5.23,-2.19,3.55,7.4,0.1,1.2
205714,1202,1202,1202,1202,0.40,649,11.87,3.30,-0.18,-160.57,-12.10,1.16,8.11,4.5,-7.9,0.3
205714,1202,1202,1202,1202,0.40,649,11.87,3.61,-0.22,-160.67,-4.01,7.31,8.88,5.7,-5.4,-0.8
205714,1202,1202,1202,1202,0.37,646,11.87,4.17,0.07,-160.69,-12.72,-3.75,17.81,2.8,-10.6,-0.1
205714,1202,1202,1202,1202,0.37,646,11.86,4.09,-0.53,-160.68,3.30,1.79,0.52,2.0,-8.3,1.1
205714,1202,1202,1202,1202,0.42,651,11.87,4.27,-0.75,-160.76,-2.47,4.07,10.72,0.5,-16.2,-1.5
205714,1202,1202,1202,1202,0.40,649,11.87,4.50,-0.18,-160.89,3.94,1.50,10.84,0.0,1.3,-1.4
205714,1202,1202,1202,1202,0.40,649,11.86,4.31,-0.31,-161.02,9.85,-1.05,1.72,-2.0,-3.2,-4.1
205714,1202,1202,1202,1202,0.37,646,11.87,3.88,-0.11,-161.19,5.38,-0.17,8.10,-4.9,1.2,-4.8
205714,1202,1202,1202,1202,0.45,655,11.87,3.63,-0.30,-161.41,-8.32,2.66,14.21,-4.5,-0.9,-7.3
205714,1202,1202,1202,1202,0.41,650,11.86,3.09,-0.07,-161.71,-0.21,-1.19,2.84,-4.2,1.4,-6.1
205714,1202,1202,1202,1202,0.42,651,11.87,2.43,-0.26,-162.02,2.38,-0.62,9.43,-5.6,8.4,-7.1
205714,1202,1202,1202,1202,0.40,649,11.87,2.47,-0.24,-162.33,6.52,-1.68,5.77,-5.0,7.4,-5.6
205714,1202,1202,1202,1202,0.43,653,11.87,2.50,-0.07,-162.64,4.28,-0.60,8.37,-3.2,1.6,-6.4
205715,1202,1202,1202,1202,0.42,652,11.87,2.40,-0.06,-163.02,-1.86,5.20,5.34,-3.1,-1.8,-7.8
205715,1202,1202,1202,1202,0.36,645,11.86,2.60,0.06,-163.43,3.52,1.56,6.23,-2.6,6.8,-9.3
205715,1202,1202,1202,1202,0.41,650,11.88,2.49,0.02,-163.82,0.13,2.07,15.52,-0.5,2.9,-9.9
205715,1202,1202,1202,1202,0.40,649,11.86,2.54,0.63,-164.23,-3.29,0.87,12.91,-1.5,7.0,-8.4
205715,1202,1202,1202,1202,0.40,649,11.85,2.49,-0.15,-164.55,-5.37,2.35,10.40,0.9,0.9,-6.1
205715,1202,1202,1202,1202,0.40,649,11.87,2.48,-0.14,-164.81,-8.30,3.60,12.59,0.9,-4.2,-4.3
205715,1202,1202,1202,1202,0.43,653,11.87,2.78,1.01,-165.06,-4.37,-0.44,11.86,0.2,2.5,-4.1
205715,1202,1202,1202,1202,0.41,650,11.87,2.95,0.95,-165.41,-9.82,1.28,5.97,-0.2,-6.7,-6.6
205715,1202,1202,1202,1202,0.40,649,11.87,2.96,1.31,-165.75,-3.55,-1.90,5.49,1.0,-0.4,-7.3
205715,1202,1202,1202,1202,0.40,649,11.87,2.71,0.50,-166.02,0.37,-0.90,7.01,1.0,-9.7,-5.5
205715,1202,1202,1202,1202,0.36,645,11.86,2.72,1.19,-166.28,10.06,-2.58,4.54,0.5,6.3,-4.3
205715,1202,1202,1202,1202,0.38,647,11.86,2.66,0.79,-166.49,8.43,1.56,2.25,2.2,10.6,-4.9
205715,1202,1202,1202,1202,0.39,648,11.85,2.43,0.87,-166.73,-2.50,-0.76,14.13,0.1,1.8,-4.3
205715,1202,1202,1202,1202,0.42,652,11.84,2.45,0.79,-166.97,-11.90,6.48,16.15,3.5,-0.1,-4.2
205715,1202,1202,1202,1202,0.41,650,11.86,2.33,1.03,-167.30,-9.58,-0.03,14.62,0.9,-2.6,-6.0
205715,1202,1202,1202,1202,0.33,642,11.86,2.59,0.74,-167.52,0.18,-1.51,2.57,0.5,4.5,-4.2
205715,1202,1202,1202,1202,0.39,648,11.86,2.28,0.56,-167.66,-3.94,2.39,16.58,0.4,0.4,-3.5
205715,1202,1202,1202,1202,0.37,646,11.86,2.59,0.83,-167.78,-3.31,-1.29,7.51,2.9,-7.8,-4.3
205715,1202,1202,1202,1202,0.36,645,11.86,2.41,0.16,-167.93,10.28,5.85,5.07,0.7,-3.2,-1.6
205715,1202,1202,1202,1202,0.37,646,11.86,2.58,-0.62,-168.03,-3.81,-2.98,8.27,0.8,-5.1,-2.4
205716,1202,1202,1202,1202,0.38,647,11.86,2.65,-0.44,-168.21,-1.16,2.80,5.45,1.0,5.6,-3.2
205716,1202,1202,1202,1202,0.39,648,11.87,2.75,-1.08,-168.42,-6.01,2.34,4.45,1.9,-5.5,-4.5
205716,1202,1202,1202,1202,0.35,644,11.86,2.86,-0.96,-168.65,-1.60,3.31,9.68,4.5,-1.2,-6.6
205716,1202,1202,1202,1202,0.36,645,11.87,3.14,-0.45,-168.96,8.26,1.88,5.93,1.6,9.3,-6.6
205716,1202,1202,1202,1202,0.34,643,11.85,3.34,-0.23,-169.18,-0.12,-0.45,10.64,1.3,-3.6,-2.9
205716,1202,1202,1202,1202,0.34,643,11.86,3.36,-0.23,-169.38,-3.79,-0.51,8.84,1.9,-3.1,-4.2
205716,1202,1202,1202,1202,0.36,645,11.86,3.34,-0.25,-169.67,14.10,-2.59,2.78,2.1,10.7,-6.9
205716,1202,1202,1202,1202,0.40,649,11.85,3.41,-0.70,-170.07,1.58,-0.64,9.83,0.5,1.6,-8.8
205716,1202,1202,1202,1202,0.38,647,11.86,3.57,-0.03,-170.51,-13.57,8.04,14.14,-0.1,1.5,-10.1
205716,1202,1202,1202,1202,0.35,644,11.86,3.79,-0.42,-171.05,5.06,-1.26,7.30,0.0,5.1,-12.1
205716,1202,1202,1202,1202,0.39,648,11.87,3.57,-0.09,-171.61,4.67,4.16,6.76,-0.7,1.0,-10.9
205716,1202,1202,1202,1202,0.28,637,11.85,3.81,0.33,-172.18,10.99,-5.12,3.89,-2.0,13.0,-11.3
205716,1202,1202,1202,1202,0.34,643,11.85,3.47,-0.39,-172.73,5.22,-0.33,1.24,-0.7,-1.9,-9.3
205716,1202,1202,1202,1202,0.35,644,11.86,3.50,-0.47,-173.32,-4.50,3.75,10.75,-1.3,3.3,-12.1
205716,1202,1202,1202,1202,0.33,642,11.85,3.36,-0.21,-173.87,10.67,2.16,3.12,-1.0,13.7,-10.3
205716,1202,1202,1202,1202,0.35,644,11.87,3.25,-0.43,-174.38,-3.75,8.25,11.76,-1.2,-4.5,-11.2
205716,1202,1202,1202,1202,0.35,644,11.85,3.26,-0.69,-174.87,-0.23,5.08,4.96,0.7,-12.0,-11.2
205716,1202,1202,1202,1202,0.35,644,11.86,3.07,-0.83,-175.38,-6.27,-6.99,13.72,-2.1,3.5,-10.3
205716,1202,1202,1202,1202,0.35,644,11.86,2.90,-0.95,-175.76,3.42,-0.89,2.77,-1.5,-1.3,-4.8
205716,1202,1202,1202,1202,0.33,642,11.86,2.81,-1.59,-175.97,5.86,-2.11,8.24,0.0,6.9,-2.7
205717,1202,1202,1202,1202,0.40,649,11.86,2.89,-1.12,-176.19,7.61,-5.58,3.70,0.6,0.1,-2.8
205717,1202,1202,1202,1202,0.34,643,11.86,2.83,-1.67,-176.38,3.82,3.71,3.38,0.9,1.2,-2.7
205717,1202,1202,1202,1202,0.35,644,11.85,2.92,-1.40,-176.59,-7.43,0.74,11.16,-1.2,0.4,-5.0
205717,1202,1202,1202,1202,0.33,642,11.85,2.94,-1.51,-176.75,4.80,1.97,4.16,1.5,4.3,-3.5
205717,1202,1202,1202,1202,0.34,643,11.86,2.92,-1.44,-176.90,12.03,-4.08,7.95,0.5,1.0,-4.1
205717,1202,1202,1202,1202,0.30,639,11.86,2.68,-1.91,-177.04,1.99,-1.10,8.93,-1.2,-0.5,-2.3
205717,1202,1202,1202,1202,0.32,641,11.86,2.73,-1.59,-177.17,4.34,1.24,4.37,1.2,1.3,-0.9
205717,1202,1202,1202,1202,0.34,643,11.86,2.68,-1.87,-177.19,-10.52,1.67,19.42,-0.2,-9.4,2.1
205717,1202,1202,1202,1202,0.34,643,11.85,2.62,-1.68,-177.20,-0.57,1.86,8.10,-1.8,0.9,-0.4
205717,1202,1202,1202,1202,0.29,638,11.86,2.90,-1.86,-177.35,-2.76,-2.58,12.74,-0.6,-14.1,-2.6
205717,1202,1202,1202,1202,0.29,638,11.87,2.74,-1.88,-177.44,-2.51,0.45,14.31,1.3,-18.3,-2.7
205717,1202,1202,1202,1202,0.31,640,11.86,2.79,-2.12,-177.56,-8.60,-2.13,13.99,-1.5,-4.1,-4.9
205717,1202,1202,1202,1202,0.28,637,11.86,2.70,-2.03,-177.74,-3.90,-4.01,11.98,0.9,-2.0,-3.5
205717,1202,1202,1202,1202,0.25,634,11.85,2.64,-2.48,-177.98,6.72,-2.34,5.24,1.4,-2.5,-4.6
205717,1202,1202,1202,1202,0.28,637,11.87,2.49,-2.54,-178.23,0.08,-2.49,6.37,1.9,-7.8,-3.8
205717,1202,1202,1202,1202,0.26,635,11.86,2.70,-2.46,-178.51,8.88,3.13,2.47,0.0,-1.2,-6.0
205717,1202,1202,1202,1202,0.27,636,11.86,2.54,-3.31,-178.85,10.70,-2.45,6.41,-0.4,-2.6,-7.8
205717,1202,1202,1202,1202,0.27,636,11.85,2.28,-3.71,-179.22,-10.03,-0.97,19.31,1.3,-3.1,-8.4
205717,1202,1202,1202,1202,0.30,639,11.86,2.54,-3.64,-179.63,0.66,0.94,8.30,-1.3,-0.1,-5.7
205717,1202,1202,1202,1202,0.27,636,11.86,2.54,-2.76,-179.96,-14.06,0.68,18.45,-2.0,8.6,-5.7
205718,1202,1202,1202,1202,0.25,634,11.84,2.20,-2.72,179.70,5.86,1.88,6.37,-1.5,3.5,-5.9
205718,1202,1202,1202,1202,0.28,637,11.85,2.03,-3.41,179.41,-6.78,0.64,15.76,-0.5,5.4,-6.6
205718,1202,1202,1202,1202,0.25,634,11.86,2.07,-3.73,179.13,-19.60,-2.99,19.60,0.5,-4.8,-7.0
205718,1202,1202,1202,1202,0.32,641,11.87,2.06,-3.70,178.93,1.22,0.44,11.30,3.5,-2.8,-3.9
205718,1202,1202,1202,1202,0.25,634,11.86,1.94,-3.37,178.82,-1.85,-1.69,5.96,1.5,0.1,-3.0
205718,1202,1202,1202,1202,0.31,640,11.84,2.24,-2.87,178.76,19.23,-3.66,10.71,0.5,8.7,0.5
205718,1202,1202,1202,1202,0.28,637,11.86,2.21,-2.31,178.78,5.23,-0.55,9.05,3.2,7.6,0.8
205718,1202,1202,1202,1202,0.24,632,11.86,2.30,-2.92,178.91,3.06,4.96,6.89,4.8,-5.3,3.6
205718,1202,1202,1202,1202,0.23,631,11.86,2.44,-3.52,179.15,1.64,1.42,4.99,2.1,5.9,6.2
205718,1202,1202,1202,1202,0.29,638,11.86,2.84,-3.29,179.43,-0.45,-1.68,14.82,2.6,2.3,5.8
205718,1202,1202,1202,1202,0.24,632,11.85,2.88,-3.71,179.75,2.17,0.56,10.92,0.7,-5.1,7.1
205718,1202,1202,1202,1202,0.26,635,11.86,2.65,-4.32,-179.85,4.46,-0.19,3.59,-0.9,1.2,8.1
205718,1202,1202,1202,1202,0.27,636,11.86,2.42,-4.31,-179.39,-2.49,3.60,6.02,-0.9,-4.8,10.4
205718,1202,1202,1202,1202,0.23,631,11.85,2.64,-4.07,-179.01,5.92,4.00,3.19,2.0,0.3,9.6
205718,1202,1202,1202,1202,0.25,633,11.85,2.23,-4.55,-178.50,-9.77,-1.61,18.59,-1.5,-2.2,10.4
205718,1202,1202,1202,1202,0.22,630,11.84,2.18,-4.07,-178.13,-6.38,1.53,15.81,-4.8,3.8,5.6
205718,1202,1202,1202,1202,0.24,632,11.85,1.98,-4.00,-177.82,13.24,-3.73,2.05,-5.7,-4.4,6.1
205718,1202,1202,1202,1202,0.22,630,11.86,1.50,-4.12,-177.45,-3.60,1.67,11.02,-8.3,-9.0,8.4
205718,1202,1202,1202,1202,0.21,629,11.85,1.30,-4.88,-177.06,4.25,3.81,2.90,-5.8,-4.8,7.1
205718,1202,1202,1202,1202,0.25,633,11.86,0.85,-4.82,-176.66,0.02,-1.97,8.90,-6.5,-3.8,8.5
205719,1202,1202,1202,1202,0.25,633,11.85,0.39,-4.33,-176.32,-3.01,2.55,10.80,-6.3,-2.7,5.7
205719,1202,1202,1202,1202,0.22,630,11.86,0.23,-5.10,-176.15,-2.67,-1.52,7.95,-7.5,-7.8,2.4
205719,1202,1202,1202,1202,0.19,627,11.85,-0.22,-4.82,-176.04,-1.93,-6.12,16.20,-7.6,-8.1,2.2
205719,1202,1202,1202,1202,0.22,630,11.86,-0.81,-4.41,-175.89,-9.47,-1.26,12.96,-8.0,-7.9,0.4
205719,1202,1202,1202,1202,0.22,630,11.85,-1.15,-4.42,-175.92,7.70,-0.82,7.24,-4.0,0.4,-2.2
205719,1202,1202,1202,1202,0.25,633,11.85,-1.33,-4.37,-176.05,-2.09,-0.44,9.13,-0.9,-13.1,-3.1
205719,1202,1202,1202,1202,0.19,627,11.85,-1.47,-4.44,-176.24,-1.54,7.30,7.65,-3.5,-6.7,-3.4
205719,1202,1202,1202,1202,0.24,632,11.85,-1.65,-4.54,-176.39,-10.69,-1.57,10.03,-0.6,-5.4,-1.8
205719,1202,1202,1202,1202,0.19,627,11.85,-1.95,-4.24,-176.46,6.38,-2.49,1.90,-5.1,6.7,-2.0
205719,1202,1202,1202,1202,0.19,627,11.85,-2.38,-4.22,-176.43,-0.40,-3.74,12.23,-1.1,-6.9,-0.5
