time,pwm1,pwm2,pwm3,pwm4,depth,press,voltage,roll,pitch,yaw,a_x,a_y,a_z,w_row,w_pitch,w_yaw
203600,1100,1100,1100,1100,0.03,613,12.15,6.52,1.27,106.67,-0.14,1.03,8.72,-0.5,0.1,-0.5
203600,1100,1100,1100,1100,0.06,616,12.14,6.48,1.28,106.65,-0.18,0.97,8.51,-0.9,0.1,-0.5
203600,1100,1100,1100,1100,0.05,615,12.16,6.43,1.30,106.63,0.01,1.26,8.63,-1.3,0.4,-0.2
203600,1100,1100,1100,1100,0.03,613,12.12,6.37,1.51,106.61,-3.01,0.01,9.68,-2.1,4.6,-1.3
203600,1200,1200,1200,1200,0.05,615,12.05,6.13,1.71,106.61,-2.42,1.36,9.79,-6.0,9.7,-2.4
203600,1200,1200,1200,1200,0.09,620,12.01,5.78,2.44,106.54,-1.08,2.72,11.40,-12.9,9.4,-2.1
203600,1200,1200,1200,1200,0.01,611,12.02,4.92,3.15,106.36,-8.56,9.45,12.86,-21.1,6.0,-5.2
203600,1200,1200,1200,1200,0.07,617,12.00,4.07,3.30,105.95,-1.55,4.34,11.36,-17.9,-11.8,-7.4
203600,1200,1200,1200,1200,0.07,617,12.01,3.20,2.88,105.58,-1.30,1.70,7.77,-12.8,-15.2,-9.2
203600,1200,1200,1200,1200,0.09,620,12.00,2.47,2.17,105.04,-17.62,-0.24,19.60,-11.0,-25.8,-11.8
203600,1200,1200,1200,1200,0.11,622,11.99,1.91,1.92,104.42,-2.20,-2.13,10.04,-12.4,-3.5,-12.1
203600,1200,1200,1200,1200,0.13,624,12.00,1.24,1.41,103.81,2.48,3.92,4.29,-10.2,-15.4,-12.0
203600,1200,1200,1200,1200,0.14,625,12.00,0.68,0.62,103.04,2.87,2.79,8.21,-9.3,-6.7,-15.9
203600,1200,1200,1200,1200,0.13,624,12.00,0.43,0.93,102.26,-0.76,1.24,12.06,-5.0,-8.8,-15.6
203600,1200,1200,1200,1200,0.15,626,12.03,0.36,1.41,101.40,16.26,-1.51,0.25,-5.8,1.0,-18.7
203600,1200,1200,1200,1200,0.13,624,12.01,0.15,1.06,100.45,-1.57,2.29,8.72,-4.1,-10.3,-19.1
203600,1200,1200,1200,1200,0.11,622,11.99,-0.18,0.91,99.47,-2.73,1.79,15.52,-5.9,3.4,-19.3
203600,1200,1200,1200,1200,0.15,626,11.99,-0.29,0.59,98.43,0.17,2.08,9.24,-3.0,-4.9,-20.4
203600,1200,1200,1200,1200,0.18,629,12.00,-0.59,-0.06,97.34,-7.32,-0.56,13.56,-2.9,-2.4,-20.4
203600,1200,1200,1200,1200,0.16,627,12.01,-0.65,-0.59,96.22,-5.50,1.63,18.14,-1.6,-4.6,-22.4
203601,1200,1200,1200,1200,0.15,626,12.01,-0.40,0.17,95.06,11.17,-0.61,3.94,-2.5,2.2,-22.8
203601,1200,1200,1200,1200,0.17,628,12.00,-0.67,-0.27,93.88,6.16,-0.90,10.22,-0.1,-8.1,-23.8
203601,1200,1200,1200,1200,0.16,627,12.02,-0.86,-0.96,92.60,6.17,-4.36,8.39,-1.3,-6.5,-25.0
203601,1200,1200,1200,1200,0.22,633,12.00,-1.02,-2.19,91.28,8.27,-2.37,-1.40,0.4,-1.8,-26.4
203601,1200,1200,1200,1200,0.21,632,12.02,-1.05,-2.91,89.95,0.43,-1.77,6.58,3.1,-3.7,-25.1
203601,1200,1200,1200,1200,0.20,631,12.02,-1.08,-3.31,88.65,-10.27,-1.35,14.62,5.9,-13.3,-25.5
203601,1200,1200,1200,1200,0.19,630,12.03,-1.06,-2.82,87.36,-3.72,1.25,6.40,6.7,1.9,-26.6
203601,1200,1200,1200,1200,0.20,631,12.01,-0.42,-2.28,86.05,7.60,0.67,4.09,4.5,9.9,-27.5
203601,1200,1200,1200,1200,0.21,632,12.01,-0.22,-2.98,84.78,9.67,-1.34,1.04,0.8,7.0,-24.3
203601,1200,1200,1200,1200,0.21,632,12.00,-0.51,-3.19,83.65,5.75,1.47,4.74,1.6,5.8,-21.8
203601,1200,1200,1200,1200,0.25,636,12.00,-0.42,-3.09,82.50,1.30,1.63,14.65,0.0,0.9,-21.5
203601,1200,1200,1200,1200,0.25,637,12.01,-0.27,-2.60,81.38,1.45,-1.34,8.18,1.1,8.2,-22.4
203601,1200,1200,1200,1200,0.22,633,11.99,0.12,-1.59,80.37,0.94,0.60,10.39,0.2,11.2,-19.2
203601,1200,1200,1200,1200,0.26,638,12.02,0.01,-1.25,79.45,1.67,3.00,11.90,1.0,18.8,-19.0
203601,1200,1200,1200,1200,0.29,641,12.00,0.27,-1.28,78.55,-8.52,1.57,8.98,2.2,3.5,-18.9
203601,1200,1200,1200,1200,0.26,638,12.00,0.39,-0.87,77.69,-0.66,-5.39,11.71,2.9,-0.8,-16.4
203601,1200,1200,1200,1200,0.26,638,12.00,0.72,-0.53,76.97,-3.13,-0.06,10.46,0.5,3.7,-15.1
203601,1200,1200,1200,1200,0.27,639,12.00,0.86,0.30,76.42,4.68,-3.67,5.37,2.8,4.6,-11.1
203601,1200,1200,1200,1200,0.29,641,12.01,0.65,-0.36,76.01,-12.71,-0.65,19.60,4.6,-12.5,-6.3
203601,1200,1200,1200,1200,0.28,640,12.01,0.69,0.26,75.79,6.73,0.64,0.38,1.8,15.3,-4.5
203602,1200,1200,1200,1200,0.25,637,12.01,0.74,-0.04,75.64,10.65,-4.83,1.86,0.6,6.1,-1.1
203602,1200,1200,1200,1200,0.30,642,12.00,0.34,-1.01,75.62,-0.76,2.88,10.56,2.3,-5.0,0.4
203602,1200,1200,1200,1200,0.27,639,12.00,0.81,-0.74,75.65,3.78,1.43,7.91,4.8,-0.9,1.3
203602,1200,1200,1200,1200,0.31,643,11.99,0.96,-1.30,75.70,2.16,-0.77,9.61,4.3,-4.0,2.0
203602,1200,1200,1200,1200,0.29,641,12.01,0.90,-1.67,75.78,-5.01,1.51,12.90,2.9,-3.2,1.1
203602,1200,1200,1200,1200,0.30,642,12.00,0.83,-2.59,75.89,16.59,-7.76,-0.22,3.6,-1.2,1.5
203602,1200,1200,1200,1200,0.29,641,12.01,0.79,-3.05,76.09,-5.38,-0.37,14.96,0.2,-7.1,4.2
203602,1200,1200,1200,1200,0.31,643,12.02,1.16,-2.86,76.31,3.65,1.34,9.94,3.8,-7.1,5.2
203602,1200,1200,1200,1200,0.29,641,12.00,0.72,-3.84,76.50,-5.13,0.58,11.96,2.7,-8.5,5.2
203602,1200,1200,1200,1200,0.28,640,12.00,0.63,-3.78,76.73,12.45,4.06,3.92,0.8,10.1,5.7
203602,1200,1200,1200,1200,0.33,645,12.01,0.92,-4.04,76.88,2.91,2.69,9.89,0.2,-0.2,3.8
203602,1200,1200,1200,1200,0.32,644,12.00,0.93,-3.15,77.09,0.89,-1.17,8.59,1.5,-6.8,5.0
203602,1200,1200,1200,1200,0.34,646,12.00,0.69,-3.52,77.51,7.71,-3.00,0.79,0.9,7.1,6.4
203602,1200,1200,1200,1200,0.32,644,12.02,0.56,-3.95,77.79,1.34,3.23,12.86,-2.2,0.9,4.3
203602,1200,1200,1200,1200,0.33,645,12.02,0.44,-3.98,78.04,2.17,2.00,10.25,-3.1,-4.8,4.9
203602,1200,1200,1200,1200,0.35,647,11.99,0.34,-3.90,78.31,-11.30,-2.59,19.60,-2.9,-14.0,4.7
203602,1200,1200,1200,1200,0.33,645,12.00,-0.13,-4.10,78.61,-3.50,-0.84,15.81,-5.1,-11.8,8.2
203602,1200,1200,1200,1200,0.33,645,12.00,-0.38,-4.08,78.90,13.59,-5.88,2.06,-3.8,4.4,5.1
203602,1200,1200,1200,1200,0.37,649,12.01,-0.96,-5.18,79.17,4.57,-1.10,3.64,-3.6,-8.1,4.7
203602,1200,1200,1200,1200,0.39,651,12.00,-0.92,-5.71,79.36,12.89,-0.19,-0.41,-3.6,-6.5,2.7
203603,1200,1200,1200,1200,0.36,648,11.99,-1.24,-6.56,79.58,-3.78,0.47,12.84,-1.6,-1.2,0.7
203603,1200,1200,1200,1200,0.32,644,12.00,-1.43,-6.99,79.76,13.56,-0.44,0.84,-4.5,3.5,1.8
203603,1200,1200,1200,1200,0.39,651,12.00,-1.93,-7.50,80.04,-10.80,1.35,16.17,-3.3,0.3,4.2
203603,1200,1200,1200,1200,0.33,645,11.98,-1.80,-6.43,80.29,1.13,2.80,9.43,-5.3,1.6,8.1
203603,1200,1200,1200,1200,0.34,646,11.99,-2.26,-6.81,80.74,7.78,-0.55,6.59,-2.0,-1.6,8.3
203603,1200,1200,1200,1200,0.33,645,12.00,-2.28,-6.82,81.18,-3.33,4.00,11.40,-2.0,1.0,12.0
203603,1200,1200,1200,1200,0.39,651,12.00,-2.17,-6.53,81.73,-0.21,-2.58,7.94,-0.6,10.7,10.7
203603,1200,1200,1200,1200,0.34,646,12.02,-2.26,-6.89,82.30,-0.00,-3.08,11.46,2.4,-5.2,10.9
203603,1200,1200,1200,1200,0.38,650,12.01,-2.50,-6.60,83.01,18.76,-3.09,-0.98,0.9,8.2,13.9
203603,1200,1200,1200,1200,0.40,652,12.00,-2.66,-7.20,83.77,7.46,-2.08,6.18,3.1,-2.7,14.5
203603,1200,1200,1200,1200,0.40,652,12.00,-2.91,-7.36,84.56,-3.64,-0.23,11.87,3.2,-2.3,18.0
203603,1200,1200,1200,1200,0.40,652,12.00,-2.93,-6.93,85.35,-9.46,0.04,18.23,3.4,-3.0,17.0
203603,1200,1200,1200,1200,0.37,649,11.99,-2.37,-6.02,86.17,-2.02,0.15,12.55,1.4,5.0,16.8
203603,1200,1200,1200,1200,0.41,653,11.99,-2.22,-5.34,87.12,3.86,2.63,3.99,0.8,3.2,19.3
203603,1200,1200,1200,1200,0.40,652,12.00,-2.14,-5.38,88.09,9.22,1.07,4.21,0.5,4.7,19.5
203603,1200,1200,1200,1200,0.42,654,12.00,-1.78,-4.88,89.00,11.06,3.39,5.68,-1.5,6.2,20.1
203603,1200,1200,1200,1200,0.40,652,12.00,-1.74,-5.15,89.93,-5.30,-2.45,12.30,-0.8,0.6,19.8
203603,1200,1200,1200,1200,0.42,655,11.99,-1.83,-4.28,90.90,3.33,7.64,2.08,1.0,-1.3,19.0
203603,1200,1200,1200,1200,0.41,653,11.99,-1.54,-4.62,91.85,-2.98,-4.19,7.95,1.1,-1.8,19.2
203603,1200,1200,1200,1200,0.44,657,12.01,-1.61,-3.89,92.87,9.25,3.34,2.12,-0.1,0.6,19.3
203604,1200,1200,1200,1200,0.47,660,11.99,-1.37,-4.80,93.75,0.32,-0.25,6.30,-2.0,3.1,17.9
203604,1200,1200,1200,1200,0.46,659,12.01,-1.35,-4.69,94.76,-4.42,-0.97,13.38,-0.9,-3.8,19.3
203604,1200,1200,1200,1200,0.47,660,11.99,-1.17,-4.65,95.64,3.10,0.89,6.04,0.1,3.8,18.1
203604,1200,1200,1200,1200,0.45,658,11.99,-1.40,-5.26,96.49,-2.53,0.88,10.18,-0.9,1.4,16.9
203604,1200,1200,1200,1200,0.46,659,12.01,-1.45,-5.10,97.33,-6.05,1.02,9.05,2.0,-5.1,19.5
203604,1200,1200,1200,1200,0.44,657,11.98,-1.22,-4.63,98.29,-2.49,-2.75,10.05,2.4,-9.8,18.5
203604,1200,1200,1200,1200,0.44,657,12.00,-1.39,-4.35,99.26,1.81,-1.62,4.90,1.0,-4.0,15.6
203604,1200,1200,1200,1200,0.44,657,11.98,-1.53,-5.05,100.14,4.71,-3.74,6.73,-1.2,-1.5,13.4
203604,1200,1200,1200,1200,0.45,658,11.99,-1.17,-4.08,100.90,-11.14,1.97,10.18,0.6,-8.4,14.0
203604,1200,1200,1200,1200,0.46,659,12.00,-1.06,-4.14,101.64,7.46,1.07,2.88,0.0,-3.1,14.9
203604,1200,1200,1200,1200,0.47,660,12.00,-1.10,-4.88,102.37,-5.30,4.58,13.07,-0.9,-8.9,15.7
203604,1200,1200,1200,1200,0.45,658,12.00,-0.97,-4.43,103.06,-5.48,1.76,9.70,0.2,-3.5,13.5
203604,1200,1200,1200,1200,0.49,662,12.00,-0.97,-5.23,103.70,8.17,-2.30,5.45,2.3,1.6,11.5
203604,1200,1200,1200,1200,0.44,657,11.99,-0.82,-4.08,104.25,11.11,-4.06,0.91,2.1,4.2,9.9
203604,1200,1200,1200,1200,0.51,664,11.99,-0.99,-5.30,104.81,7.45,-2.75,2.74,0.5,-5.7,9.7
203604,1200,1200,1200,1200,0.50,663,11.99,-1.18,-5.79,105.22,-3.46,3.73,10.30,-0.2,-7.5,6.2
203604,1200,1200,1200,1200,0.47,660,11.99,-0.84,-6.17,105.51,1.29,-3.29,7.51,-0.4,1.2,7.3
203604,1200,1200,1200,1200,0.45,658,11.98,-1.07,-6.08,105.87,-13.18,0.93,18.51,-1.6,-8.7,7.4
203604,1200,1200,1200,1200,0.50,663,11.99,-0.91,-5.45,106.13,4.83,2.60,4.67,-1.8,1.0,7.8
203604,1200,1200,1200,1200,0.50,663,12.00,-1.15,-5.89,106.49,-4.51,7.64,13.38,-0.3,2.5,7.1
203605,1200,1200,1200,1200,0.47,660,12.01,-0.58,-5.01,106.79,-4.86,7.08,18.48,-0.2,-1.5,7.6
203605,1200,1200,1200,1200,0.50,663,12.00,-0.39,-4.03,107.16,-6.08,-4.84,7.60,-2.4,-5.6,7.8
203605,1200,1200,1200,1200,0.51,664,12.00,-0.62,-4.13,107.60,5.66,-2.61,6.35,-1.2,5.3,9.6
203605,1200,1200,1200,1200,0.48,661,12.02,-0.99,-4.72,108.15,12.62,-0.93,5.79,0.9,2.8,11.0
203605,1200,1200,1200,1200,0.46,659,11.99,-1.45,-4.68,108.72,-13.08,2.64,19.03,-0.1,-4.0,11.2
203605,1200,1200,1200,1200,0.48,661,11.98,-1.42,-4.75,109.18,7.65,0.89,4.19,0.9,3.4,8.8
203605,1200,1200,1200,1200,0.52,665,11.98,-1.27,-5.33,109.66,-12.27,3.61,12.38,0.7,1.2,8.9
203605,1200,1200,1200,1200,0.48,661,11.98,-0.75,-4.05,110.05,-1.11,1.24,6.26,1.6,11.0,6.2
203605,1200,1200,1200,1200,0.51,664,11.99,-0.69,-4.36,110.51,-0.79,-0.65,11.92,0.9,0.4,8.7
203605,1200,1200,1200,1200,0.50,663,12.00,-0.80,-4.13,111.04,4.44,7.01,4.05,-1.3,9.9,10.7
203605,1200,1200,1200,1200,0.56,669,11.99,-0.32,-4.40,111.52,-3.11,-0.56,4.13,-1.9,-0.5,10.5
203605,1200,1200,1200,1200,0.53,666,11.99,-0.44,-4.18,112.05,-5.38,4.05,11.38,0.1,1.0,11.7
203605,1200,1200,1200,1200,0.53,666,12.00,-0.01,-3.82,112.56,5.53,-1.93,6.41,1.3,5.5,9.2
203605,1200,1200,1200,1200,0.54,667,11.99,0.25,-4.11,113.10,2.40,3.48,8.49,2.3,-3.2,8.4
203605,1200,1200,1200,1200,0.55,668,11.98,0.21,-4.58,113.54,2.73,-1.34,0.62,2.1,6.7,6.8
203605,1200,1200,1200,1200,0.57,670,12.01,0.03,-4.54,114.00,-10.41,3.89,14.21,1.2,-7.9,7.1
203605,1200,1200,1200,1200,0.58,671,11.98,0.59,-3.65,114.36,3.24,-2.55,5.26,0.2,1.0,6.6
203605,1200,1200,1200,1200,0.52,665,12.00,0.30,-4.38,114.73,0.36,-2.55,3.89,-0.1,4.3,7.6
203605,1200,1200,1200,1200,0.55,668,11.98,0.39,-4.27,115.07,6.03,1.39,7.53,-0.2,-0.7,9.0
203605,1200,1200,1200,1200,0.54,667,12.00,0.46,-4.54,115.42,5.79,-4.09,7.27,0.8,-2.9,7.8
203606,1200,1200,1200,1200,0.56,669,11.99,0.18,-4.37,115.81,-0.66,4.97,5.61,-2.0,-1.2,7.9
203606,1200,1200,1200,1200,0.53,666,11.98,0.49,-3.63,116.15,3.51,-3.84,9.70,-3.7,-5.2,6.8
203606,1200,1200,1200,1200,0.58,671,11.99,0.46,-3.66,116.53,6.46,-1.40,7.13,-3.3,3.1,7.3
203606,1200,1200,1200,1200,0.57,670,11.99,0.47,-3.99,116.87,13.59,-2.12,5.76,-2.5,-2.2,6.9
203606,1200,1200,1200,1200,0.57,670,11.99,0.20,-4.62,117.19,-7.23,3.33,14.73,-2.0,-2.8,7.3
203606,1200,1200,1200,1200,0.55,668,11.99,0.51,-3.72,117.39,0.14,5.60,4.73,-3.8,-5.9,7.4
203606,1200,1200,1200,1200,0.52,665,11.99,0.31,-4.63,117.66,6.44,-5.84,7.92,-3.1,1.1,4.4
203606,1200,1200,1200,1200,0.54,667,11.99,0.30,-4.02,117.92,0.18,1.60,10.32,-2.0,3.6,6.8
203606,1200,1200,1200,1200,0.57,670,12.00,0.39,-3.94,118.26,-8.71,-0.43,11.49,-0.2,0.0,7.4
203606,1200,1200,1200,1200,0.59,673,11.99,0.38,-3.97,118.63,-2.72,-3.52,9.19,-1.6,4.4,6.8
203606,1200,1200,1200,1200,0.58,672,11.98,0.50,-3.41,118.98,6.14,2.93,7.11,-0.5,0.2,7.6
203606,1200,1200,1200,1200,0.59,673,11.99,0.37,-3.80,119.30,5.64,-0.23,3.68,-3.6,0.1,7.2
203606,1200,1200,1200,1200,0.64,678,11.99,0.22,-4.86,119.55,9.63,1.56,8.56,-1.8,7.4,2.5
203606,1200,1200,1200,1200,0.58,672,11.98,0.37,-4.68,119.75,9.17,1.40,2.81,-3.2,4.2,3.6
203606,1200,1200,1200,1200,0.62,676,11.99,0.17,-5.23,119.96,-5.29,0.14,12.83,-1.3,-2.3,-0.4
203606,1200,1200,1200,1200,0.58,672,11.99,-0.09,-4.94,120.08,-10.56,1.04,11.53,-0.7,-7.4,0.6
203606,1200,1200,1200,1200,0.61,675,11.98,0.17,-4.86,120.15,14.98,-6.56,4.98,1.2,-1.6,0.5
203606,1200,1200,1200,1200,0.57,670,11.98,0.41,-4.88,120.10,-2.23,-4.49,9.32,1.8,-2.4,0.1
203606,1200,1200,1200,1200,0.61,675,11.98,0.24,-5.62,120.19,0.08,-1.56,8.73,0.1,2.3,3.7
203606,1200,1200,1200,1200,0.60,674,11.98,0.20,-5.67,120.33,3.65,-0.84,9.27,1.9,1.2,2.7
203607,1200,1200,1200,1200,0.63,677,11.98,0.47,-4.90,120.51,4.95,-0.37,3.76,1.3,8.6,2.7
203607,1200,1200,1200,1200,0.61,675,11.98,0.33,-4.77,120.67,2.61,2.89,6.18,1.6,4.5,0.2
203607,1200,1200,1200,1200,0.65,679,11.99,0.60,-4.58,120.71,-7.38,1.15,10.69,0.9,-1.5,-1.0
203607,1200,1200,1200,1200,0.63,677,11.99,0.71,-4.92,120.70,-1.09,-2.38,7.73,1.2,-3.2,-0.1
203607,1200,1200,1200,1200,0.66,680,11.98,0.88,-4.02,120.71,-7.91,5.41,5.71,0.2,-2.0,0.0
203607,1200,1200,1200,1200,0.66,680,11.97,1.08,-4.23,120.50,4.05,-5.97,7.70,-1.2,-3.4,-2.0
203607,1200,1200,1200,1200,0.63,677,11.99,0.63,-4.17,120.37,10.25,0.40,4.19,-0.2,-6.3,-1.0
203607,1200,1200,1200,1200,0.61,675,11.99,0.47,-4.18,120.27,4.55,2.22,-2.46,0.4,-5.9,-3.3
203607,1200,1200,1200,1200,0.64,678,11.98,0.48,-3.54,120.20,-4.44,5.87,12.44,1.1,-2.4,-1.1
203607,1200,1200,1200,1200,0.65,679,11.98,0.69,-3.83,120.12,9.45,-1.05,7.00,-0.2,3.7,-2.7
203607,1200,1200,1200,1200,0.62,676,11.99,0.94,-3.30,119.93,8.23,0.50,8.56,1.6,5.3,-4.8
203607,1200,1200,1200,1200,0.63,677,11.98,1.16,-3.22,119.75,-0.57,-2.88,10.67,2.0,0.5,-2.2
203607,1200,1200,1200,1200,0.64,678,11.98,1.19,-2.86,119.61,-0.61,6.28,4.23,-0.2,-3.1,-2.7
203607,1200,1200,1200,1200,0.65,679,11.97,1.35,-3.33,119.43,2.22,-0.94,1.09,0.1,-2.9,-3.4
203607,1200,1200,1200,1200,0.65,679,11.99,1.35,-3.58,119.22,10.64,-3.68,12.09,1.7,-2.0,-5.7
203607,1200,1200,1200,1200,0.65,679,11.98,1.59,-3.93,118.88,1.25,4.31,5.97,4.0,-1.3,-6.8
203607,1200,1200,1200,1200,0.67,681,11.99,1.72,-4.41,118.58,3.70,2.15,8.48,-0.3,7.9,-5.9
203607,1200,1200,1200,1200,0.66,680,11.98,1.70,-4.33,118.18,-2.39,2.52,11.12,-0.7,6.0,-9.5
203607,1200,1200,1200,1200,0.68,682,11.99,2.04,-3.90,117.68,1.09,2.46,10.48,0.5,3.8,-8.1
203607,1200,1200,1200,1200,0.65,679,11.98,2.35,-3.42,117.21,4.05,0.87,7.58,0.5,2.4,-10.1
203608,1200,1200,1200,1200,0.70,684,11.97,2.30,-3.03,116.68,-10.71,-2.18,12.98,-0.6,-2.4,-13.9
203608,1200,1200,1200,1200,0.66,680,11.98,2.15,-3.40,116.06,6.29,-5.71,7.00,-0.5,-1.0,-12.6
203608,1200,1200,1200,1200,0.65,679,11.99,1.69,-3.46,115.60,-3.11,0.83,11.82,-1.9,3.1,-12.0
203608,1200,1200,1200,1200,0.66,680,11.98,1.92,-3.02,115.04,10.00,1.60,-1.49,-3.8,9.3,-10.7
203608,1200,1200,1200,1200,0.68,682,11.98,1.65,-3.49,114.60,-2.14,-1.27,9.75,-1.0,-3.5,-8.5
203608,1200,1200,1200,1200,0.66,680,12.00,1.43,-2.92,114.21,13.06,-2.12,-2.74,-4.2,2.7,-6.7
203608,1200,1200,1200,1200,0.69,683,11.98,1.12,-3.00,113.91,2.32,3.67,3.19,-4.6,6.8,-7.0
203608,1200,1200,1200,1200,0.66,680,11.96,1.22,-3.05,113.59,7.69,0.74,5.65,-3.2,0.9,-6.5
203608,1200,1200,1200,1200,0.70,684,11.98,0.99,-3.14,113.29,-10.55,0.02,8.62,-2.7,-9.5,-6.7
203608,1200,1200,1200,1200,0.69,683,11.98,0.62,-2.76,113.00,9.86,2.37,1.41,-2.9,2.7,-7.2
203608,1200,1200,1200,1200,0.67,681,11.98,0.31,-3.39,112.80,-9.46,-0.80,13.48,-0.9,-4.8,-6.7
203608,1200,1200,1200,1200,0.72,686,11.98,0.30,-3.10,112.57,1.19,2.36,10.10,0.1,3.5,-5.3
203608,1200,1200,1200,1200,0.70,684,11.98,0.42,-3.10,112.35,-5.68,1.22,12.81,-1.4,-2.6,-2.0
203608,1200,1200,1200,1200,0.66,680,11.98,0.29,-3.06,112.25,4.02,2.74,3.69,0.2,9.9,-2.3
203608,1200,1200,1200,1200,0.70,684,11.99,0.43,-2.41,112.14,-0.98,-7.25,7.04,-0.7,-1.6,-1.7
203608,1200,1200,1200,1200,0.73,687,11.99,0.19,-2.66,112.12,-1.81,-1.83,14.33,0.1,-0.9,-0.5
203608,1200,1200,1200,1200,0.69,683,11.99,0.05,-2.52,112.12,3.91,-3.37,7.42,1.5,3.9,-1.2
203608,1200,1200,1200,1200,0.69,683,11.97,-0.19,-3.16,112.11,15.74,-3.15,-0.03,-0.7,8.9,-1.2
203608,1200,1200,1200,1200,0.65,679,11.96,-0.48,-3.97,112.02,6.02,-4.56,7.65,-0.4,3.7,-3.1
203608,1200,1200,1200,1200,0.68,682,11.97,-0.51,-4.22,111.93,5.00,-2.66,4.73,0.6,10.7,-0.4
203609,1200,1200,1200,1200,0.72,686,11.98,-0.40,-3.92,111.91,-9.00,-0.48,17.65,2.1,-3.5,1.3
203609,1200,1200,1200,1200,0.68,682,11.98,-0.08,-3.13,111.85,4.64,2.23,-1.22,1.5,0.8,-1.1
203609,1200,1200,1200,1200,0.68,682,11.98,-0.13,-3.53,111.77,10.52,0.39,5.39,3.7,5.5,-3.7
203609,1200,1200,1200,1200,0.66,680,11.98,0.27,-3.51,111.67,15.17,-1.86,4.27,2.9,7.8,-0.8
203609,1200,1200,1200,1200,0.65,679,11.99,0.55,-3.73,111.56,-14.97,-0.52,10.39,2.9,-5.9,-4.1
203609,1200,1200,1200,1200,0.69,683,11.98,0.97,-2.89,111.36,3.58,3.12,5.99,5.7,-4.9,-1.5
203609,1200,1200,1200,1200,0.64,678,11.98,1.23,-3.29,111.29,-8.92,-1.96,14.70,4.0,-14.2,1.2
203609,1200,1200,1200,1200,0.69,683,11.98,1.29,-4.05,111.30,5.54,-0.17,6.47,3.7,3.0,0.6
203609,1200,1200,1200,1200,0.68,682,11.99,1.52,-4.03,111.35,-3.69,-1.74,8.31,6.3,-2.3,0.5
203609,1200,1200,1200,1200,0.69,683,11.98,1.76,-3.88,111.40,3.38,-0.37,6.83,6.8,0.6,-1.4
203609,1200,1200,1200,1200,0.69,683,11.98,1.99,-3.87,111.49,-2.02,3.24,6.62,5.4,4.5,-0.4
203609,1200,1200,1200,1200,0.64,678,11.99,2.64,-3.40,111.52,1.88,2.62,12.73,5.5,4.4,-1.5
203609,1200,1200,1200,1200,0.72,686,11.97,3.06,-2.97,111.49,-2.11,5.18,10.28,3.5,0.1,-0.2
203609,1200,1200,1200,1200,0.65,679,11.98,3.42,-2.76,111.43,-5.34,2.03,11.92,0.8,-7.2,0.4
203609,1200,1200,1200,1200,0.71,685,11.98,3.52,-2.72,111.39,4.17,2.93,7.00,-0.1,6.7,-1.0
203609,1200,1200,1200,1200,0.69,683,11.99,3.77,-2.90,111.26,3.49,-1.44,7.04,-0.7,-1.5,-3.1
203609,1200,1200,1200,1200,0.71,685,11.99,3.37,-3.03,111.05,-0.74,-2.76,7.60,-0.9,2.0,-5.6
203609,1200,1200,1200,1200,0.67,681,11.99,3.12,-3.20,110.78,5.17,0.43,6.94,-0.5,-1.9,-7.9
