time,pwm1,pwm2,pwm3,pwm4,depth,press,voltage,roll,pitch,yaw,a_x,a_y,a_z,w_row,w_pitch,w_yaw
164524,1100,1100,1100,1100,-0.02,614,12.06,6.88,1.23,38.31,-0.17,1.04,8.73,-1.0,-0.4,-1.3
164524,1100,1100,1100,1100,0.01,617,12.05,6.82,1.21,38.24,-0.16,0.95,8.63,-1.1,-0.4,-1.4
164524,1100,1100,1100,1100,-0.01,615,12.02,6.75,1.24,38.18,0.49,1.47,8.81,0.5,2.7,-1.4
164524,1100,1100,1100,1100,0.02,618,12.01,6.91,1.04,38.14,0.67,5.23,9.38,4.9,7.9,0.1
164524,1201,1201,1201,1201,0.00,616,11.97,7.22,2.13,38.14,2.54,1.11,5.08,3.8,8.7,-2.8
164524,1201,1201,1201,1201,0.01,617,11.91,7.19,2.55,38.09,-0.56,6.79,3.37,-6.4,3.4,-4.3
164524,1201,1201,1201,1201,0.04,620,11.91,7.18,2.32,37.88,-1.80,-2.86,9.77,-11.7,-6.2,-7.8
164524,1201,1201,1201,1201,0.01,617,11.90,6.69,2.63,37.46,-10.00,1.86,13.80,-16.8,-5.8,-5.7
164525,1201,1201,1201,1201,0.09,626,11.89,6.17,2.51,37.00,-1.95,2.30,11.20,-14.5,-9.9,-9.2
164525,1201,1201,1201,1201,0.02,618,11.90,5.64,2.44,36.40,-14.43,0.48,14.86,-13.4,-9.6,-10.2
164525,1201,1201,1201,1201,0.03,619,11.89,4.91,2.47,35.73,4.48,0.23,7.03,-10.9,-2.1,-13.2
164525,1201,1201,1201,1201,0.05,621,11.90,4.01,1.57,34.95,-12.18,0.76,12.38,-13.7,-8.3,-15.6
164525,1201,1201,1201,1201,0.09,626,11.89,3.47,1.05,34.14,-3.07,1.04,10.33,-11.7,-1.8,-18.1
164525,1201,1201,1201,1201,0.09,626,11.89,2.65,0.29,33.20,-2.83,-0.13,12.03,-13.2,-6.5,-20.1
164525,1201,1201,1201,1201,0.10,627,11.91,1.95,-0.04,32.18,-9.29,3.21,14.56,-9.1,-9.9,-20.9
164525,1201,1201,1201,1201,0.08,625,11.90,1.44,0.25,31.07,-0.93,8.32,4.50,-10.3,-12.9,-22.6
164525,1201,1201,1201,1201,0.11,628,11.90,1.01,0.28,29.91,13.09,0.53,3.39,-9.3,-1.4,-23.5
164525,1201,1201,1201,1201,0.12,629,11.88,0.24,-0.28,28.66,10.34,-4.70,4.57,-8.4,3.7,-25.4
164525,1201,1201,1201,1201,0.12,629,11.89,-0.15,-0.12,27.38,10.35,0.35,5.20,-6.0,-1.7,-26.5
164525,1201,1201,1201,1201,0.13,630,11.89,-0.63,-1.22,26.01,0.56,0.49,11.05,-1.5,-2.1,-27.0
164525,1201,1201,1201,1201,0.13,630,11.90,-0.74,-2.07,24.66,-4.49,-0.74,6.66,2.3,-9.9,-27.8
164525,1201,1201,1201,1201,0.13,630,11.90,-0.56,-2.77,23.28,1.72,-0.19,13.75,5.4,-1.9,-27.2
164525,1201,1201,1201,1201,0.15,632,11.90,-0.37,-2.33,21.96,4.54,-0.23,8.15,8.7,10.6,-27.8
164525,1201,1201,1201,1201,0.16,633,11.89,-0.03,-2.59,20.60,-15.41,4.73,9.35,8.5,-3.2,-27.6
164525,1201,1201,1201,1201,0.18,635,11.90,0.30,-2.28,19.27,-19.60,3.34,19.60,11.2,-4.2,-27.2
164525,1201,1201,1201,1201,0.17,634,11.90,0.85,-1.94,17.96,14.32,-2.56,3.17,10.7,6.0,-25.3
164525,1201,1201,1201,1201,0.16,633,11.89,1.63,-1.23,16.59,8.35,1.47,5.00,9.8,15.6,-26.6
164525,1201,1201,1201,1201,0.18,635,11.91,1.92,-1.74,15.18,-8.30,1.44,13.89,6.9,-1.2,-28.1
164526,1201,1201,1201,1201,0.21,638,11.89,2.15,-1.43,13.82,2.38,-1.68,1.93,5.6,8.3,-27.6
164526,1201,1201,1201,1201,0.17,634,11.88,2.25,-1.54,12.43,-12.60,2.60,13.59,3.2,1.2,-29.3
164526,1201,1201,1201,1201,0.18,635,11.90,2.69,-0.98,11.00,-7.59,-1.22,14.52,2.4,-4.8,-28.3
164526,1201,1201,1201,1201,0.24,641,11.91,2.93,-0.35,9.67,6.92,0.54,5.85,0.8,8.1,-25.6
164526,1201,1201,1201,1201,0.21,638,11.88,2.98,-1.02,8.40,10.61,-2.61,-0.35,0.3,3.4,-23.2
164526,1201,1201,1201,1201,0.24,641,11.89,2.53,-0.93,7.10,-8.50,-2.98,18.92,0.5,-2.7,-25.8
164526,1201,1201,1201,1201,0.25,643,11.89,2.63,-0.87,5.77,-4.00,-2.65,8.72,-0.9,3.5,-25.0
164526,1201,1201,1201,1201,0.22,639,11.90,2.56,-0.13,4.52,9.77,-0.75,6.95,-4.0,16.2,-24.9
164526,1201,1201,1201,1201,0.23,640,11.90,2.69,0.33,3.30,6.70,2.68,4.63,-1.3,5.1,-24.4
164526,1201,1201,1201,1201,0.25,642,11.90,2.49,0.11,2.16,-2.17,-0.65,12.43,-0.4,6.0,-21.2
164526,1201,1201,1201,1201,0.25,643,11.90,2.48,0.76,1.13,1.62,3.33,6.88,1.3,7.3,-19.8
164526,1201,1201,1201,1201,0.27,645,11.90,2.99,1.07,0.14,2.85,2.87,1.16,4.9,4.2,-19.5
164526,1201,1201,1201,1201,0.27,645,11.90,3.37,0.75,-0.87,-1.12,-1.38,4.90,7.5,5.8,-20.7
164526,1201,1201,1201,1201,0.25,642,11.89,3.46,0.69,-1.88,4.61,-3.98,5.76,6.4,12.0,-22.3
164526,1201,1201,1201,1201,0.25,643,11.89,3.79,1.09,-2.97,-0.73,0.01,13.61,5.6,-3.4,-23.1
164526,1201,1201,1201,1201,0.25,643,11.89,3.90,1.15,-4.13,-7.96,2.39,10.17,3.1,-3.2,-22.2
164526,1201,1201,1201,1201,0.25,643,11.88,3.71,0.89,-5.28,-0.92,4.55,9.00,2.9,4.4,-21.9
164526,1201,1201,1201,1201,0.25,643,11.88,3.93,1.35,-6.50,-2.19,1.53,14.10,0.9,-8.0,-26.1
164526,1201,1201,1201,1201,0.26,644,11.89,3.69,1.17,-7.83,11.03,1.57,6.92,-0.1,-2.5,-28.4
164526,1201,1201,1201,1201,0.26,644,11.88,3.60,0.53,-9.27,-11.68,-4.02,15.74,-2.3,-5.1,-30.5
164527,1201,1201,1201,1201,0.27,645,11.89,3.38,0.46,-10.68,1.44,-1.17,6.57,-2.6,2.6,-28.9
164527,1201,1201,1201,1201,0.28,646,11.88,3.10,0.30,-12.14,-10.71,1.05,16.25,-0.2,-10.1,-30.4
164527,1201,1201,1201,1201,0.28,646,11.89,2.80,0.28,-13.56,-10.14,4.22,12.14,-0.3,-1.0,-26.1
164527,1201,1201,1201,1201,0.28,646,11.88,2.62,-0.09,-15.06,0.78,0.14,8.81,2.2,-7.8,-30.2
164527,1201,1201,1201,1201,0.31,649,11.89,2.55,-0.24,-16.64,2.39,1.17,5.42,-0.9,-3.2,-32.2
164527,1201,1201,1201,1201,0.28,646,11.88,2.58,0.32,-18.32,-2.78,0.58,6.81,2.6,-7.7,-35.6
164527,1201,1201,1201,1201,0.32,650,11.89,2.74,0.36,-20.12,-6.40,-4.67,11.56,0.9,-5.5,-37.5
164527,1201,1201,1201,1201,0.29,647,11.90,2.75,0.57,-21.87,6.22,0.52,2.63,1.9,6.3,-35.9
164527,1201,1201,1201,1201,0.31,649,11.89,2.58,0.24,-23.60,-0.15,-1.62,12.27,2.9,1.3,-34.4
164527,1201,1201,1201,1201,0.32,650,11.90,2.78,0.61,-25.33,2.04,2.08,7.51,2.6,-1.5,-33.4
164527,1201,1201,1201,1201,0.32,650,11.88,2.73,0.76,-27.00,-0.18,2.94,9.77,2.3,-2.3,-32.5
164527,1201,1201,1201,1201,0.35,653,11.90,2.75,0.88,-28.68,-0.73,0.37,16.73,6.0,9.6,-35.6
164527,1201,1201,1201,1201,0.36,654,11.90,2.89,1.15,-30.36,3.39,-2.73,5.49,2.0,13.9,-34.3
164527,1201,1201,1201,1201,0.32,650,11.91,2.78,1.08,-32.02,1.25,1.24,7.94,4.0,-1.6,-33.4
164527,1201,1201,1201,1201,0.35,653,11.88,2.97,1.00,-33.59,4.07,1.65,3.19,4.6,6.8,-31.2
164527,1201,1201,1201,1201,0.33,651,11.89,3.26,0.71,-35.02,5.27,2.16,10.23,5.5,3.7,-27.2
164527,1201,1201,1201,1201,0.31,649,11.88,3.58,1.49,-36.32,-2.84,-3.48,8.03,2.3,8.4,-25.8
164527,1201,1201,1201,1201,0.34,652,11.88,3.46,1.49,-37.61,-11.87,0.51,8.08,-0.1,1.4,-25.9
164527,1201,1201,1201,1201,0.30,648,11.89,3.28,2.14,-38.88,2.80,-1.34,10.57,1.0,3.7,-25.5
164527,1201,1201,1201,1201,0.37,655,11.88,3.12,2.06,-40.11,0.62,-1.00,8.60,0.5,6.5,-25.7
164528,1201,1201,1201,1201,0.32,650,11.89,2.93,2.39,-41.31,11.27,-3.32,-2.05,-0.3,11.5,-25.0
164528,1201,1201,1201,1201,0.32,650,11.88,2.55,2.36,-42.46,-0.15,-2.94,10.72,-1.8,-4.0,-22.9
164528,1201,1201,1201,1201,0.36,654,11.89,2.43,2.77,-43.49,2.61,3.74,8.14,-0.4,0.2,-19.2
164528,1201,1201,1201,1201,0.35,653,11.89,1.99,2.81,-44.49,-4.60,-7.42,9.39,0.4,-10.9,-19.3
164528,1201,1201,1201,1201,0.36,654,11.89,1.72,3.29,-45.42,4.55,1.38,8.76,1.0,3.5,-18.1
164528,1201,1201,1201,1201,0.39,657,11.88,1.42,2.80,-46.31,0.19,-2.58,12.34,1.6,-1.1,-17.8
164528,1201,1201,1201,1201,0.30,648,11.88,1.24,2.96,-47.09,-8.41,1.66,15.28,0.9,-0.5,-16.0
164528,1201,1201,1201,1201,0.39,657,11.89,1.65,3.32,-47.98,-4.42,1.23,8.77,0.9,-0.7,-16.8
164528,1201,1201,1201,1201,0.37,655,11.89,1.74,3.53,-48.87,-1.06,2.45,9.22,1.1,2.4,-16.1
164528,1201,1201,1201,1201,0.34,652,11.88,1.80,3.59,-49.66,2.47,-0.62,8.06,0.8,-2.9,-16.1
164528,1201,1201,1201,1201,0.36,654,11.88,1.47,3.22,-50.42,-8.25,-2.72,10.70,1.4,-0.5,-13.6
164528,1201,1201,1201,1201,0.34,652,11.89,1.21,2.44,-51.13,6.85,4.45,3.75,0.5,8.0,-14.1
164528,1201,1201,1201,1201,0.35,653,11.88,1.35,2.21,-51.80,-7.87,-2.01,10.80,0.9,-3.7,-12.4
164528,1201,1201,1201,1201,0.37,655,11.88,0.99,2.27,-52.43,14.52,1.23,4.91,-1.0,7.9,-12.5
164528,1201,1201,1201,1201,0.37,655,11.88,0.29,2.06,-52.97,1.62,-1.31,11.81,-2.4,2.3,-8.2
164528,1201,1201,1201,1201,0.39,657,11.88,-0.11,2.08,-53.37,-4.28,1.53,9.16,-0.4,-8.1,-6.3
164528,1201,1201,1201,1201,0.41,659,11.89,0.03,2.09,-53.72,-1.38,-3.77,3.79,3.4,6.2,-6.8
164528,1201,1201,1201,1201,0.41,659,11.89,0.20,2.37,-54.12,0.98,-1.79,9.00,4.7,2.6,-7.3
164528,1201,1201,1201,1201,0.37,655,11.88,0.25,2.18,-54.45,3.31,1.61,4.23,4.5,2.5,-9.2
164528,1201,1201,1201,1201,0.36,654,11.88,0.69,2.16,-54.88,5.85,3.64,6.34,3.2,1.4,-9.7
164529,1201,1201,1201,1201,0.32,650,11.89,1.13,1.65,-55.19,-0.86,-1.86,14.49,1.1,-0.2,-6.5
164529,1201,1201,1201,1201,0.39,657,11.89,0.98,1.94,-55.43,-5.07,4.58,13.70,2.4,5.4,-4.5
164529,1201,1201,1201,1201,0.39,657,11.89,1.21,2.08,-55.64,5.70,-0.24,2.36,4.3,2.4,-2.4
164529,1201,1201,1201,1201,0.36,654,11.88,1.48,1.56,-55.88,-6.67,-0.02,14.93,1.6,-0.5,-3.8
164529,1201,1201,1201,1201,0.36,654,11.89,1.55,2.33,-56.07,9.38,-5.53,4.22,2.7,2.6,-5.2
164529,1201,1201,1201,1201,0.40,658,11.88,1.67,2.18,-56.16,8.68,1.92,10.49,3.3,12.6,-1.9
164529,1201,1201,1201,1201,0.42,660,11.88,2.17,2.54,-56.25,-7.52,1.47,9.81,5.1,0.5,-2.4
164529,1201,1201,1201,1201,0.34,652,11.88,1.96,2.74,-56.35,-4.42,0.62,13.06,2.9,-0.5,-2.2
164529,1201,1201,1201,1201,0.37,655,11.88,2.14,2.78,-56.45,-3.45,0.16,11.10,4.8,0.5,-3.2
164529,1201,1201,1201,1201,0.37,655,11.88,2.17,2.50,-56.54,-3.03,-4.30,11.99,4.8,-0.1,-0.9
164529,1201,1201,1201,1201,0.41,659,11.89,2.41,2.47,-56.60,0.30,1.12,3.18,5.8,1.8,-0.8
164529,1201,1201,1201,1201,0.39,657,11.88,2.21,1.97,-56.69,-6.33,4.11,17.21,2.2,-11.8,-1.5
164529,1201,1201,1201,1201,0.36,654,11.88,2.74,2.41,-56.76,-12.67,0.02,10.57,3.8,-7.0,-2.1
164529,1201,1201,1201,1201,0.38,656,11.87,2.80,2.17,-56.94,-7.31,-2.83,9.88,4.1,-8.1,-4.8
164529,1201,1201,1201,1201,0.39,657,11.89,3.17,1.42,-57.16,4.93,-0.78,3.16,3.5,-0.2,-3.8
164529,1201,1201,1201,1201,0.41,659,11.88,3.24,0.93,-57.36,5.11,-0.52,6.15,4.2,-8.6,-3.6
164529,1201,1201,1201,1201,0.41,659,11.87,3.42,0.60,-57.65,4.46,3.33,2.40,3.2,-3.2,-5.1
164529,1201,1201,1201,1201,0.37,655,11.88,3.75,0.30,-58.01,-3.01,-0.09,13.83,1.8,-0.9,-8.7
164529,1201,1201,1201,1201,0.42,660,11.88,3.71,-0.00,-58.42,8.00,0.93,4.12,-1.6,6.7,-9.9
164529,1201,1201,1201,1201,0.38,656,11.88,3.82,-0.60,-58.94,0.42,2.44,6.65,-1.5,-6.8,-10.1
164530,1201,1201,1201,1201,0.42,660,11.87,3.93,-0.60,-59.44,-11.65,-1.33,7.18,-0.5,-12.9,-10.8
164530,1201,1201,1201,1201,0.38,656,11.87,4.00,-0.34,-60.04,0.81,-0.37,9.25,-5.0,4.0,-11.2
164530,1201,1201,1201,1201,0.38,656,11.88,4.11,0.05,-60.63,4.75,2.16,9.58,-6.1,5.1,-10.9
164530,1201,1201,1201,1201,0.40,658,11.88,3.68,0.16,-61.33,-8.85,-3.48,7.13,-5.9,-10.1,-13.5
164530,1201,1201,1201,1201,0.39,657,11.88,3.29,-0.06,-62.16,3.47,3.10,10.10,-5.9,-0.7,-19.7
164530,1201,1201,1201,1201,0.39,657,11.87,3.05,0.02,-63.11,-0.31,4.80,10.67,-5.5,5.9,-20.1
164530,1201,1201,1201,1201,0.42,661,11.88,2.92,0.15,-64.02,6.71,-0.31,6.51,-5.7,11.8,-20.1
164530,1201,1201,1201,1201,0.39,657,11.89,2.38,-0.11,-64.97,1.13,-4.25,7.79,-6.2,2.5,-21.5
164530,1201,1201,1201,1201,0.35,653,11.88,2.14,0.52,-65.99,18.04,-0.09,10.91,-5.3,5.7,-20.4
164530,1201,1201,1201,1201,0.39,657,11.88,1.63,-0.19,-66.89,6.01,-3.80,10.96,-4.8,8.4,-16.8
164530,1201,1201,1201,1201,0.39,657,11.88,1.43,-0.13,-67.82,3.44,-2.66,4.24,-7.1,15.2,-19.2
164530,1201,1201,1201,1201,0.42,660,11.88,1.37,-0.22,-68.79,-11.74,-2.83,11.54,-4.7,0.0,-16.9
164530,1201,1201,1201,1201,0.39,657,11.88,0.96,0.09,-69.73,-2.68,0.29,8.66,-2.6,-6.1,-18.1
164530,1201,1201,1201,1201,0.39,657,11.87,0.64,-0.29,-70.60,-0.95,-5.43,6.70,-2.0,1.1,-19.0
164530,1201,1201,1201,1201,0.41,659,11.87,0.34,-0.33,-71.52,2.23,2.44,3.51,-3.1,1.7,-18.2
164530,1201,1201,1201,1201,0.36,654,11.88,0.32,-0.45,-72.35,-1.68,-0.99,11.13,-0.1,-4.9,-14.3
164530,1201,1201,1201,1201,0.37,655,11.87,0.02,-0.72,-73.03,-10.58,1.53,15.35,0.9,-4.3,-11.3
164530,1201,1201,1201,1201,0.35,653,11.88,0.20,-0.75,-73.58,3.24,-2.88,16.06,1.8,-4.2,-9.8
164530,1201,1201,1201,1201,0.37,655,11.87,-0.03,-1.46,-73.97,3.96,2.93,7.42,-0.2,-0.5,-5.2
164530,1201,1201,1201,1201,0.37,655,11.88,-0.31,-2.45,-74.26,7.14,-6.36,3.33,2.7,-4.9,-7.9
164531,1201,1201,1201,1201,0.36,654,11.88,-0.14,-2.73,-74.57,2.09,4.34,10.90,1.0,-5.4,-3.8
164531,1201,1201,1201,1201,0.37,655,11.88,-0.34,-2.88,-74.64,-6.37,-1.68,11.23,2.4,-16.0,0.5
164531,1201,1201,1201,1201,0.40,658,11.87,-0.27,-3.02,-74.66,-1.19,3.01,11.75,4.8,-1.3,-0.4
164531,1201,1201,1201,1201,0.32,650,11.88,0.05,-2.71,-74.62,1.18,2.09,8.25,5.6,0.5,4.0
164531,1201,1201,1201,1201,0.32,650,11.87,0.14,-2.83,-74.47,-6.39,2.86,12.03,5.4,-5.8,3.5
164531,1201,1201,1201,1201,0.35,653,11.87,0.48,-2.26,-74.32,6.53,-3.28,7.37,5.6,-1.3,3.1
164531,1201,1201,1201,1201,0.36,654,11.87,0.74,-2.58,-74.13,11.43,1.91,5.61,5.4,3.8,3.3
164531,1201,1201,1201,1201,0.35,653,11.89,0.98,-3.36,-73.85,-13.39,-1.10,19.60,3.8,-12.5,5.1
164531,1201,1201,1201,1201,0.38,656,11.88,1.31,-3.03,-73.40,7.34,1.59,-2.75,2.4,8.2,9.3
164531,1201,1201,1201,1201,0.39,657,11.88,1.43,-3.24,-72.88,3.46,-0.37,11.47,2.5,2.7,12.0
164531,1201,1201,1201,1201,0.32,650,11.86,1.46,-3.31,-72.21,-7.04,-1.07,12.38,-0.5,5.1,16.1
164531,1201,1201,1201,1201,0.33,651,11.87,1.42,-2.82,-71.48,-1.39,1.76,6.70,-0.4,7.0,16.1
164531,1201,1201,1201,1201,0.33,651,11.89,1.03,-2.84,-70.65,4.98,-2.91,0.51,-1.5,3.5,16.5
164531,1201,1201,1201,1201,0.35,653,11.88,1.12,-2.57,-69.81,-5.60,2.11,17.93,0.7,3.8,16.5
164531,1201,1201,1201,1201,0.32,650,11.86,1.15,-2.03,-68.88,-10.15,1.00,14.81,2.3,-2.1,17.7
164531,1201,1201,1201,1201,0.29,647,11.87,1.01,-2.02,-67.85,7.30,-0.45,2.85,-0.2,4.5,19.8
164531,1201,1201,1201,1201,0.33,651,11.87,1.33,-1.56,-66.89,7.40,0.02,5.79,0.9,10.3,18.6
164531,1201,1201,1201,1201,0.28,646,11.87,0.96,-2.07,-65.89,-3.93,-4.51,12.22,0.7,6.3,21.1
164531,1201,1201,1201,1201,0.37,655,11.87,0.91,-1.89,-64.78,7.09,1.07,2.16,0.9,7.6,24.5
164531,1201,1201,1201,1201,0.33,651,11.88,0.97,-2.51,-63.63,4.45,3.66,7.41,3.6,-3.7,22.9
164532,1201,1201,1201,1201,0.30,648,11.87,1.41,-2.97,-62.55,-9.46,1.31,18.48,5.2,-10.5,21.5
164532,1201,1201,1201,1201,0.33,651,11.88,1.59,-2.36,-61.58,2.15,-1.23,2.12,4.7,-4.0,16.4
164532,1201,1201,1201,1201,0.28,646,11.87,1.83,-2.78,-60.84,7.11,-3.49,5.53,3.9,3.5,13.8
164532,1201,1201,1201,1201,0.31,649,11.88,2.00,-3.64,-60.09,0.02,-1.17,3.98,0.1,-5.1,15.6
164532,1201,1201,1201,1201,0.32,650,11.87,1.95,-3.46,-59.24,-11.46,3.75,13.85,-0.2,-14.2,17.5
164532,1201,1201,1201,1201,0.31,649,11.86,1.80,-3.68,-58.38,2.02,-2.15,1.00,0.1,-12.5,19.2
164532,1201,1201,1201,1201,0.32,650,11.87,1.71,-2.98,-57.45,7.68,-2.77,4.76,4.7,1.8,17.6
164532,1201,1201,1201,1201,0.29,647,11.87,1.90,-3.40,-56.63,15.17,1.77,1.75,1.2,-0.1,18.2
164532,1201,1201,1201,1201,0.26,644,11.88,1.65,-4.63,-55.75,-7.61,4.49,13.98,4.8,-8.1,17.0
164532,1201,1201,1201,1201,0.26,644,11.87,2.03,-4.33,-54.94,-5.35,0.01,9.63,2.4,1.1,14.8
164532,1201,1201,1201,1201,0.26,644,11.85,2.35,-4.39,-54.11,13.74,-2.59,0.30,3.6,2.9,18.9
164532,1201,1201,1201,1201,0.26,644,11.87,2.62,-4.45,-53.20,-0.80,0.32,10.85,1.4,-5.1,17.8
164532,1201,1201,1201,1201,0.24,641,11.87,2.75,-3.71,-52.49,-14.54,8.12,11.97,0.7,7.9,15.6
164532,1201,1201,1201,1201,0.29,647,11.86,2.55,-3.90,-51.65,18.46,-2.28,4.70,0.1,6.1,15.7
164532,1201,1201,1201,1201,0.27,645,11.88,2.46,-4.09,-50.95,-3.51,1.91,16.44,0.5,5.3,11.2
164532,1201,1201,1201,1201,0.25,643,11.88,2.44,-3.42,-50.42,19.58,-1.47,-2.99,0.5,19.2,7.2
164532,1201,1201,1201,1201,0.25,642,11.87,2.16,-3.61,-49.85,-12.94,7.19,15.17,-2.5,2.4,12.1
164532,1201,1201,1201,1201,0.26,644,11.88,2.29,-2.60,-49.30,2.49,-0.62,7.58,-3.9,3.7,8.4
164532,1201,1201,1201,1201,0.25,642,11.86,1.91,-2.52,-48.90,0.64,2.67,6.62,-4.8,6.0,7.7
164532,1201,1201,1201,1201,0.25,642,11.87,2.04,-2.31,-48.53,-13.93,-0.48,15.53,-3.0,-3.5,8.1
164533,1201,1201,1201,1201,0.27,645,11.87,1.90,-2.03,-48.17,1.55,3.28,6.23,3.4,-2.1,6.7
164533,1201,1201,1201,1201,0.25,643,11.87,2.08,-2.40,-47.94,10.24,0.51,3.40,4.4,3.8,5.2
164533,1201,1201,1201,1201,0.25,643,11.87,2.20,-2.15,-47.81,13.41,7.41,-1.81,5.6,-1.6,2.8
164533,1201,1201,1201,1201,0.25,643,11.87,2.40,-3.28,-47.81,-3.45,-2.94,9.80,5.9,-3.3,-0.7
164533,1201,1201,1201,1201,0.26,644,11.88,2.88,-3.40,-47.92,-5.27,-1.37,9.12,6.2,-1.3,-2.7
164533,1201,1201,1201,1201,0.27,645,11.87,3.13,-3.19,-48.19,8.75,-4.65,6.55,4.0,3.4,-7.6
164533,1201,1201,1201,1201,0.24,641,11.87,2.96,-3.40,-48.61,-0.82,2.19,10.61,0.5,-8.5,-9.6
164533,1201,1201,1201,1201,0.22,639,11.88,3.45,-3.68,-49.08,13.82,-1.95,2.46,-0.1,1.8,-11.5
164533,1201,1201,1201,1201,0.22,639,11.88,3.40,-4.03,-49.77,-3.42,2.78,11.54,-0.7,-11.0,-12.5
164533,1201,1201,1201,1201,0.23,640,11.88,3.38,-4.19,-50.40,-5.51,-0.50,7.36,0.9,-3.5,-11.3
164533,1201,1201,1201,1201,0.21,638,11.87,3.30,-4.96,-50.96,8.12,5.08,4.66,0.8,-2.6,-9.9
164533,1201,1201,1201,1201,0.25,643,11.86,3.45,-5.20,-51.46,2.20,0.57,3.56,-0.1,-2.6,-9.2
164533,1201,1201,1201,1201,0.22,639,11.87,4.02,-5.04,-51.87,-3.93,-0.74,11.82,-0.1,-3.5,-7.3
164533,1201,1201,1201,1201,0.20,637,11.86,3.98,-5.12,-52.18,3.08,6.13,8.56,-1.3,2.3,-8.7
164533,1201,1201,1201,1201,0.21,638,11.87,4.15,-5.16,-52.61,0.86,4.73,7.11,-1.2,-3.7,-8.4
164533,1201,1201,1201,1201,0.19,636,11.86,4.05,-5.32,-52.96,1.85,2.33,6.28,-2.4,-1.5,-8.0
164533,1201,1201,1201,1201,0.20,637,11.86,4.29,-5.26,-53.38,-1.87,1.30,8.61,-2.0,2.7,-7.6
164533,1201,1201,1201,1201,0.20,637,11.88,4.29,-5.00,-53.85,9.83,-5.76,10.74,-3.5,8.3,-7.3
164533,1201,1201,1201,1201,0.22,639,11.86,4.51,-4.58,-54.29,-5.05,6.59,10.61,0.4,-3.7,-8.4
164533,1201,1201,1201,1201,0.20,637,11.87,4.65,-4.58,-54.77,3.37,2.87,7.55,4.5,-4.2,-10.1
164534,1201,1201,1201,1201,0.20,637,11.87,4.80,-5.09,-55.22,2.77,1.44,7.49,3.4,-12.2,-8.2
164534,1201,1201,1201,1201,0.22,639,11.87,4.97,-5.32,-55.63,1.27,1.84,9.00,5.0,-1.3,-11.2
164534,1201,1201,1201,1201,0.19,636,11.87,5.47,-4.94,-56.17,6.77,-2.44,6.02,5.3,-5.9,-11.3
164534,1201,1201,1201,1201,0.23,640,11.88,5.38,-5.48,-56.79,-0.78,2.66,8.21,6.1,-4.7,-14.3
164534,1201,1201,1201,1201,0.20,637,11.87,5.78,-4.92,-57.53,-9.20,2.00,13.52,8.7,-9.6,-11.8
164534,1201,1201,1201,1201,0.18,635,11.88,6.35,-5.31,-58.37,-5.28,1.44,12.14,8.7,0.4,-14.5
164534,1201,1201,1201,1201,0.20,637,11.87,6.98,-4.50,-59.26,-4.98,2.75,7.79,8.5,0.9,-14.8
164534,1201,1201,1201,1201,0.21,638,11.87,7.87,-3.67,-60.25,4.14,1.73,6.23,6.9,-0.4,-21.2
