time,pwm1,pwm2,pwm3,pwm4,depth,press,voltage,roll,pitch,yaw,a_x,a_y,a_z,w_row,w_pitch,w_yaw
212545,1100,1100,1100,1100,0.01,607,11.94,6.55,0.99,-74.03,-0.14,0.99,8.64,0.6,-0.3,0.1
212545,1100,1100,1100,1100,-0.02,604,11.94,6.57,0.96,-74.03,-0.20,1.00,8.60,0.0,-0.2,0.1
212545,1100,1100,1100,1100,0.01,607,11.91,6.57,0.96,-74.03,0.13,1.20,8.83,-0.4,0.2,-0.5
212545,1100,1100,1100,1100,0.00,606,11.91,6.52,1.06,-74.11,0.04,1.67,4.47,-0.9,0.7,-2.5
212546,1203,1203,1203,1203,0.06,612,11.86,6.54,0.96,-74.34,13.03,2.06,2.70,-0.7,-2.4,-4.8
212546,1203,1203,1203,1203,0.03,609,11.81,6.60,-0.01,-74.64,-9.42,1.54,12.38,0.2,-12.3,-7.4
212546,1203,1203,1203,1203,0.04,610,11.80,6.57,-0.32,-75.10,1.04,0.36,4.84,-3.7,-19.6,-10.1
212546,1203,1203,1203,1203,-0.01,605,11.80,6.27,-0.24,-75.76,-2.89,0.53,7.66,-2.6,-14.5,-14.6
212546,1203,1203,1203,1203,0.05,611,11.80,6.03,-0.45,-76.55,4.66,2.26,8.91,-8.3,-3.3,-13.2
212546,1203,1203,1203,1203,0.07,613,11.79,5.18,-0.88,-77.28,-0.26,2.03,8.20,-6.8,-6.2,-11.8
212546,1203,1203,1203,1203,0.09,616,11.80,5.00,-1.36,-77.95,-1.23,4.39,10.56,-4.7,-5.9,-10.9
212546,1203,1203,1203,1203,0.10,617,11.79,4.68,-1.31,-78.52,-8.50,0.01,6.56,-7.1,1.7,-12.1
212546,1203,1203,1203,1203,0.11,618,11.80,4.32,-0.86,-79.09,4.19,-2.77,10.01,-7.1,2.8,-11.2
212546,1203,1203,1203,1203,0.14,621,11.79,3.73,-0.13,-79.65,-0.85,2.88,13.79,-6.2,-0.4,-12.8
212546,1203,1203,1203,1203,0.11,618,11.80,3.26,0.26,-80.30,-0.37,1.41,8.62,-7.2,6.1,-13.6
212546,1203,1203,1203,1203,0.14,621,11.77,2.90,0.36,-81.00,5.71,-0.58,7.89,-5.1,6.0,-15.6
212546,1203,1203,1203,1203,0.16,623,11.80,3.04,-0.84,-81.79,-1.24,-1.89,10.04,-4.0,2.8,-16.5
212546,1203,1203,1203,1203,0.12,619,11.78,3.08,-0.63,-82.71,13.31,-0.29,5.37,0.4,-2.0,-19.6
212546,1203,1203,1203,1203,0.12,619,11.78,3.20,-1.14,-83.76,3.39,-4.02,6.47,1.8,-0.1,-23.4
212546,1203,1203,1203,1203,0.14,621,11.78,2.94,-0.59,-84.94,1.45,-0.56,12.85,0.5,4.2,-23.6
212546,1203,1203,1203,1203,0.16,623,11.79,2.84,-0.53,-86.20,-0.45,0.24,9.71,0.4,-3.7,-26.4
212546,1203,1203,1203,1203,0.20,627,11.79,2.61,-0.49,-87.54,2.17,-2.23,13.02,-1.0,1.0,-28.7
212546,1203,1203,1203,1203,0.18,625,11.81,2.78,-0.83,-88.85,4.93,-2.57,11.53,-1.3,4.5,-25.3
212546,1203,1203,1203,1203,0.23,630,11.80,2.48,-0.47,-90.19,6.40,-4.42,8.87,2.9,1.6,-27.3
212547,1203,1203,1203,1203,0.20,627,11.78,2.72,-0.64,-91.56,-0.34,0.67,14.17,4.9,-5.5,-29.1
212547,1203,1203,1203,1203,0.19,626,11.80,2.81,-0.74,-93.04,0.49,2.34,12.38,7.4,-4.0,-28.9
212547,1203,1203,1203,1203,0.18,625,11.79,3.19,-0.62,-94.52,-1.14,0.64,7.72,7.9,4.8,-31.2
212547,1203,1203,1203,1203,0.24,631,11.79,3.76,-0.71,-96.15,10.51,3.47,0.84,9.6,13.7,-32.3
212547,1203,1203,1203,1203,0.22,629,11.77,3.98,-0.72,-97.74,1.63,2.38,5.43,7.3,-1.3,-32.0
212547,1203,1203,1203,1203,0.23,630,11.78,4.35,-0.73,-99.39,-0.91,-1.70,14.62,7.1,2.0,-34.4
212547,1203,1203,1203,1203,0.23,630,11.77,4.78,-0.80,-101.14,1.44,2.41,4.98,5.3,-2.9,-36.4
212547,1203,1203,1203,1203,0.24,631,11.80,5.12,-0.50,-102.91,4.42,3.23,3.16,7.1,5.2,-36.2
212547,1203,1203,1203,1203,0.24,631,11.81,5.36,0.23,-104.72,2.17,-0.53,6.63,4.6,-2.1,-35.8
212547,1203,1203,1203,1203,0.25,632,11.79,5.50,0.68,-106.50,3.22,2.62,9.18,4.5,5.2,-37.5
212547,1203,1203,1203,1203,0.25,633,11.79,5.71,0.65,-108.40,2.62,-1.11,7.52,3.6,2.0,-36.6
212547,1203,1203,1203,1203,0.24,631,11.79,5.65,0.54,-110.30,-3.55,3.19,7.68,3.0,-2.2,-38.4
212547,1203,1203,1203,1203,0.25,633,11.79,5.48,1.60,-112.29,3.14,-1.99,15.14,3.8,1.1,-40.5
212547,1203,1203,1203,1203,0.23,630,11.78,5.52,1.48,-114.28,-0.09,0.18,11.89,2.0,3.8,-39.7
212547,1203,1203,1203,1203,0.27,635,11.80,5.49,1.73,-116.28,-1.90,0.09,7.84,4.5,-1.7,-40.1
212547,1203,1203,1203,1203,0.25,633,11.80,5.45,2.35,-118.30,1.60,2.67,6.48,3.8,0.4,-40.8
212547,1203,1203,1203,1203,0.26,634,11.78,5.88,1.65,-120.33,0.57,2.59,6.28,4.9,-2.6,-39.7
212547,1203,1203,1203,1203,0.25,633,11.79,5.83,1.52,-122.32,-6.93,-0.13,6.71,3.2,-3.4,-39.7
212547,1203,1203,1203,1203,0.26,634,11.79,5.87,1.70,-124.30,-2.83,3.36,8.10,4.5,0.4,-38.6
212547,1203,1203,1203,1203,0.20,627,11.78,5.98,1.16,-126.18,2.29,0.83,12.58,0.9,-5.8,-37.0
212548,1203,1203,1203,1203,0.28,636,11.79,5.69,1.38,-128.06,1.87,-1.57,9.07,-2.6,2.3,-36.8
212548,1203,1203,1203,1203,0.25,632,11.78,5.48,1.16,-129.88,1.89,1.57,6.60,-2.2,3.1,-38.4
212548,1203,1203,1203,1203,0.28,636,11.78,5.28,1.34,-131.82,-4.26,-2.91,12.72,-1.6,-6.6,-38.9
212548,1203,1203,1203,1203,0.28,636,11.80,5.06,1.37,-133.76,-9.49,-0.78,7.84,-2.3,-3.2,-38.1
212548,1203,1203,1203,1203,0.30,638,11.78,5.01,1.46,-135.69,-11.33,1.92,11.11,-4.6,-1.2,-40.0
212548,1203,1203,1203,1203,0.28,636,11.78,4.74,1.79,-137.65,5.81,1.53,12.12,-3.1,2.9,-39.6
212548,1203,1203,1203,1203,0.29,637,11.77,4.80,1.80,-139.48,-3.58,2.10,11.53,-1.2,2.8,-37.1
212548,1203,1203,1203,1203,0.31,639,11.78,4.64,1.56,-141.33,-3.02,3.15,11.86,1.5,-1.8,-36.4
212548,1203,1203,1203,1203,0.28,636,11.79,4.36,1.82,-143.20,2.42,-0.79,13.32,-1.9,3.3,-38.7
212548,1203,1203,1203,1203,0.32,640,11.78,3.91,3.19,-145.06,5.10,3.77,14.18,-1.7,5.7,-38.1
212548,1203,1203,1203,1203,0.32,640,11.80,3.75,3.48,-146.95,0.88,-2.88,5.64,-1.8,-1.3,-39.0
212548,1203,1203,1203,1203,0.31,639,11.79,3.33,4.11,-148.84,0.42,-2.07,7.29,-1.4,5.9,-37.0
212548,1203,1203,1203,1203,0.29,637,11.78,2.96,4.12,-150.77,6.46,4.48,10.47,0.4,5.7,-39.9
212548,1203,1203,1203,1203,0.26,634,11.79,2.69,4.78,-152.74,9.69,-0.03,8.76,-0.3,4.2,-38.3
212548,1203,1203,1203,1203,0.33,641,11.78,2.65,4.20,-154.66,9.30,0.63,4.74,2.1,6.7,-40.2
212548,1203,1203,1203,1203,0.27,635,11.80,2.50,4.49,-156.61,-3.08,-0.85,13.25,1.2,8.9,-38.6
212548,1203,1203,1203,1203,0.30,638,11.78,2.16,4.89,-158.66,-1.61,0.39,8.37,2.2,8.6,-41.4
212548,1203,1203,1203,1203,0.32,640,11.78,2.25,4.88,-160.72,6.45,-0.85,2.87,1.0,5.7,-41.0
212548,1203,1203,1203,1203,0.35,643,11.77,1.71,5.47,-162.88,-4.18,2.00,13.82,0.9,5.8,-44.1
212548,1203,1203,1203,1203,0.36,644,11.77,1.60,5.47,-165.13,6.74,-2.17,8.98,3.4,10.9,-42.2
212549,1203,1203,1203,1203,0.29,637,11.76,1.57,5.77,-167.26,-3.19,4.11,12.87,2.1,-1.6,-40.8
212549,1203,1203,1203,1203,0.36,644,11.78,1.44,5.83,-169.33,-5.05,-0.70,9.87,3.4,-0.1,-41.5
212549,1203,1203,1203,1203,0.35,643,11.77,1.39,6.38,-171.34,2.04,-0.50,6.97,4.2,-4.6,-38.5
212549,1203,1203,1203,1203,0.35,643,11.78,1.38,6.44,-173.30,0.88,-2.86,5.39,2.1,-3.6,-38.5
212549,1203,1203,1203,1203,0.35,643,11.78,1.20,6.44,-175.17,-0.54,2.09,8.65,2.3,-5.1,-36.3
212549,1203,1203,1203,1203,0.33,641,11.78,0.94,5.78,-176.97,-2.26,-2.55,14.80,0.1,-2.5,-34.9
212549,1203,1203,1203,1203,0.37,645,11.78,0.90,5.83,-178.76,10.14,0.29,8.02,-0.4,-3.9,-37.2
212549,1203,1203,1203,1203,0.35,643,11.78,0.93,5.25,179.49,2.49,0.69,1.68,1.7,-4.5,-33.0
212549,1203,1203,1203,1203,0.35,643,11.77,0.67,5.66,177.84,7.60,1.73,10.41,2.2,-6.8,-33.1
212549,1203,1203,1203,1203,0.33,641,11.79,0.55,5.45,176.20,8.09,1.77,1.52,1.0,0.8,-33.0
212549,1203,1203,1203,1203,0.37,645,11.78,0.34,5.10,174.66,2.49,1.59,5.44,1.8,1.1,-29.4
212549,1203,1203,1203,1203,0.37,645,11.78,0.14,4.60,173.26,-1.63,0.43,15.39,2.2,-0.7,-26.7
212549,1203,1203,1203,1203,0.34,642,11.79,0.15,4.71,171.90,-5.07,-0.05,11.26,0.9,1.6,-27.0
212549,1203,1203,1203,1203,0.37,645,11.77,0.17,4.58,170.54,-2.71,-0.58,3.74,3.4,1.5,-26.8
212549,1203,1203,1203,1203,0.36,644,11.78,0.11,4.35,169.12,1.56,3.35,6.30,3.1,5.1,-25.6
212549,1203,1203,1203,1203,0.38,646,11.77,0.62,4.14,167.85,3.10,2.30,10.40,4.2,5.7,-24.7
212549,1203,1203,1203,1203,0.33,641,11.78,0.46,4.23,166.57,6.31,0.93,5.86,4.5,5.7,-24.1
212549,1203,1203,1203,1203,0.39,647,11.79,0.81,4.36,165.40,4.58,-6.46,5.17,3.5,4.0,-24.5
212549,1203,1203,1203,1203,0.42,650,11.76,0.58,4.58,164.20,-6.38,0.14,9.16,4.2,4.8,-23.9
212549,1203,1203,1203,1203,0.38,646,11.78,0.57,4.75,163.07,3.95,3.84,7.80,1.7,5.7,-23.1
212550,1203,1203,1203,1203,0.38,646,11.78,0.57,4.67,161.93,0.03,-0.02,6.89,3.3,7.6,-23.4
212550,1203,1203,1203,1203,0.39,647,11.78,0.60,4.49,160.82,-4.37,3.14,9.14,0.7,7.6,-21.4
212550,1203,1203,1203,1203,0.40,648,11.78,0.48,4.34,159.76,-0.15,-3.31,11.45,4.0,5.0,-19.6
212550,1203,1203,1203,1203,0.40,648,11.78,0.57,4.87,158.75,-0.73,-1.55,10.08,3.8,3.7,-18.6
212550,1203,1203,1203,1203,0.39,647,11.78,0.44,5.81,157.83,-1.25,-2.85,16.31,2.1,4.9,-17.3
212550,1203,1203,1203,1203,0.38,646,11.76,0.67,5.45,156.88,4.05,-1.70,6.82,2.2,6.8,-19.8
212550,1203,1203,1203,1203,0.40,648,11.77,0.53,5.74,155.87,1.00,-0.57,10.48,2.6,5.7,-19.7
212550,1203,1203,1203,1203,0.37,645,11.78,0.74,6.09,154.95,-8.63,-2.02,7.73,0.4,1.4,-20.5
212550,1203,1203,1203,1203,0.36,644,11.78,0.43,6.46,153.97,0.52,-2.62,11.89,-2.1,2.1,-19.0
212550,1203,1203,1203,1203,0.39,647,11.78,0.14,5.98,153.03,-1.71,2.25,6.25,-3.2,-0.9,-18.9
212550,1203,1203,1203,1203,0.40,648,11.77,-0.17,6.35,152.13,0.56,-2.11,4.34,-2.1,-0.6,-17.2
212550,1203,1203,1203,1203,0.43,652,11.78,-0.24,6.31,151.33,5.53,1.34,0.33,-3.1,0.9,-14.3
212550,1203,1203,1203,1203,0.37,645,11.78,-0.06,5.76,150.66,0.84,-3.16,8.77,1.9,-2.9,-12.6
212550,1203,1203,1203,1203,0.41,649,11.77,-0.29,6.03,150.07,-0.31,-0.89,6.35,2.7,0.4,-10.1
212550,1203,1203,1203,1203,0.39,647,11.77,-0.47,6.29,149.50,0.91,1.94,8.48,2.0,1.5,-9.9
212550,1203,1203,1203,1203,0.36,644,11.79,-0.28,6.31,149.03,-3.14,4.29,8.11,2.1,3.2,-10.7
212550,1203,1203,1203,1203,0.39,647,11.77,0.14,6.02,148.55,7.18,-2.37,0.32,4.8,-4.9,-10.8
212550,1203,1203,1203,1203,0.39,647,11.78,0.32,5.51,148.07,3.70,-4.60,10.40,7.3,-10.1,-9.3
212550,1203,1203,1203,1203,0.41,649,11.78,0.36,5.01,147.70,5.25,-2.45,7.17,5.9,-5.9,-6.7
212550,1203,1203,1203,1203,0.42,651,11.76,0.82,4.47,147.41,7.70,2.25,4.13,5.6,-5.2,-4.6
212551,1203,1203,1203,1203,0.41,649,11.76,1.31,4.99,147.27,14.28,0.22,5.60,8.9,-3.7,-0.5
212551,1203,1203,1203,1203,0.42,650,11.77,1.76,3.54,147.30,2.23,4.13,7.07,6.0,-3.2,1.3
212551,1203,1203,1203,1203,0.40,648,11.78,2.69,2.82,147.36,-2.12,-2.94,12.40,5.9,-1.9,3.0
212551,1203,1203,1203,1203,0.43,652,11.78,2.62,3.00,147.40,-2.38,-4.26,13.29,5.6,1.8,0.7
212551,1203,1203,1203,1203,0.43,652,11.77,2.88,2.68,147.48,7.02,2.77,6.27,5.6,1.0,2.6
212551,1203,1203,1203,1203,0.43,652,11.78,3.19,2.95,147.61,3.14,-2.16,14.31,7.1,0.1,3.1
212551,1203,1203,1203,1203,0.40,648,11.78,3.28,3.20,147.73,0.77,1.20,7.58,4.3,6.3,1.5
212551,1203,1203,1203,1203,0.39,647,11.76,3.59,3.24,147.90,1.53,-1.09,6.58,1.0,0.6,3.3
212551,1203,1203,1203,1203,0.34,642,11.77,3.58,3.10,148.05,-6.32,2.56,8.69,1.0,-4.8,2.6
212551,1203,1203,1203,1203,0.41,649,11.77,3.60,3.10,148.20,1.86,5.27,5.05,-0.4,5.1,3.4
212551,1203,1203,1203,1203,0.43,652,11.77,3.51,3.58,148.37,-8.77,2.65,2.15,-0.6,5.4,2.6
212551,1203,1203,1203,1203,0.43,652,11.77,3.43,4.24,148.50,1.38,-0.71,6.35,3.2,-1.8,3.1
212551,1203,1203,1203,1203,0.41,649,11.77,4.05,3.83,148.65,4.45,-4.57,13.32,2.0,0.1,2.3
212551,1203,1203,1203,1203,0.41,649,11.77,4.01,3.46,148.76,2.53,0.17,11.02,2.4,-2.1,2.4
212551,1203,1203,1203,1203,0.44,653,11.77,3.95,3.06,148.82,1.30,0.37,12.02,-0.2,6.0,0.1
212551,1203,1203,1203,1203,0.42,650,11.77,4.08,3.66,148.83,3.14,1.31,10.74,0.2,6.7,-1.2
212551,1203,1203,1203,1203,0.42,650,11.76,4.16,3.37,148.75,-2.79,-0.69,9.89,-3.1,1.8,-3.4
212551,1203,1203,1203,1203,0.41,649,11.76,4.09,3.53,148.61,0.48,3.60,6.81,1.4,1.3,-3.1
212551,1203,1203,1203,1203,0.41,649,11.76,4.61,2.85,148.38,2.24,-1.29,3.80,1.8,-1.6,-7.4
212551,1203,1203,1203,1203,0.44,653,11.76,4.66,2.66,148.04,1.12,0.17,8.36,0.5,5.7,-6.6
212552,1203,1203,1203,1203,0.41,649,11.77,4.60,3.47,147.76,4.96,1.31,6.89,-2.1,4.2,-4.4
212552,1203,1203,1203,1203,0.42,650,11.77,4.17,3.56,147.45,4.49,0.58,4.56,-1.0,2.1,-7.4
212552,1203,1203,1203,1203,0.39,647,11.78,4.28,3.44,147.06,3.95,1.78,10.88,-1.9,0.7,-7.0
212552,1203,1203,1203,1203,0.39,647,11.79,3.85,3.60,146.67,-0.56,-3.61,8.97,-1.1,-0.4,-7.2
212552,1203,1203,1203,1203,0.40,648,11.78,3.45,3.49,146.18,1.21,-1.12,9.85,-7.2,2.3,-11.0
212552,1203,1203,1203,1203,0.41,649,11.76,3.34,3.54,145.62,0.92,1.05,12.03,-5.7,1.2,-12.3
212552,1203,1203,1203,1203,0.41,649,11.78,3.02,3.38,144.90,3.01,0.07,11.62,-5.4,-3.2,-16.1
212552,1203,1203,1203,1203,0.40,648,11.78,2.66,3.03,144.21,-2.95,2.48,8.03,-4.3,-1.2,-11.6
212552,1203,1203,1203,1203,0.41,649,11.78,2.70,1.80,143.56,-5.29,0.83,5.71,-3.4,-2.3,-14.9
212552,1203,1203,1203,1203,0.42,650,11.76,2.65,1.89,142.77,7.51,-2.18,7.55,-2.7,2.0,-15.0
212552,1203,1203,1203,1203,0.42,650,11.78,2.40,1.43,142.00,-9.03,-3.01,7.67,-2.9,-1.3,-15.6
212552,1203,1203,1203,1203,0.37,645,11.76,2.06,1.39,141.22,6.23,-4.07,1.08,-2.4,-4.2,-15.3
212552,1203,1203,1203,1203,0.38,646,11.78,1.76,1.65,140.36,-0.86,0.41,10.30,-2.4,-8.1,-16.4
212552,1203,1203,1203,1203,0.42,651,11.77,1.69,0.86,139.52,-4.35,2.10,12.65,-3.3,-4.5,-16.6
212552,1203,1203,1203,1203,0.39,647,11.78,1.64,1.24,138.68,-0.79,-2.95,7.57,-2.6,-4.6,-17.5
212552,1203,1203,1203,1203,0.42,651,11.75,1.62,0.67,137.81,-2.34,-1.13,7.86,-0.9,-2.1,-17.9
212552,1203,1203,1203,1203,0.42,651,11.77,1.61,0.43,136.96,-3.99,-6.81,15.97,-1.2,1.2,-17.1
212552,1203,1203,1203,1203,0.44,653,11.77,1.26,1.49,136.13,3.22,0.27,5.72,-1.1,-3.8,-17.5
212552,1203,1203,1203,1203,0.41,649,11.77,1.31,1.11,135.26,-3.31,2.31,12.44,-2.7,-2.1,-16.3
212552,1203,1203,1203,1203,0.42,651,11.77,1.08,0.98,134.34,-6.95,0.27,12.74,-4.3,-0.7,-19.3
212553,1203,1203,1203,1203,0.40,648,11.76,1.07,0.66,133.47,7.55,2.55,11.90,-0.2,1.3,-17.0
212553,1203,1203,1203,1203,0.40,648,11.76,0.74,0.77,132.63,-6.05,2.44,11.57,-0.9,-3.8,-16.7
212553,1203,1203,1203,1203,0.40,648,11.78,1.01,0.49,131.77,6.48,3.96,8.93,2.3,4.1,-17.2
212553,1203,1203,1203,1203,0.42,650,11.76,1.05,1.03,130.88,-6.99,1.84,14.90,2.3,-3.0,-17.9
212553,1203,1203,1203,1203,0.42,650,11.76,1.16,1.61,129.95,5.03,-3.07,9.54,2.6,0.3,-18.9
212553,1203,1203,1203,1203,0.41,649,11.76,1.19,1.05,129.00,-4.99,0.75,7.91,4.3,-3.1,-17.6
212553,1203,1203,1203,1203,0.36,644,11.77,1.30,1.52,128.10,4.20,3.96,8.93,5.8,-1.1,-18.4
212553,1203,1203,1203,1203,0.38,646,11.78,1.49,1.10,127.16,2.34,-1.75,3.60,6.5,-2.4,-19.3
212553,1203,1203,1203,1203,0.36,644,11.77,1.59,1.21,126.22,-6.15,-2.32,15.42,6.0,0.7,-18.7
212553,1203,1203,1203,1203,0.36,644,11.76,1.59,1.55,125.27,6.88,0.07,13.36,5.9,-6.4,-19.2
212553,1203,1203,1203,1203,0.38,646,11.75,2.03,0.86,124.38,-8.01,1.34,3.55,4.9,-2.2,-17.9
212553,1203,1203,1203,1203,0.37,645,11.77,2.14,0.65,123.46,-4.83,0.06,8.11,8.4,2.1,-18.8
212553,1203,1203,1203,1203,0.38,646,11.78,2.63,0.34,122.55,3.48,-2.33,5.93,3.8,1.3,-16.3
212553,1203,1203,1203,1203,0.40,648,11.76,2.90,0.47,121.75,7.33,4.06,17.41,4.5,7.9,-15.6
212553,1203,1203,1203,1203,0.35,643,11.78,3.04,-0.08,120.98,-2.98,-1.25,10.36,6.0,3.2,-14.4
212553,1203,1203,1203,1203,0.32,640,11.76,3.43,0.21,120.24,4.25,1.07,4.22,5.7,-0.7,-17.0
212553,1203,1203,1203,1203,0.39,647,11.77,3.42,0.10,119.41,-7.14,0.35,6.04,4.8,2.7,-16.9
212553,1203,1203,1203,1203,0.39,647,11.76,3.80,-0.21,118.64,-3.90,2.36,10.29,3.1,6.0,-15.4
212553,1203,1203,1203,1203,0.37,645,11.76,4.04,0.22,117.96,-8.52,1.00,12.11,2.6,5.2,-13.4
212553,1203,1203,1203,1203,0.37,645,11.76,4.12,0.42,117.28,-2.50,5.74,7.10,0.1,4.5,-14.5
212554,1203,1203,1203,1203,0.35,643,11.76,4.09,1.25,116.55,-6.32,-2.84,14.96,2.0,3.1,-15.8
212554,1203,1203,1203,1203,0.35,643,11.78,3.91,2.21,115.82,-3.46,2.34,8.00,-1.1,1.0,-14.0
212554,1203,1203,1203,1203,0.36,644,11.76,4.02,1.75,115.05,-4.09,1.42,10.57,0.4,4.1,-17.0
212554,1203,1203,1203,1203,0.34,642,11.78,3.69,2.25,114.15,-1.37,-0.30,9.10,-2.1,3.9,-17.5
212554,1203,1203,1203,1203,0.38,646,11.75,3.45,1.96,113.32,2.67,1.21,10.00,-1.2,0.7,-17.8
212554,1203,1203,1203,1203,0.31,639,11.77,3.48,1.37,112.56,-0.22,2.27,6.79,-1.7,2.8,-16.2
212554,1203,1203,1203,1203,0.35,643,11.77,3.47,0.70,111.78,2.39,-2.11,11.48,-1.0,-0.1,-15.6
212554,1203,1203,1203,1203,0.36,644,11.77,3.42,0.50,111.05,5.73,5.62,4.01,-4.0,0.2,-14.6
212554,1203,1203,1203,1203,0.35,643,11.77,2.99,0.72,110.27,-6.32,-5.72,17.68,-3.4,0.9,-17.2
212554,1203,1203,1203,1203,0.31,639,11.77,2.79,0.28,109.36,3.82,0.62,8.68,-0.3,-3.7,-18.1
212554,1203,1203,1203,1203,0.34,642,11.77,2.85,-0.14,108.51,2.57,-1.41,7.31,-1.5,0.4,-17.4
212554,1203,1203,1203,1203,0.28,636,11.76,2.55,0.59,107.64,8.15,4.75,3.75,1.9,3.4,-16.8
212554,1203,1203,1203,1203,0.25,632,11.76,2.86,-0.25,106.73,-0.19,0.11,19.20,4.4,3.4,-20.3
212554,1203,1203,1203,1203,0.32,640,11.75,3.04,0.29,105.78,-0.97,-1.70,11.14,4.0,1.0,-18.5
212554,1203,1203,1203,1203,0.31,639,11.76,3.02,-0.06,104.84,-0.50,1.15,8.19,2.1,-2.4,-18.2
212554,1203,1203,1203,1203,0.31,639,11.76,3.30,-0.39,103.92,-4.93,-5.28,12.58,0.2,1.7,-20.8
212554,1203,1203,1203,1203,0.31,639,11.76,3.30,0.20,102.92,6.33,4.40,9.30,0.3,1.9,-19.8
212554,1203,1203,1203,1203,0.29,637,11.76,3.52,-0.32,101.89,-2.64,-1.09,6.71,0.5,1.3,-20.4
212554,1203,1203,1203,1203,0.28,636,11.76,3.44,-0.65,100.91,4.03,-0.97,11.22,-0.8,-4.8,-18.7
212554,1203,1203,1203,1203,0.26,634,11.75,3.49,-0.57,99.95,7.43,0.89,12.05,2.2,-3.4,-17.6
212555,1203,1203,1203,1203,0.33,641,11.76,3.13,-0.20,99.11,-1.80,0.31,11.24,-1.3,4.0,-15.6
212555,1203,1203,1203,1203,0.30,638,11.76,3.35,-0.27,98.29,-3.06,2.28,11.00,1.4,2.8,-15.0
212555,1203,1203,1203,1203,0.29,637,11.77,3.71,-0.28,97.59,2.68,-0.29,9.88,6.0,0.4,-13.5
212555,1203,1203,1203,1203,0.28,636,11.76,3.77,-0.83,96.87,1.13,-1.64,7.08,5.6,1.5,-14.3
212555,1203,1203,1203,1203,0.25,633,11.76,4.14,-0.78,96.20,-0.44,4.34,8.41,5.7,2.3,-15.0
212555,1203,1203,1203,1203,0.26,634,11.76,4.30,-0.83,95.59,-4.67,0.28,6.35,7.4,-0.1,-12.8
212555,1203,1203,1203,1203,0.25,633,11.75,4.42,-0.78,94.99,1.52,4.51,6.61,3.7,-1.5,-11.4
212555,1203,1203,1203,1203,0.24,631,11.76,4.36,-0.55,94.45,-5.47,-0.31,10.84,1.7,-5.4,-11.3
212555,1203,1203,1203,1203,0.27,635,11.75,4.42,-1.05,93.93,2.11,0.00,7.53,3.6,-1.0,-9.8
212555,1203,1203,1203,1203,0.25,633,11.77,4.96,-0.65,93.43,-11.54,-1.23,10.61,4.2,-4.2,-9.3
212555,1203,1203,1203,1203,0.27,635,11.77,5.28,-0.83,92.96,4.47,-0.67,6.27,5.6,0.5,-9.7
212555,1203,1203,1203,1203,0.27,635,11.77,5.52,-1.38,92.53,4.54,-1.09,7.55,4.0,-0.4,-6.0
212555,1203,1203,1203,1203,0.25,632,11.75,5.51,-1.14,92.20,-5.78,2.99,6.73,1.4,-0.7,-7.3
212555,1203,1203,1203,1203,0.27,635,11.75,5.29,-0.59,91.88,8.27,-4.02,6.50,2.0,2.6,-5.0
