time,pwm1,pwm2,pwm3,pwm4,depth,press,voltage,roll,pitch,yaw,a_x,a_y,a_z,w_row,w_pitch,w_yaw
151752,1100,1100,1100,1100,-0.03,601,12.04,7.13,1.65,54.38,-0.32,1.10,8.74,-0.5,0.5,-0.1
151752,1100,1100,1100,1100,0.03,607,12.05,7.11,1.69,54.38,-0.26,1.13,8.71,-0.2,0.5,-0.2
151752,1201,1201,1201,1201,0.03,607,12.04,7.10,1.72,54.38,-0.24,1.13,8.73,0.0,0.4,-0.1
151752,1201,1201,1201,1201,0.03,607,12.01,7.09,1.73,54.38,-0.34,1.01,8.68,0.1,0.1,-0.2
151752,1201,1201,1201,1201,0.03,607,11.95,7.09,1.73,54.37,-0.27,0.94,8.64,0.1,-0.3,0.0
151752,1201,1201,1201,1201,0.04,608,11.91,7.10,1.72,54.37,-0.39,1.10,8.57,0.3,-0.7,-0.1
151753,1201,1201,1201,1201,0.05,609,11.89,7.12,1.68,54.36,-0.27,1.10,8.71,0.5,-0.9,0.0
151753,1201,1201,1201,1201,0.10,615,11.91,7.16,1.64,54.32,0.31,0.28,7.96,0.8,1.1,-2.1
151753,1201,1201,1201,1201,0.07,611,11.89,7.22,1.40,54.19,6.35,0.62,5.94,5.7,-0.9,-4.0
151753,1201,1201,1201,1201,0.07,611,11.88,7.61,0.72,53.88,-6.46,-0.95,7.28,6.3,-6.3,-7.9
151753,1201,1201,1201,1201,0.10,615,11.90,8.07,0.74,53.31,13.12,-1.42,3.49,-1.3,-1.5,-14.6
151753,1201,1201,1201,1201,0.10,615,11.90,8.01,0.24,52.47,-4.79,0.20,10.29,-1.3,-9.0,-18.2
151753,1201,1201,1201,1201,0.10,615,11.88,7.67,1.03,51.58,-2.41,1.84,12.33,-9.3,-5.5,-14.5
151753,1201,1201,1201,1201,0.14,619,11.89,7.45,0.31,50.90,5.59,2.94,7.51,-6.4,-5.9,-11.9
151753,1201,1201,1201,1201,0.15,620,11.89,7.39,-0.14,50.12,6.38,3.35,4.90,-6.8,-2.9,-17.8
151753,1201,1201,1201,1201,0.12,617,11.88,6.97,-0.71,49.20,-1.47,7.29,5.52,-6.6,-5.4,-18.1
151753,1201,1201,1201,1201,0.18,623,11.87,6.46,-0.92,48.22,11.11,-0.10,0.96,-6.3,-2.9,-20.9
151753,1201,1201,1201,1201,0.16,621,11.90,5.83,-0.83,47.20,5.65,-1.87,6.90,-7.1,1.5,-21.4
151753,1201,1201,1201,1201,0.14,619,11.90,5.28,-1.81,46.08,6.15,0.55,8.12,-7.4,0.5,-23.3
151753,1201,1201,1201,1201,0.17,622,11.90,5.02,-1.57,44.92,2.67,-1.34,10.86,-8.2,-1.6,-23.0
151753,1201,1201,1201,1201,0.19,624,11.89,4.47,-1.32,43.66,-9.40,3.83,10.34,-9.8,-5.3,-24.2
151753,1201,1201,1201,1201,0.22,627,11.91,3.76,-0.46,42.34,7.97,-1.54,4.12,-7.7,-2.7,-25.3
151753,1201,1201,1201,1201,0.17,622,11.90,3.36,-0.81,40.94,-10.02,2.94,10.89,-6.5,-5.4,-28.1
151753,1201,1201,1201,1201,0.21,626,11.88,3.00,-0.64,39.45,-8.45,2.70,15.00,-5.6,-4.1,-29.7
151753,1201,1201,1201,1201,0.22,627,11.89,2.64,-0.11,37.86,16.05,0.56,3.04,-6.4,-2.2,-32.0
151753,1201,1201,1201,1201,0.19,624,11.90,2.59,-1.19,36.23,-7.61,-4.21,10.46,-2.4,4.3,-33.4
151754,1201,1201,1201,1201,0.21,626,11.90,2.51,-1.01,34.54,10.05,2.01,3.29,-0.9,-5.9,-32.9
151754,1201,1201,1201,1201,0.20,625,11.89,2.40,-1.65,32.85,-3.19,-2.32,11.38,2.1,-0.4,-33.6
151754,1201,1201,1201,1201,0.28,634,11.89,2.28,-1.52,31.19,0.47,-1.40,13.25,1.3,4.9,-32.5
151754,1201,1201,1201,1201,0.21,626,11.89,2.45,-1.33,29.54,2.87,-0.09,7.15,5.0,-1.2,-32.0
151754,1201,1201,1201,1201,0.22,627,11.88,2.67,-1.25,27.96,5.93,7.45,3.51,3.8,1.5,-30.2
151754,1201,1201,1201,1201,0.23,628,11.89,3.01,-0.88,26.38,-2.08,2.71,12.38,5.2,0.1,-31.9
151754,1201,1201,1201,1201,0.21,626,11.88,3.33,-1.42,24.79,6.40,-4.09,6.54,4.3,4.3,-34.2
151754,1201,1201,1201,1201,0.28,634,11.89,3.29,-2.24,23.14,-6.48,2.82,17.81,5.6,-2.5,-34.6
151754,1201,1201,1201,1201,0.28,634,11.90,3.85,-2.18,21.46,2.32,0.75,2.18,5.5,2.1,-34.3
151754,1201,1201,1201,1201,0.27,633,11.91,4.12,-2.27,19.73,-3.26,-5.20,13.41,3.1,5.0,-34.7
151754,1201,1201,1201,1201,0.30,636,11.91,3.79,-1.12,18.02,-1.69,0.67,10.12,4.0,4.2,-33.8
151754,1201,1201,1201,1201,0.27,633,11.87,4.01,-1.26,16.38,5.70,-0.58,11.52,3.6,-0.1,-32.0
151754,1201,1201,1201,1201,0.30,636,11.89,3.85,-1.71,14.68,1.76,6.12,10.67,4.6,-2.7,-35.5
151754,1201,1201,1201,1201,0.30,636,11.90,4.17,-1.73,12.97,-6.99,1.39,13.43,4.1,-0.9,-34.0
151754,1201,1201,1201,1201,0.26,632,11.89,3.85,-0.66,11.35,-0.91,-0.55,8.83,6.4,5.3,-34.8
151754,1201,1201,1201,1201,0.28,634,11.90,3.84,-0.55,9.69,-8.35,-1.41,18.31,5.7,4.8,-35.3
151754,1201,1201,1201,1201,0.29,635,11.90,3.67,0.44,7.99,6.50,4.80,-0.56,7.3,4.9,-34.7
151754,1201,1201,1201,1201,0.32,638,11.88,4.18,-0.42,6.31,5.47,0.50,5.33,6.6,4.4,-33.3
151754,1201,1201,1201,1201,0.29,635,11.88,4.64,0.54,4.60,7.92,2.50,7.41,8.7,7.2,-33.4
151754,1201,1201,1201,1201,0.31,637,11.89,5.29,1.63,2.87,12.91,2.48,6.24,7.7,5.7,-35.0
151755,1201,1201,1201,1201,0.33,639,11.90,5.47,1.26,1.02,-5.39,1.88,8.91,7.4,9.2,-37.7
151755,1201,1201,1201,1201,0.32,638,11.89,5.68,2.12,-0.85,7.84,-1.23,5.68,8.3,6.5,-37.1
151755,1201,1201,1201,1201,0.39,645,11.90,5.47,3.01,-2.68,2.78,-2.47,8.38,3.9,4.9,-36.9
151755,1201,1201,1201,1201,0.33,639,11.88,5.94,2.57,-4.57,1.97,3.54,5.43,2.3,3.1,-39.4
151755,1201,1201,1201,1201,0.32,638,11.89,6.12,2.56,-6.47,-7.42,0.56,11.27,1.4,2.6,-36.5
151755,1201,1201,1201,1201,0.33,639,11.89,6.08,3.12,-8.38,13.74,-0.12,0.81,-0.4,3.3,-36.1
151755,1201,1201,1201,1201,0.35,641,11.89,6.14,1.90,-10.20,-1.91,-3.16,12.50,0.0,-2.0,-36.7
151755,1201,1201,1201,1201,0.36,642,11.88,6.11,1.25,-12.07,-11.18,3.91,17.22,0.4,-4.1,-37.0
151755,1201,1201,1201,1201,0.37,643,11.89,5.94,1.15,-13.95,8.85,-0.24,8.35,0.9,-4.1,-36.8
151755,1201,1201,1201,1201,0.35,641,11.90,5.76,0.89,-15.81,-11.33,1.28,13.23,1.6,-3.5,-36.8
151755,1201,1201,1201,1201,0.37,643,11.89,5.87,1.57,-17.63,7.19,3.40,5.31,-0.7,-1.8,-38.5
151755,1201,1201,1201,1201,0.37,643,11.89,5.88,1.68,-19.51,-11.18,-2.81,13.28,-0.1,-1.0,-39.1
151755,1201,1201,1201,1201,0.39,645,11.89,5.69,1.54,-21.44,-1.58,-0.78,13.03,-0.7,-0.9,-39.5
151755,1201,1201,1201,1201,0.37,643,11.88,5.75,2.25,-23.36,0.15,-3.42,12.80,1.1,4.3,-38.0
151755,1201,1201,1201,1201,0.36,642,11.89,5.79,1.83,-25.21,1.52,-1.23,12.19,0.7,-0.5,-38.1
151755,1201,1201,1201,1201,0.39,645,11.89,5.29,1.90,-27.18,-9.46,-0.45,15.94,2.2,-2.1,-39.4
151755,1201,1201,1201,1201,0.37,643,11.89,5.01,1.54,-29.14,7.23,-5.70,0.41,1.5,0.2,-39.7
151755,1201,1201,1201,1201,0.38,644,11.89,4.85,1.10,-31.18,-4.05,4.44,7.75,2.0,-1.3,-40.8
151755,1201,1201,1201,1201,0.37,643,11.88,4.76,1.69,-33.21,-4.06,-0.27,5.58,3.2,5.1,-41.2
151755,1201,1201,1201,1201,0.36,642,11.88,4.55,1.22,-35.29,5.22,-0.53,2.83,2.3,2.6,-43.3
151756,1201,1201,1201,1201,0.38,644,11.89,4.77,0.88,-37.43,-12.12,-6.27,12.39,2.1,0.6,-41.6
151756,1201,1201,1201,1201,0.44,651,11.88,4.47,1.05,-39.54,-6.60,-1.04,14.18,1.8,4.8,-41.2
151756,1201,1201,1201,1201,0.43,650,11.88,4.63,1.35,-41.65,4.47,2.37,4.69,5.7,-2.1,-41.2
151756,1201,1201,1201,1201,0.42,649,11.89,4.77,1.36,-43.77,-9.28,0.63,19.11,3.9,2.8,-42.8
151756,1201,1201,1201,1201,0.39,645,11.88,4.75,1.84,-45.95,-4.06,-0.99,11.54,1.6,-0.7,-42.5
151756,1201,1201,1201,1201,0.38,644,11.87,4.15,1.78,-48.08,-7.02,3.57,7.59,2.4,0.9,-41.0
151756,1201,1201,1201,1201,0.39,645,11.90,4.04,1.81,-50.16,-6.57,0.14,14.44,0.1,-5.9,-42.3
151756,1201,1201,1201,1201,0.37,643,11.88,3.71,2.40,-52.30,7.90,0.18,-3.00,-1.1,4.3,-42.4
151756,1201,1201,1201,1201,0.43,650,11.87,3.82,2.49,-54.39,6.44,3.45,4.89,-2.0,-0.1,-42.1
151756,1201,1201,1201,1201,0.37,643,11.87,3.71,1.71,-56.51,-1.89,-3.49,12.46,-0.5,-4.1,-41.7
151756,1201,1201,1201,1201,0.43,650,11.87,3.48,1.38,-58.60,-3.13,1.35,6.90,0.6,3.4,-40.8
151756,1201,1201,1201,1201,0.39,645,11.87,3.79,1.21,-60.66,9.53,-2.37,9.24,3.1,1.9,-43.4
151756,1201,1201,1201,1201,0.43,650,11.88,3.37,1.53,-62.84,0.74,5.20,4.09,3.5,1.3,-43.1
151756,1201,1201,1201,1201,0.39,645,11.88,3.64,1.47,-64.91,17.13,3.98,-3.84,4.4,2.7,-43.8
151756,1201,1201,1201,1201,0.42,648,11.87,3.76,0.79,-67.04,0.65,2.71,9.68,1.8,9.2,-44.7
151756,1201,1201,1201,1201,0.43,650,11.88,4.08,1.73,-69.12,-4.25,-1.86,14.62,3.3,11.0,-40.8
151756,1201,1201,1201,1201,0.43,650,11.89,3.92,2.82,-71.14,-5.79,0.81,10.70,0.7,8.4,-41.0
151756,1201,1201,1201,1201,0.42,649,11.89,4.14,2.66,-73.15,-1.85,0.58,6.56,3.5,2.0,-40.3
151756,1201,1201,1201,1201,0.44,651,11.88,3.81,2.40,-75.25,-7.53,-2.78,14.62,1.8,5.0,-39.9
151756,1201,1201,1201,1201,0.45,652,11.88,3.55,2.49,-77.35,-0.80,0.03,10.01,2.6,1.5,-41.8
151757,1201,1201,1201,1201,0.42,649,11.89,3.37,1.98,-79.46,-6.01,4.30,4.47,4.0,0.6,-42.4
151757,1201,1201,1201,1201,0.41,647,11.89,3.80,2.46,-81.55,-5.63,0.06,11.32,5.3,1.0,-42.4
151757,1201,1201,1201,1201,0.47,654,11.88,3.72,2.12,-83.53,6.46,-3.74,8.12,7.0,7.0,-39.7
151757,1201,1201,1201,1201,0.46,653,11.88,3.77,1.98,-85.45,3.71,-3.74,9.39,5.4,3.8,-38.9
151757,1201,1201,1201,1201,0.46,653,11.88,3.49,3.01,-87.26,-14.72,0.26,19.60,5.7,4.6,-34.5
151757,1201,1201,1201,1201,0.42,648,11.88,3.37,3.49,-89.02,-3.47,2.15,6.34,5.9,2.9,-32.7
151757,1201,1201,1201,1201,0.47,654,11.88,3.46,4.10,-90.67,-8.66,-4.91,16.98,4.8,5.9,-31.5
151757,1201,1201,1201,1201,0.47,654,11.89,3.59,3.89,-92.22,-9.20,-0.86,10.01,1.9,6.7,-29.5
151757,1201,1201,1201,1201,0.42,648,11.88,3.48,4.32,-103.80,2.44,-4.24,4.26,4.0,2.0,-30.8
151757,1201,1201,1201,1201,0.42,649,11.88,3.87,3.79,-105.27,-2.76,-0.98,14.97,2.9,-2.3,-28.7
151757,1201,1201,1201,1201,0.44,651,11.88,3.86,3.44,-106.71,7.02,-5.46,3.61,3.2,2.4,-29.1
151757,1201,1201,1201,1201,0.48,655,11.88,3.69,3.31,-108.16,2.34,4.96,5.84,3.3,-0.9,-28.4
151757,1201,1201,1201,1201,0.44,651,11.88,4.03,2.80,-109.58,0.03,2.58,8.03,1.4,2.6,-28.0
151757,1201,1201,1201,1201,0.48,655,11.89,3.77,3.01,-111.04,-0.06,5.13,6.49,1.3,-1.8,-30.7
151757,1201,1201,1201,1201,0.42,649,11.87,4.10,3.41,-112.51,-10.66,-1.50,18.04,0.9,-1.0,-30.8
151757,1201,1201,1201,1201,0.49,656,11.88,3.85,4.80,-114.08,4.75,1.48,5.36,1.7,4.6,-30.8
151757,1201,1201,1201,1201,0.49,656,11.88,3.54,5.14,-115.65,-5.22,-2.09,12.31,2.7,5.3,-31.7
151757,1201,1201,1201,1201,0.49,656,11.88,3.43,4.87,-117.16,-7.72,-3.21,7.91,2.0,4.4,-30.8
151757,1201,1201,1201,1201,0.43,650,11.88,3.68,4.65,-118.65,-4.63,-4.26,10.75,4.5,4.9,-31.1
151757,1201,1201,1201,1201,0.49,656,11.87,3.55,4.84,-120.13,5.38,-1.93,5.53,5.2,4.3,-28.9
151758,1201,1201,1201,1201,0.42,648,11.88,4.08,4.45,-121.54,12.89,3.40,-4.20,3.5,5.9,-30.3
151758,1201,1201,1201,1201,0.47,654,11.86,4.15,5.20,-122.98,0.80,-3.16,14.30,2.0,3.1,-26.7
151758,1201,1201,1201,1201,0.44,651,11.87,3.94,6.21,-124.38,-16.68,2.94,18.22,1.2,2.3,-27.1
151758,1201,1201,1201,1201,0.52,659,11.88,4.03,6.08,-125.65,4.46,-1.41,7.07,4.4,-2.0,-24.2
151758,1201,1201,1201,1201,0.53,660,11.89,3.82,6.52,-126.96,-8.37,5.71,15.08,4.0,-2.6,-25.9
151758,1201,1201,1201,1201,0.52,659,11.90,3.81,6.78,-128.26,-0.56,1.59,4.47,5.1,-3.1,-25.1
151758,1201,1201,1201,1201,0.49,656,11.87,3.94,6.59,-129.55,16.80,1.84,-1.94,1.8,-0.6,-28.3
151758,1201,1201,1201,1201,0.49,656,11.88,4.11,6.35,-130.87,-2.55,-2.33,12.61,4.2,-0.3,-25.8
151758,1201,1201,1201,1201,0.49,656,11.87,3.98,6.30,-132.17,-14.81,-7.94,17.53,1.3,-2.2,-25.6
151758,1201,1201,1201,1201,0.52,659,11.88,3.73,6.24,-133.47,4.65,-0.83,5.84,4.2,-2.7,-25.1
151758,1201,1201,1201,1201,0.48,655,11.89,3.64,5.92,-134.83,-0.52,-2.35,10.22,4.0,-5.2,-27.0
151758,1201,1201,1201,1201,0.50,657,11.86,3.58,5.75,-136.21,-6.36,4.13,5.51,2.7,-1.4,-27.5
151758,1201,1201,1201,1201,0.53,660,11.88,3.67,4.63,-137.60,2.23,1.07,3.10,3.2,-6.7,-28.9
151758,1201,1201,1201,1201,0.46,653,11.88,3.88,4.67,-138.94,-1.99,3.37,8.25,2.3,-0.7,-26.1
151758,1201,1201,1201,1201,0.47,654,11.86,3.64,4.50,-140.28,-11.78,0.52,13.84,2.9,0.4,-28.3
151758,1201,1201,1201,1201,0.50,657,11.87,4.04,4.62,-141.65,-8.02,0.38,12.72,4.5,2.0,-30.6
151758,1201,1201,1201,1201,0.50,657,11.87,3.89,4.83,-143.14,-8.10,1.06,13.03,2.4,-2.7,-30.2
151758,1201,1201,1201,1201,0.50,657,11.87,4.09,4.85,-144.61,2.08,-0.54,7.76,4.8,-2.9,-29.8
151758,1201,1201,1201,1201,0.51,658,11.87,3.76,3.71,-146.07,-2.71,0.26,11.78,1.5,0.8,-27.1
151758,1201,1201,1201,1201,0.49,656,11.88,3.75,3.26,-147.53,-4.41,0.94,16.03,2.4,-5.6,-26.5
151759,1201,1201,1201,1201,0.50,657,11.89,3.45,3.29,-148.90,-0.41,0.87,5.37,-0.1,-2.5,-27.5
151759,1201,1201,1201,1201,0.51,658,11.88,3.18,4.18,-150.16,-1.28,-0.42,12.50,1.5,1.6,-24.4
151759,1201,1201,1201,1201,0.47,654,11.88,3.27,3.17,-151.45,4.61,-2.58,5.25,0.9,1.5,-27.6
151759,1201,1201,1201,1201,0.50,657,11.89,3.23,2.71,-152.63,3.72,3.01,7.00,2.5,-1.2,-22.6
151759,1201,1201,1201,1201,0.54,661,11.88,3.04,2.30,-153.80,6.80,1.11,2.00,-0.7,1.4,-24.4
151759,1201,1201,1201,1201,0.53,660,11.87,3.21,1.98,-154.91,1.11,-1.64,2.22,0.2,4.6,-22.2
151759,1201,1201,1201,1201,0.50,657,11.87,2.88,2.07,-156.04,-8.37,-3.36,11.14,2.0,5.6,-20.9
151759,1201,1201,1201,1201,0.52,659,11.87,3.09,2.34,-157.07,11.43,2.37,3.44,1.5,4.3,-18.3
151759,1201,1201,1201,1201,0.51,658,11.88,3.11,2.36,-158.13,-0.01,4.42,9.83,3.1,0.9,-21.2
151759,1201,1201,1201,1201,0.53,660,11.87,3.25,2.38,-159.21,12.88,5.92,2.85,2.3,-0.3,-22.0
151759,1201,1201,1201,1201,0.53,660,11.88,3.51,2.26,-160.13,5.73,1.05,8.46,1.0,4.0,-19.2
151759,1201,1201,1201,1201,0.54,661,11.87,3.59,2.24,-161.16,-0.33,0.22,9.63,1.5,4.5,-23.6
151759,1201,1201,1201,1201,0.55,662,11.87,3.61,1.55,-162.14,3.56,6.05,7.35,0.5,-1.0,-19.6
151759,1201,1201,1201,1201,0.53,660,11.89,3.66,1.15,-163.12,1.48,-2.33,12.34,-0.7,-0.3,-20.5
151759,1201,1201,1201,1201,0.54,661,11.88,3.41,1.77,-164.05,6.00,-0.56,0.17,3.7,3.7,-18.2
151759,1201,1201,1201,1201,0.54,661,11.87,3.43,1.73,-164.99,3.58,0.97,12.42,2.1,-2.6,-18.1
151759,1201,1201,1201,1201,0.54,661,11.87,3.15,2.58,-165.89,4.43,-2.22,8.17,0.9,-3.4,-16.0
151759,1201,1201,1201,1201,0.51,658,11.88,3.23,2.37,-166.72,-8.01,2.56,7.92,3.8,-4.8,-16.5
151759,1201,1201,1201,1201,0.56,663,11.86,3.32,2.54,-167.53,1.80,0.09,6.67,3.2,-4.9,-15.5
151759,1201,1201,1201,1201,0.53,660,11.87,3.30,1.92,-168.24,4.06,-0.69,10.72,3.2,-1.5,-13.8
151800,1201,1201,1201,1201,0.52,659,11.87,3.54,1.74,-168.85,3.67,0.73,14.67,4.0,-0.1,-12.5
151800,1201,1201,1201,1201,0.55,662,11.88,3.57,1.73,-169.49,6.66,4.11,6.27,2.5,0.6,-13.7
151800,1201,1201,1201,1201,0.54,661,11.86,3.76,1.44,-170.15,-3.37,-4.43,8.18,2.0,0.7,-12.4
151800,1201,1201,1201,1201,0.55,662,11.88,3.86,1.24,-170.73,14.40,-4.01,1.25,-0.2,3.8,-12.0
151800,1201,1201,1201,1201,0.58,665,11.88,3.53,1.47,-171.47,8.26,4.03,3.50,0.2,1.7,-15.3
151800,1201,1201,1201,1201,0.55,662,11.87,3.61,1.18,-172.24,-1.98,-3.10,19.60,0.4,0.0,-14.0
151800,1201,1201,1201,1201,0.49,656,11.87,3.22,3.05,-173.08,-3.65,-0.18,11.72,0.4,7.1,-18.8
151800,1201,1201,1201,1201,0.56,663,11.87,3.33,3.17,-174.10,3.72,1.55,6.10,0.0,2.9,-20.8
151800,1201,1201,1201,1201,0.53,660,11.88,3.40,2.72,-175.08,1.52,0.63,9.46,-0.1,2.5,-19.3
151800,1201,1201,1201,1201,0.55,662,11.87,3.34,2.79,-176.02,9.23,4.46,4.41,2.0,-0.2,-20.3
151800,1201,1201,1201,1201,0.55,662,11.86,3.34,2.26,-177.11,-5.18,2.67,13.87,0.2,1.4,-21.7
151800,1201,1201,1201,1201,0.58,665,11.88,3.34,2.52,-178.26,3.31,-3.65,5.86,0.8,4.6,-25.1
151800,1201,1201,1201,1201,0.55,662,11.86,3.41,1.65,-179.46,1.65,0.32,8.62,0.4,2.1,-25.8
151800,1201,1201,1201,1201,0.52,659,11.86,3.33,2.51,179.22,-8.60,2.28,16.96,3.1,4.7,-27.2
151800,1201,1201,1201,1201,0.52,659,11.88,3.33,3.03,177.90,-4.52,0.84,11.41,2.2,3.7,-26.4
151800,1201,1201,1201,1201,0.54,661,11.87,3.08,4.26,176.64,-5.27,-1.92,12.07,0.7,-2.0,-23.1
151800,1201,1201,1201,1201,0.53,660,11.86,2.89,4.42,175.36,1.51,-0.89,8.87,0.8,2.0,-27.0
151800,1201,1201,1201,1201,0.51,658,11.87,3.08,3.29,174.13,3.57,0.89,10.97,2.0,-1.8,-25.0
151800,1201,1201,1201,1201,0.56,663,11.88,3.25,2.84,172.91,-7.40,-3.73,14.87,2.0,0.7,-25.0
151800,1201,1201,1201,1201,0.55,662,11.86,3.20,2.18,171.67,-11.51,0.54,14.09,4.2,1.8,-23.6
151801,1201,1201,1201,1201,0.55,662,11.88,3.25,1.98,170.49,-2.37,-0.35,10.48,3.9,-2.3,-22.6
151801,1201,1201,1201,1201,0.52,659,11.87,3.29,1.59,169.42,-3.93,6.13,11.86,3.3,-0.7,-20.6
151801,1201,1201,1201,1201,0.52,659,11.86,3.50,1.43,168.34,10.62,-6.11,2.73,3.1,-0.5,-20.9
151801,1201,1201,1201,1201,0.53,660,11.87,3.38,1.45,167.32,-1.28,0.75,12.28,2.4,0.5,-19.9
151801,1201,1201,1201,1201,0.52,659,11.86,3.26,1.95,166.26,3.35,1.63,4.85,0.7,3.1,-21.4
151801,1201,1201,1201,1201,0.54,661,11.86,3.21,1.52,165.23,-2.32,4.41,9.52,1.8,2.9,-19.3
151801,1201,1201,1201,1201,0.52,659,11.89,3.37,1.38,164.26,-0.62,2.88,6.23,2.9,5.3,-18.5
151801,1201,1201,1201,1201,0.53,660,11.88,3.69,1.69,163.37,1.45,0.38,2.64,4.8,1.1,-16.4
151801,1201,1201,1201,1201,0.51,658,11.86,3.79,1.48,162.48,12.48,6.85,2.85,2.7,-3.8,-17.7
151801,1201,1201,1201,1201,0.52,659,11.88,3.67,0.49,161.54,-4.63,-1.66,12.32,2.3,3.3,-20.6
151801,1201,1201,1201,1201,0.54,661,11.87,3.65,0.53,160.57,-1.93,4.74,9.91,4.0,0.2,-20.2
151801,1201,1201,1201,1201,0.55,662,11.85,3.73,0.34,159.55,-5.12,2.67,8.78,2.9,-3.2,-20.0
151801,1201,1201,1201,1201,0.53,660,11.86,3.99,0.01,158.59,1.32,2.81,9.71,2.3,-2.3,-18.2
151801,1201,1201,1201,1201,0.56,663,11.86,4.19,-1.03,157.63,19.60,0.81,-4.81,0.9,-7.1,-19.0
151801,1201,1201,1201,1201,0.56,663,11.87,4.23,-2.37,156.68,4.30,3.61,2.76,-0.6,-2.7,-18.3
151801,1201,1201,1201,1201,0.53,660,11.87,4.25,-3.19,155.71,-8.18,-0.02,13.28,0.7,-5.2,-19.2
151801,1201,1201,1201,1201,0.55,662,11.87,4.21,-2.44,154.60,-8.00,0.09,13.37,2.2,0.3,-22.6
151801,1201,1201,1201,1201,0.51,658,11.88,4.28,-2.17,153.48,-3.34,5.43,15.36,1.9,-2.2,-23.5
151801,1201,1201,1201,1201,0.51,658,11.88,4.40,-1.89,152.33,10.52,-2.41,5.68,2.5,5.9,-25.5
151801,1201,1201,1201,1201,0.51,658,11.86,4.60,-2.80,151.16,-4.73,1.53,14.05,-0.1,3.8,-22.8
151802,1201,1201,1201,1201,0.50,657,11.87,4.91,-2.56,150.00,10.84,4.54,1.72,5.1,3.4,-23.2
151802,1201,1201,1201,1201,0.50,657,11.87,5.28,-3.03,148.80,11.00,7.08,4.82,4.3,0.1,-23.5
151802,1201,1201,1201,1201,0.51,658,11.86,5.45,-2.90,147.47,-12.12,-1.60,15.21,2.1,4.3,-27.0
151802,1201,1201,1201,1201,0.49,656,11.88,5.32,-1.79,146.06,3.73,1.29,9.30,1.9,2.5,-26.9
151802,1201,1201,1201,1201,0.45,652,11.86,5.35,-1.09,144.65,-3.02,-2.23,10.42,3.6,1.5,-29.5
151802,1201,1201,1201,1201,0.49,656,11.87,5.78,-1.49,143.15,-11.36,-5.74,19.33,6.0,-1.3,-30.9
151802,1201,1201,1201,1201,0.48,655,11.86,5.83,-0.62,141.67,10.37,4.37,2.47,2.6,-0.4,-31.0
151802,1201,1201,1201,1201,0.47,654,11.86,5.84,-0.51,140.13,-2.84,-0.05,11.84,1.4,-3.0,-32.1
151802,1201,1201,1201,1201,0.48,655,11.86,6.02,-1.10,138.57,-0.71,1.23,11.77,2.4,-4.2,-30.1
151802,1201,1201,1201,1201,0.49,656,11.88,6.06,-0.70,137.13,-9.65,-5.14,11.62,0.1,-6.1,-29.4
151802,1201,1201,1201,1201,0.49,656,11.87,6.07,-0.20,135.74,-5.46,3.20,11.29,3.2,-6.3,-25.9
