time,pwm1,pwm2,pwm3,pwm4,depth,press,voltage,roll,pitch,yaw,a_x,a_y,a_z,w_row,w_pitch,w_yaw
163658,1100,1100,1100,1100,0.02,614,12.08,6.47,1.19,82.84,-0.15,0.93,8.64,0.2,-0.7,-1.3
163658,1100,1100,1100,1100,0.02,614,12.06,6.47,1.26,82.74,10.20,1.67,5.47,0.2,1.6,-3.1
163658,1200,1200,1200,1200,0.02,614,12.00,6.32,0.58,82.58,0.80,2.13,8.62,-2.0,-0.2,-3.7
163658,1200,1200,1200,1200,-0.01,611,11.93,5.94,0.22,82.33,0.71,-1.90,8.86,-10.3,-1.7,-6.9
163658,1200,1200,1200,1200,0.05,617,11.92,5.09,-0.09,81.89,7.38,-2.67,9.47,-15.6,-0.5,-10.1
163658,1200,1200,1200,1200,0.04,616,11.93,4.32,0.56,81.16,-11.09,3.87,11.16,-9.4,-7.6,-14.5
163658,1200,1200,1200,1200,0.11,624,11.93,3.86,-1.20,80.42,-2.13,5.55,16.75,-6.2,-10.1,-14.2
163658,1200,1200,1200,1200,0.07,619,11.93,3.59,-1.32,79.76,4.90,-2.34,7.65,-7.1,-3.8,-12.0
163658,1200,1200,1200,1200,0.09,622,11.93,3.37,-0.99,79.13,-0.71,0.11,13.67,-7.4,-0.8,-12.8
163658,1200,1200,1200,1200,0.07,619,11.94,2.86,-1.05,78.45,-12.43,0.55,12.14,-4.8,-11.5,-13.2
163658,1200,1200,1200,1200,0.12,625,11.93,2.71,-1.69,77.78,-11.37,1.71,14.64,-2.3,-10.9,-11.8
163658,1200,1200,1200,1200,0.10,623,11.93,2.59,-2.62,77.07,4.82,2.37,5.55,-2.5,-4.0,-13.7
163658,1200,1200,1200,1200,0.15,628,11.92,2.37,-2.36,76.24,1.23,9.75,5.89,-1.4,-2.6,-17.8
163658,1200,1200,1200,1200,0.12,625,11.94,2.49,-2.52,75.32,1.11,-2.57,7.34,-2.5,0.9,-18.2
163659,1200,1200,1200,1200,0.14,627,11.93,2.31,-3.12,74.35,16.13,-3.09,4.86,-5.4,8.9,-20.7
163659,1200,1200,1200,1200,0.17,630,11.92,2.13,-3.03,73.36,-19.03,4.64,19.60,-3.9,-8.1,-19.5
163659,1200,1200,1200,1200,0.14,627,11.93,2.28,-2.17,72.34,-4.93,-3.22,7.57,-2.6,-1.3,-21.4
163659,1200,1200,1200,1200,0.15,628,11.91,2.13,-2.44,71.31,9.17,-0.95,3.27,-1.8,1.2,-20.4
163659,1200,1200,1200,1200,0.14,627,11.92,1.88,-2.77,70.20,0.11,-1.14,16.92,-1.1,-1.6,-23.4
163659,1200,1200,1200,1200,0.18,631,11.92,2.11,-2.66,68.98,2.57,-1.45,8.38,-0.5,5.6,-24.2
163659,1200,1200,1200,1200,0.19,632,11.93,2.36,-2.39,67.68,-0.05,2.95,8.19,-0.3,-2.1,-25.3
163659,1200,1200,1200,1200,0.21,634,11.92,2.58,-2.26,66.41,2.24,-2.62,9.80,-0.4,12.3,-25.7
163659,1200,1200,1200,1200,0.15,628,11.93,2.65,-1.89,65.12,-2.65,2.03,12.82,-0.1,-6.2,-28.3
163659,1200,1200,1200,1200,0.22,635,11.92,2.51,-2.16,63.74,3.54,1.27,2.98,3.4,-7.0,-28.7
163659,1200,1200,1200,1200,0.24,637,11.93,2.66,-2.61,62.32,-4.68,2.45,11.84,2.2,-0.3,-28.4
163659,1200,1200,1200,1200,0.21,634,11.93,3.18,-2.04,60.90,2.27,4.15,8.77,2.1,2.1,-30.8
163659,1200,1200,1200,1200,0.20,633,11.92,3.27,-1.72,59.41,6.26,-3.95,4.30,-0.6,3.5,-28.5
163659,1200,1200,1200,1200,0.22,635,11.93,3.38,-1.78,58.01,-4.31,0.51,8.55,1.5,4.5,-26.7
163659,1200,1200,1200,1200,0.23,636,11.92,3.42,-1.74,56.66,-5.07,5.52,11.14,4.2,-8.9,-26.1
163659,1200,1200,1200,1200,0.24,637,11.93,3.16,-2.33,55.36,4.73,-2.75,2.03,2.2,-0.4,-26.4
163659,1200,1200,1200,1200,0.24,637,11.94,3.14,-2.11,54.12,-6.09,0.15,13.27,2.6,-0.8,-25.4
163659,1200,1200,1200,1200,0.25,638,11.94,3.35,-0.96,52.86,5.06,0.74,4.99,3.6,-0.1,-27.4
163659,1200,1200,1200,1200,0.24,637,11.92,3.63,-1.11,51.66,1.77,-1.43,5.90,3.1,-0.7,-25.0
163659,1200,1200,1200,1200,0.25,638,11.92,3.68,-0.24,50.45,0.83,0.47,10.71,2.7,10.5,-26.2
163700,1200,1200,1200,1200,0.25,638,11.93,3.84,0.21,49.23,3.23,-2.37,7.81,4.5,8.4,-22.7
163700,1200,1200,1200,1200,0.25,639,11.93,3.86,0.07,48.15,-2.58,0.44,5.99,4.0,1.6,-19.7
163700,1200,1200,1200,1200,0.24,637,11.92,3.90,-0.09,47.10,4.33,2.12,7.10,3.4,-1.0,-21.0
163700,1200,1200,1200,1200,0.28,642,11.92,3.69,0.76,46.03,-4.69,-0.53,8.39,2.0,3.8,-20.3
163700,1200,1200,1200,1200,0.29,643,11.93,3.71,0.34,44.95,5.95,-0.72,8.64,0.4,9.2,-21.7
163700,1200,1200,1200,1200,0.29,643,11.93,4.15,0.77,43.93,-14.29,5.69,14.23,3.2,-12.5,-19.3
163700,1200,1200,1200,1200,0.31,645,11.94,4.18,0.30,43.01,9.96,0.90,11.47,2.9,5.8,-21.3
163700,1200,1200,1200,1200,0.28,642,11.93,4.21,0.96,42.03,-2.18,3.45,12.09,2.3,-0.1,-19.7
163700,1200,1200,1200,1200,0.29,643,11.92,4.26,1.93,41.11,2.28,-5.09,6.69,1.0,4.2,-18.4
163700,1200,1200,1200,1200,0.27,641,11.93,3.90,1.79,40.18,2.25,-6.12,6.40,2.2,5.2,-17.6
163700,1200,1200,1200,1200,0.30,644,11.92,3.97,2.18,39.34,-2.85,1.05,11.42,4.2,3.1,-16.1
163700,1200,1200,1200,1200,0.29,643,11.94,3.92,2.08,38.46,-1.43,-1.32,6.04,2.7,-0.9,-16.7
163700,1200,1200,1200,1200,0.33,647,11.93,3.93,1.83,37.58,6.09,5.10,4.74,3.2,-3.7,-17.8
163700,1200,1200,1200,1200,0.30,644,11.92,3.96,1.63,36.66,-9.93,4.62,12.12,0.9,-3.8,-18.2
163700,1200,1200,1200,1200,0.31,645,11.93,4.11,2.61,35.74,-0.61,-5.57,10.69,2.9,-1.3,-20.2
163700,1200,1200,1200,1200,0.30,644,11.94,4.11,2.79,34.73,-6.17,1.17,9.95,0.9,4.0,-21.9
163700,1200,1200,1200,1200,0.34,648,11.91,3.94,2.55,33.58,-1.86,-2.67,7.39,-0.2,-0.9,-24.9
163700,1200,1200,1200,1200,0.30,644,11.92,4.01,3.38,32.45,-6.83,2.68,13.60,1.8,-1.2,-23.2
163700,1200,1200,1200,1200,0.32,646,11.94,3.99,3.55,31.27,2.45,-0.84,10.40,-0.4,-9.4,-21.9
163700,1200,1200,1200,1200,0.35,649,11.93,3.73,3.23,30.08,-2.86,1.69,10.94,-2.1,-9.0,-21.2
163701,1200,1200,1200,1200,0.33,647,11.91,3.65,2.63,28.87,7.40,-2.34,2.99,-0.2,4.6,-23.9
163701,1200,1200,1200,1200,0.32,646,11.91,3.25,2.00,27.59,2.68,2.60,12.76,-0.8,-5.3,-26.1
163701,1200,1200,1200,1200,0.37,651,11.91,3.40,2.24,26.35,-2.52,1.02,9.11,0.7,1.2,-25.4
163701,1200,1200,1200,1200,0.34,648,11.91,3.39,2.63,25.13,9.51,-0.88,7.76,1.1,1.8,-26.7
163701,1200,1200,1200,1200,0.34,648,11.91,2.85,1.52,23.88,-6.99,2.77,10.14,0.1,-2.3,-27.2
163701,1200,1200,1200,1200,0.33,647,11.93,2.92,1.35,22.55,3.19,-1.64,10.08,2.0,4.9,-26.4
163701,1200,1200,1200,1200,0.37,651,11.91,2.93,1.01,21.26,-12.70,-1.22,16.04,1.7,-4.1,-25.6
163701,1200,1200,1200,1200,0.37,651,11.92,3.22,2.31,20.01,2.09,-3.50,9.97,2.0,2.8,-25.2
163701,1200,1200,1200,1200,0.34,648,11.91,2.95,1.40,18.71,9.81,5.65,1.55,2.9,7.4,-25.1
163701,1200,1200,1200,1200,0.37,651,11.92,3.15,1.80,17.37,-11.54,2.40,16.74,2.4,5.7,-26.6
163701,1200,1200,1200,1200,0.39,653,11.91,2.98,2.74,16.06,-8.68,4.71,16.56,2.0,3.4,-24.5
163701,1200,1200,1200,1200,0.39,653,11.93,2.90,2.54,14.78,-5.64,-7.15,8.05,2.3,2.1,-28.1
163701,1200,1200,1200,1200,0.39,653,11.92,2.43,2.46,13.44,10.96,1.24,1.70,0.2,4.6,-29.1
163701,1200,1200,1200,1200,0.41,655,11.93,2.54,2.35,12.14,6.41,1.32,1.48,3.8,5.7,-28.2
163701,1200,1200,1200,1200,0.36,650,11.93,2.48,1.64,10.76,-19.60,5.56,19.60,0.7,-8.8,-27.0
163701,1200,1200,1200,1200,0.40,654,11.92,2.40,1.85,9.45,1.21,-1.05,1.42,2.0,7.6,-26.0
163701,1200,1200,1200,1200,0.39,653,11.91,2.45,1.30,8.18,9.89,-0.45,4.13,4.2,2.7,-23.1
163701,1200,1200,1200,1200,0.40,654,11.93,2.92,1.71,6.99,-3.06,-0.32,10.26,5.7,3.1,-22.4
163701,1200,1200,1200,1200,0.39,653,11.92,2.91,1.52,5.81,2.76,3.16,4.51,3.4,-0.7,-21.2
163701,1200,1200,1200,1200,0.39,653,11.92,3.31,1.72,4.63,0.25,-3.63,7.48,4.9,-7.8,-24.5
163702,1200,1200,1200,1200,0.38,652,11.91,3.36,1.44,3.51,-7.13,-0.21,13.86,3.7,1.5,-22.9
163702,1200,1200,1200,1200,0.40,654,11.93,3.54,2.32,2.41,0.56,-3.68,10.12,4.3,7.1,-23.3
163702,1200,1200,1200,1200,0.39,653,11.91,3.81,2.15,1.31,0.32,1.93,6.82,3.7,1.1,-24.5
163702,1200,1200,1200,1200,0.41,655,11.92,4.01,2.18,0.24,-0.21,1.36,7.94,3.1,5.7,-22.9
163702,1200,1200,1200,1200,0.39,653,11.93,4.06,1.91,-0.89,-19.60,8.46,19.60,2.2,-2.9,-22.1
163702,1200,1200,1200,1200,0.42,656,11.92,4.07,2.19,-1.91,0.02,0.88,10.17,-1.3,5.5,-19.8
163702,1200,1200,1200,1200,0.39,653,11.92,4.03,1.44,-3.02,7.16,-0.39,6.07,0.5,8.9,-22.6
163702,1200,1200,1200,1200,0.43,658,11.92,4.26,1.35,-4.14,6.57,-3.13,2.90,1.6,-0.9,-21.0
163702,1200,1200,1200,1200,0.39,653,11.91,4.18,1.08,-5.19,2.13,2.63,12.54,-0.4,9.5,-20.8
163702,1200,1200,1200,1200,0.44,659,11.92,4.11,2.57,-6.30,0.19,4.45,14.13,-1.8,-0.8,-23.1
163702,1200,1200,1200,1200,0.42,656,11.93,3.79,1.69,-7.39,2.80,-0.65,6.63,-3.3,9.2,-21.9
163702,1200,1200,1200,1200,0.42,657,11.93,3.68,1.63,-8.44,-10.89,1.20,18.29,-2.7,-5.7,-21.2
163702,1200,1200,1200,1200,0.42,657,11.91,3.41,1.77,-9.52,8.52,-1.02,-3.59,-1.6,4.8,-21.3
163702,1200,1200,1200,1200,0.46,661,11.91,3.07,2.06,-10.72,0.00,4.71,9.36,-0.4,-3.3,-22.9
163702,1200,1200,1200,1200,0.43,658,11.91,3.16,1.60,-11.93,-3.49,-0.26,9.38,-0.5,-2.3,-22.5
163702,1200,1200,1200,1200,0.44,659,11.92,2.95,0.99,-13.04,-0.33,-1.53,8.15,-0.7,1.8,-19.1
163702,1200,1200,1200,1200,0.41,655,11.93,2.59,1.74,-14.11,-1.46,-0.31,10.24,0.4,2.0,-20.3
163702,1200,1200,1200,1200,0.47,662,11.92,2.56,1.62,-15.13,-2.93,3.76,8.60,2.9,-0.7,-20.0
163702,1200,1200,1200,1200,0.44,659,11.93,2.57,2.48,-16.16,1.11,-0.57,5.14,1.5,-1.5,-21.7
163702,1200,1200,1200,1200,0.46,661,11.92,2.24,1.82,-17.22,-11.50,2.65,13.53,2.3,-11.7,-23.8
163703,1200,1200,1200,1200,0.43,658,11.93,2.20,2.22,-18.29,6.39,-3.38,12.40,-1.1,1.8,-21.7
163703,1200,1200,1200,1200,0.43,658,11.92,2.08,2.53,-19.28,5.80,-2.70,16.36,0.1,0.8,-20.1
163703,1200,1200,1200,1200,0.48,663,11.91,1.98,2.83,-20.32,-0.40,0.64,7.68,2.1,0.8,-20.8
163703,1200,1200,1200,1200,0.44,659,11.91,2.03,2.91,-21.36,5.98,3.33,6.85,2.0,-5.4,-20.5
163703,1200,1200,1200,1200,0.47,662,11.91,1.87,2.36,-22.39,9.53,1.90,3.54,2.1,4.7,-19.0
163703,1200,1200,1200,1200,0.42,657,11.92,1.93,1.89,-23.43,-1.34,-1.27,1.64,3.1,-9.0,-20.4
163703,1200,1200,1200,1200,0.47,662,11.91,2.09,1.81,-24.46,-0.49,4.94,6.97,2.3,-2.5,-20.0
163703,1200,1200,1200,1200,0.43,658,11.91,2.05,1.27,-25.45,6.14,1.54,4.28,2.3,2.3,-19.1
163703,1200,1200,1200,1200,0.49,664,11.91,2.14,1.54,-26.36,-1.23,-1.64,12.48,0.7,0.5,-19.5
163703,1200,1200,1200,1200,0.46,661,11.90,1.99,0.71,-27.32,4.01,-1.87,7.38,-2.0,4.4,-20.6
163703,1200,1200,1200,1200,0.45,660,11.91,1.97,1.14,-28.21,1.25,0.60,11.29,-1.5,-3.3,-18.4
163703,1200,1200,1200,1200,0.43,658,11.93,2.06,1.59,-29.16,2.97,-4.53,7.76,1.7,-3.3,-19.1
163703,1200,1200,1200,1200,0.46,661,11.92,2.07,2.23,-30.10,-7.88,3.14,18.26,2.6,-1.2,-16.8
163703,1200,1200,1200,1200,0.47,662,11.92,2.08,1.63,-31.02,5.40,-4.56,3.45,2.6,7.2,-17.9
163703,1200,1200,1200,1200,0.44,659,11.91,2.23,1.56,-31.90,-3.37,4.42,17.20,-0.1,6.5,-14.7
163703,1200,1200,1200,1200,0.47,662,11.92,2.15,1.79,-32.75,8.27,-1.94,7.31,1.1,2.7,-16.3
163703,1200,1200,1200,1200,0.49,664,11.91,2.32,1.77,-33.52,-5.37,-3.07,9.80,3.1,-0.2,-16.1
163703,1200,1200,1200,1200,0.46,661,11.91,2.03,2.06,-34.33,-5.96,2.19,10.74,2.6,1.1,-15.1
163703,1200,1200,1200,1200,0.47,662,11.90,2.45,2.23,-34.99,-0.04,-3.58,5.91,0.0,-2.8,-14.4
163703,1200,1200,1200,1200,0.46,661,11.92,2.29,2.29,-35.66,-11.47,1.47,13.14,0.1,0.5,-13.8
163704,1200,1200,1200,1200,0.48,663,11.91,2.58,2.89,-36.37,6.61,-6.35,2.74,4.0,4.1,-14.0
163704,1200,1200,1200,1200,0.46,661,11.91,2.62,3.77,-37.03,-8.05,2.50,9.02,2.7,1.2,-11.6
163704,1200,1200,1200,1200,0.46,661,11.91,2.75,2.92,-37.56,2.10,0.56,5.77,3.2,3.9,-7.9
163704,1200,1200,1200,1200,0.48,663,11.91,3.11,2.67,-38.07,-9.84,4.74,15.62,6.3,-7.3,-7.6
163704,1200,1200,1200,1200,0.51,666,11.92,3.15,2.85,-38.59,0.95,-3.74,4.01,3.8,3.1,-9.8
163704,1200,1200,1200,1200,0.44,659,11.91,3.30,2.20,-39.16,-2.17,-1.83,8.66,4.7,2.6,-9.9
163704,1200,1200,1200,1200,0.47,662,11.91,3.32,2.50,-39.68,2.48,4.93,10.70,4.0,3.9,-10.1
163704,1200,1200,1200,1200,0.51,666,11.90,3.52,2.21,-40.19,11.00,-3.84,2.11,2.0,6.4,-10.4
163704,1200,1200,1200,1200,0.50,665,11.91,3.41,2.26,-40.78,-8.87,3.24,10.77,1.6,2.1,-11.7
163704,1200,1200,1200,1200,0.50,665,11.90,3.37,1.63,-41.34,17.28,-0.82,-4.32,1.0,1.9,-12.1
163704,1200,1200,1200,1200,0.50,665,11.91,3.54,0.81,-41.92,-0.09,3.47,7.91,1.3,-2.7,-12.7
163704,1200,1200,1200,1200,0.49,664,11.92,3.29,-0.15,-42.49,-12.03,-0.44,14.51,2.3,-7.6,-12.8
163704,1200,1200,1200,1200,0.49,664,11.90,3.52,0.50,-43.22,4.80,-1.87,5.70,0.5,-2.5,-15.7
163704,1200,1200,1200,1200,0.50,665,11.91,3.39,-0.12,-43.93,0.29,5.46,0.11,-0.8,3.7,-13.1
163704,1200,1200,1200,1200,0.50,665,11.91,3.68,0.41,-44.62,8.26,-0.38,5.00,0.4,3.7,-12.6
163704,1200,1200,1200,1200,0.48,663,11.92,3.69,-0.48,-45.30,-13.49,-0.55,16.63,0.5,-12.2,-13.1
163704,1200,1200,1200,1200,0.51,666,11.92,3.58,0.31,-45.92,10.32,4.48,2.70,2.2,6.8,-13.5
163704,1200,1200,1200,1200,0.50,665,11.91,3.61,-0.28,-46.59,3.97,-1.62,8.23,1.9,4.2,-13.8
163704,1200,1200,1200,1200,0.49,664,11.91,3.54,-0.53,-47.20,-1.66,-1.95,16.59,1.2,8.2,-14.6
163704,1200,1200,1200,1200,0.47,662,11.91,3.47,0.11,-47.83,12.21,4.79,-0.53,-1.2,6.5,-14.7
163705,1200,1200,1200,1200,0.48,663,11.90,3.45,0.06,-48.52,-6.65,-1.84,17.18,0.1,2.5,-15.8
163705,1200,1200,1200,1200,0.51,666,11.91,3.19,0.44,-49.32,-4.57,1.06,7.03,-1.8,-6.0,-15.6
163705,1200,1200,1200,1200,0.46,661,11.91,3.27,0.17,-50.07,3.33,1.96,4.17,0.2,-12.7,-14.8
163705,1200,1200,1200,1200,0.51,666,11.91,2.92,-0.35,-50.85,-6.05,3.97,11.56,-1.3,-1.0,-14.1
163705,1200,1200,1200,1200,0.48,663,11.91,3.20,1.37,-51.63,7.16,-4.45,3.25,-0.5,6.3,-15.3
163705,1200,1200,1200,1200,0.48,663,11.91,2.87,0.02,-52.39,4.40,4.96,6.74,0.7,-0.4,-12.7
163705,1200,1200,1200,1200,0.45,660,11.91,3.15,0.34,-53.06,4.57,4.12,8.35,1.2,4.5,-14.1
163705,1200,1200,1200,1200,0.48,663,11.91,3.02,-0.92,-53.74,-1.64,0.27,13.41,-0.4,-6.1,-13.1
163705,1200,1200,1200,1200,0.50,665,11.91,3.10,-0.24,-54.43,8.82,-0.67,10.63,0.9,-4.6,-16.5
163705,1200,1200,1200,1200,0.46,661,11.91,3.00,-0.80,-55.13,12.24,2.58,1.30,-0.9,1.6,-14.4
163705,1200,1200,1200,1200,0.52,667,11.91,3.00,-1.64,-55.79,1.15,-0.10,10.89,1.1,2.8,-14.2
163705,1200,1200,1200,1200,0.51,666,11.91,2.85,-1.99,-56.49,-1.44,-3.64,11.47,2.4,-5.6,-13.5
163705,1200,1200,1200,1200,0.47,662,11.92,2.75,-2.06,-57.23,-6.28,5.31,9.15,-0.3,-4.3,-14.5
163705,1200,1200,1200,1200,0.49,664,11.90,2.64,-1.59,-57.87,10.01,3.68,4.28,-1.2,3.7,-8.8
163705,1200,1200,1200,1200,0.50,665,11.91,2.95,-1.91,-58.42,-16.24,2.19,19.60,0.9,-0.9,-11.0
163705,1200,1200,1200,1200,0.51,666,11.90,2.87,-1.97,-59.01,10.83,-1.79,-0.11,1.5,-2.1,-12.0
163705,1200,1200,1200,1200,0.47,662,11.89,2.84,-2.61,-59.63,-10.97,7.17,15.02,2.5,-2.7,-11.5
163705,1200,1200,1200,1200,0.51,666,11.91,2.72,-1.73,-60.19,-11.26,0.12,10.77,0.3,2.7,-8.9
163705,1200,1200,1200,1200,0.50,665,11.92,2.42,-1.92,-60.67,-0.17,1.14,8.43,-0.9,-2.1,-11.7
163705,1200,1200,1200,1200,0.49,664,11.91,2.52,-1.49,-61.21,5.00,1.59,11.47,-1.4,1.5,-10.9
163706,1200,1200,1200,1200,0.51,666,11.90,2.18,-1.88,-61.81,5.97,1.52,6.21,1.4,-6.2,-13.8
163706,1200,1200,1200,1200,0.46,661,11.91,2.23,-1.39,-62.37,-4.89,6.10,11.18,-1.6,2.1,-9.6
163706,1200,1200,1200,1200,0.52,667,11.90,2.22,-1.50,-62.83,-1.06,3.46,3.01,-1.7,-4.8,-7.8
163706,1200,1200,1200,1200,0.48,663,11.91,2.27,-1.36,-63.29,-6.19,1.01,15.32,-0.4,-9.8,-8.7
163706,1200,1200,1200,1200,0.48,663,11.92,2.44,-1.71,-63.78,10.69,2.10,-1.12,-1.5,12.4,-10.0
163706,1200,1200,1200,1200,0.48,663,11.90,2.65,-1.66,-64.23,4.15,-1.74,5.44,2.4,-1.6,-9.2
163706,1200,1200,1200,1200,0.48,663,11.91,2.70,-1.81,-64.72,5.92,-1.67,6.13,1.5,6.7,-11.7
163706,1200,1200,1200,1200,0.43,658,11.91,2.90,-2.09,-65.08,-3.28,3.57,11.68,0.6,-1.9,-6.3
163706,1200,1200,1200,1200,0.49,664,11.92,2.86,-1.97,-65.39,-6.68,2.30,13.55,2.4,-3.2,-6.4
163706,1200,1200,1200,1200,0.49,664,11.91,2.66,-1.33,-65.62,5.39,-3.93,8.72,0.9,-2.1,-5.6
163706,1200,1200,1200,1200,0.47,662,11.91,2.54,-1.29,-65.91,3.39,0.72,13.53,2.7,3.8,-6.7
163706,1200,1200,1200,1200,0.48,663,11.90,2.53,-0.85,-66.07,2.42,3.13,6.40,1.7,9.3,-3.6
163706,1200,1200,1200,1200,0.50,665,11.89,2.80,-0.72,-66.26,-9.20,1.78,9.88,-0.1,4.2,-2.6
163706,1200,1200,1200,1200,0.48,663,11.91,2.69,-1.06,-66.48,-5.30,3.09,11.25,0.9,3.6,-5.6
163706,1200,1200,1200,1200,0.45,660,11.91,2.83,-0.92,-66.68,13.09,-5.21,-0.27,2.1,4.6,-3.1
163706,1200,1200,1200,1200,0.45,660,11.91,2.63,-0.91,-66.84,0.32,1.70,10.68,2.4,1.0,-2.3
163706,1200,1200,1200,1200,0.46,661,11.89,2.72,-1.16,-66.92,2.99,-4.23,11.04,1.5,4.5,-2.7
163706,1200,1200,1200,1200,0.46,661,11.90,2.80,-1.45,-66.98,-2.88,-2.54,15.77,1.3,0.8,-1.8
163706,1200,1200,1200,1200,0.46,661,11.90,2.82,-0.68,-67.04,2.26,3.39,2.46,2.1,5.7,-0.9
163706,1200,1200,1200,1200,0.47,662,11.91,3.05,-1.14,-67.12,15.41,2.45,0.61,1.5,3.5,-2.5
163707,1200,1200,1200,1200,0.43,658,11.92,2.90,-1.43,-67.21,-1.13,0.37,8.70,0.3,3.6,-0.7
163707,1200,1200,1200,1200,0.46,661,11.89,3.11,-1.49,-67.29,0.14,-1.00,8.33,0.2,5.4,0.8
163707,1200,1200,1200,1200,0.44,659,11.90,3.29,-1.45,-67.38,-7.69,1.00,9.73,1.7,-5.4,-1.2
163707,1200,1200,1200,1200,0.43,658,11.90,3.62,-1.48,-67.58,13.16,7.30,3.17,0.9,5.9,-3.2
163707,1200,1200,1200,1200,0.42,656,11.90,3.66,-1.81,-67.79,-1.75,-0.73,7.66,0.7,1.2,-4.4
163707,1200,1200,1200,1200,0.43,658,11.90,3.49,-2.44,-68.02,7.39,-1.39,8.57,0.5,6.0,-3.5
163707,1200,1200,1200,1200,0.42,656,11.92,3.31,-2.59,-68.11,-10.69,1.59,16.89,3.8,-2.1,-3.1
163707,1200,1200,1200,1200,0.46,661,11.92,3.41,-1.99,-68.25,-3.58,6.69,8.31,3.5,-2.6,-2.3
163707,1200,1200,1200,1200,0.42,657,11.89,3.42,-1.43,-68.35,-4.62,-0.32,11.59,-0.7,-2.1,-3.3
163707,1200,1200,1200,1200,0.43,658,11.90,3.30,-0.60,-68.54,-3.76,-2.18,11.97,-0.7,5.3,-5.9
163707,1200,1200,1200,1200,0.41,655,11.90,3.03,-0.80,-68.83,4.40,-4.47,3.05,-1.0,7.4,-6.7
163707,1200,1200,1200,1200,0.44,659,11.91,3.09,-0.20,-69.05,-4.19,6.57,13.56,-0.2,1.1,-2.9
163707,1200,1200,1200,1200,0.42,656,11.90,3.30,-0.17,-69.31,0.48,-0.29,8.12,-1.1,6.3,-5.2
163707,1200,1200,1200,1200,0.42,656,11.90,3.26,-0.14,-69.68,-3.55,-2.88,14.63,-2.9,-1.3,-7.9
163707,1200,1200,1200,1200,0.42,657,11.91,3.16,0.20,-70.00,1.92,3.66,10.67,-2.1,3.2,-5.9
163707,1200,1200,1200,1200,0.42,656,11.90,3.23,1.07,-70.34,1.77,-0.82,14.04,-1.0,3.2,-8.0
163707,1200,1200,1200,1200,0.42,656,11.91,3.14,1.37,-70.87,2.51,1.13,10.02,-2.1,3.8,-11.7
163707,1200,1200,1200,1200,0.42,656,11.90,3.07,1.26,-71.38,7.20,2.86,6.26,-1.0,1.4,-11.4
163707,1200,1200,1200,1200,0.40,654,11.91,2.82,0.28,-71.89,0.65,2.45,4.81,-3.2,-3.1,-11.1
163707,1200,1200,1200,1200,0.43,658,11.90,2.61,-0.33,-72.47,11.16,4.70,0.87,-2.9,-2.4,-12.8
163708,1200,1200,1200,1200,0.39,653,11.89,2.75,-1.13,-73.07,-7.16,4.71,13.81,-1.0,-5.7,-13.6
163708,1200,1200,1200,1200,0.39,653,11.90,2.73,-0.71,-73.73,-7.16,3.45,4.81,-0.4,0.1,-13.1
163708,1200,1200,1200,1200,0.40,654,11.89,2.66,-0.77,-74.35,5.43,-2.73,2.65,-1.2,-6.6,-11.4
