time,pwm1,pwm2,pwm3,pwm4,depth,press,voltage,roll,pitch,yaw,a_x,a_y,a_z,w_row,w_pitch,w_yaw
202324,1100,1100,1100,1100,0.04,611,12.08,6.95,0.06,26.64,-0.04,1.07,8.69,-0.2,0.1,0.1
202324,1100,1100,1100,1100,0.00,607,12.08,6.93,0.07,26.65,-0.05,0.91,8.47,-0.4,0.1,0.1
202324,1100,1100,1100,1100,0.03,610,12.06,6.91,0.18,26.65,0.84,1.15,8.83,0.0,7.3,-0.5
202324,1100,1100,1100,1100,0.04,611,12.04,6.90,0.69,26.67,4.02,1.06,6.70,1.6,8.2,-0.4
202325,1200,1200,1200,1200,0.00,607,11.98,6.64,2.14,26.67,0.13,3.58,7.41,-5.2,10.3,-2.3
202325,1200,1200,1200,1200,0.03,610,11.93,6.03,2.57,26.53,-8.69,0.18,11.93,-15.7,9.2,-5.6
202325,1200,1200,1200,1200,0.02,609,11.92,5.19,2.75,26.15,4.51,-0.58,1.87,-12.7,-2.7,-10.1
202325,1200,1200,1200,1200,0.02,609,11.93,4.00,2.44,25.45,-2.56,3.26,8.29,-9.3,-9.8,-13.5
202325,1200,1200,1200,1200,0.08,615,11.91,3.52,2.16,24.75,-2.38,1.11,9.79,-9.3,-8.9,-12.3
202325,1200,1200,1200,1200,0.08,616,11.91,3.06,1.60,24.07,-0.17,-9.01,12.40,-9.8,-14.0,-14.3
202325,1200,1200,1200,1200,0.11,619,11.91,2.43,1.26,23.31,10.63,4.52,3.20,-8.9,-4.3,-16.6
202325,1200,1200,1200,1200,0.10,618,11.91,2.17,0.21,22.45,7.51,1.46,3.81,-8.0,-4.6,-18.4
202325,1200,1200,1200,1200,0.10,618,11.90,1.72,-0.50,21.52,-5.87,4.00,14.02,-4.4,-19.7,-18.6
202325,1200,1200,1200,1200,0.12,620,11.91,1.83,-0.48,20.53,-1.03,3.62,9.24,-5.3,-5.4,-20.3
202325,1200,1200,1200,1200,0.16,624,11.93,1.86,-1.60,19.44,5.70,0.11,9.39,-3.5,-9.8,-21.2
202325,1200,1200,1200,1200,0.18,626,11.92,1.38,-2.00,18.34,9.47,4.40,10.33,-1.3,-1.5,-22.1
202325,1200,1200,1200,1200,0.11,619,11.89,1.75,-2.06,17.18,2.58,1.41,8.55,-0.5,-9.9,-22.7
202325,1200,1200,1200,1200,0.16,624,11.92,1.66,-2.90,16.04,-2.45,5.78,6.02,0.5,-14.0,-23.7
202325,1200,1200,1200,1200,0.15,623,11.91,2.00,-3.09,14.84,1.17,3.37,6.20,3.1,4.6,-24.5
202325,1200,1200,1200,1200,0.17,625,11.91,2.35,-3.64,13.64,1.66,3.97,8.43,2.4,-0.3,-25.0
202325,1200,1200,1200,1200,0.14,622,11.92,2.51,-4.69,12.35,-2.07,-1.96,7.37,-0.4,-5.8,-26.2
202325,1200,1200,1200,1200,0.17,625,11.92,2.59,-4.48,11.02,-7.74,5.47,16.84,-1.0,-4.9,-26.4
202325,1200,1200,1200,1200,0.20,628,11.91,2.65,-4.46,9.62,2.81,-3.62,8.41,0.6,1.7,-26.9
202325,1200,1200,1200,1200,0.20,628,11.92,2.37,-4.88,8.14,-1.57,-1.65,12.09,1.0,-3.9,-30.0
202326,1200,1200,1200,1200,0.19,627,11.91,2.60,-4.46,6.61,-2.33,9.39,9.93,2.1,-5.0,-29.6
202326,1200,1200,1200,1200,0.24,632,11.92,3.15,-4.02,5.00,6.82,0.45,8.39,3.5,-0.7,-31.9
202326,1200,1200,1200,1200,0.25,634,11.92,3.27,-4.27,3.43,6.79,1.91,1.54,5.6,6.1,-32.4
202326,1200,1200,1200,1200,0.22,630,11.92,3.63,-3.60,1.85,-0.87,-4.74,15.97,2.4,5.4,-32.3
202326,1200,1200,1200,1200,0.24,632,11.91,3.75,-2.76,0.28,7.88,3.99,6.69,3.4,2.9,-31.4
202326,1200,1200,1200,1200,0.23,631,11.92,3.47,-3.00,-1.30,-8.58,-2.03,17.32,2.3,1.8,-31.4
202326,1200,1200,1200,1200,0.25,633,11.93,3.40,-2.43,-2.83,4.07,1.32,12.07,3.5,13.0,-29.1
202326,1200,1200,1200,1200,0.24,632,11.92,3.49,-2.74,-4.33,12.64,0.91,1.63,3.1,6.0,-29.8
202326,1200,1200,1200,1200,0.25,634,11.92,3.70,-2.70,-5.83,5.63,1.71,6.67,2.7,8.1,-29.8
202326,1200,1200,1200,1200,0.25,634,11.92,4.24,-2.68,-7.40,4.93,-0.71,5.61,5.6,-2.4,-30.0
202326,1200,1200,1200,1200,0.28,637,11.92,4.21,-2.82,-8.87,-1.69,1.57,10.18,2.8,-2.6,-29.9
202326,1200,1200,1200,1200,0.25,634,11.92,4.30,-3.01,-10.33,6.57,-2.93,8.47,5.6,-2.8,-30.3
202326,1200,1200,1200,1200,0.24,632,11.91,4.46,-2.51,-11.92,-2.55,-0.66,2.08,1.5,6.8,-32.4
202326,1200,1200,1200,1200,0.25,634,11.91,4.52,-2.56,-13.52,7.11,0.15,7.62,2.7,12.9,-32.5
202326,1200,1200,1200,1200,0.27,636,11.91,4.97,-1.84,-15.10,0.17,6.46,13.54,4.0,-3.4,-32.7
202326,1200,1200,1200,1200,0.27,636,11.91,5.26,-1.72,-16.75,-6.87,-2.79,17.40,4.2,3.6,-32.7
202326,1200,1200,1200,1200,0.28,637,11.89,5.42,-0.77,-18.40,-5.80,4.24,10.53,4.8,11.5,-34.1
202326,1200,1200,1200,1200,0.26,635,11.91,5.65,-0.69,-20.09,17.60,-4.78,1.47,3.0,13.1,-34.7
202326,1200,1200,1200,1200,0.29,638,11.92,5.62,-0.38,-21.85,-6.32,3.33,10.50,3.7,8.1,-36.2
202326,1200,1200,1200,1200,0.28,637,11.91,5.90,-0.08,-23.59,2.63,1.41,6.86,3.7,3.8,-36.3
202327,1200,1200,1200,1200,0.30,639,11.89,5.68,0.24,-25.46,1.29,0.44,7.41,3.8,1.8,-40.8
202327,1200,1200,1200,1200,0.32,641,11.91,5.61,0.36,-27.45,9.23,3.56,2.97,3.7,7.1,-40.5
202327,1200,1200,1200,1200,0.30,639,11.93,5.57,0.84,-29.40,6.72,5.43,10.52,1.0,4.9,-40.5
202327,1200,1200,1200,1200,0.32,641,11.91,5.57,0.72,-31.35,5.39,-3.87,5.99,1.5,4.1,-37.7
202327,1200,1200,1200,1200,0.31,640,11.91,5.59,0.95,-33.33,-10.16,0.97,16.41,-0.2,-1.4,-40.5
202327,1200,1200,1200,1200,0.32,641,11.91,5.77,0.67,-35.36,1.20,-1.17,6.24,-0.4,-0.9,-39.6
202327,1200,1200,1200,1200,0.36,645,11.91,5.56,0.50,-37.47,7.58,3.80,6.06,-1.0,-1.6,-42.8
202327,1200,1200,1200,1200,0.36,645,11.90,5.34,0.07,-39.64,7.97,-0.91,4.45,-1.5,4.1,-42.2
202327,1200,1200,1200,1200,0.34,643,11.92,4.95,0.14,-41.81,-7.63,4.65,11.42,-2.5,4.2,-42.1
202327,1200,1200,1200,1200,0.37,646,11.91,4.82,0.25,-43.96,3.21,-0.62,11.49,-0.2,-6.1,-42.8
202327,1200,1200,1200,1200,0.35,644,11.91,4.54,0.01,-46.14,10.46,0.76,3.09,-1.3,-4.6,-42.7
202327,1200,1200,1200,1200,0.28,637,11.91,4.14,-0.52,-48.27,-7.57,-0.01,12.21,-1.2,-2.9,-43.9
202327,1200,1200,1200,1200,0.37,646,11.91,3.78,-0.74,-50.41,6.22,1.11,4.23,-3.6,10.3,-42.7
202327,1200,1200,1200,1200,0.36,645,11.91,3.55,-0.34,-52.56,-4.80,-3.64,10.05,-2.8,-11.0,-41.4
202327,1200,1200,1200,1200,0.36,645,11.91,3.36,-0.69,-54.64,11.31,-3.35,6.89,-4.5,-7.6,-41.3
202327,1200,1200,1200,1200,0.38,647,11.90,3.01,-0.65,-56.79,-4.14,3.67,10.29,-4.4,-0.4,-42.5
202327,1200,1200,1200,1200,0.35,644,11.91,2.45,-0.68,-58.95,-4.66,-2.88,17.28,-4.9,-1.6,-41.9
202327,1200,1200,1200,1200,0.35,644,11.91,2.28,-0.38,-61.07,2.82,2.79,8.28,-4.2,11.4,-43.6
202327,1200,1200,1200,1200,0.39,648,11.90,1.85,-0.68,-63.21,-3.29,-1.71,9.94,-0.8,-3.2,-43.3
202327,1200,1200,1200,1200,0.39,648,11.91,1.96,-0.48,-65.39,1.33,6.20,7.38,0.7,1.6,-45.3
202328,1200,1200,1200,1200,0.38,647,11.90,1.86,0.17,-67.63,1.82,0.05,9.75,-0.2,-1.6,-46.0
202328,1200,1200,1200,1200,0.35,644,11.92,1.81,-0.04,-69.87,-0.41,-3.31,8.86,1.5,7.5,-45.5
202328,1200,1200,1200,1200,0.43,653,11.92,1.57,0.57,-72.06,-7.61,2.41,11.51,1.7,7.0,-43.9
202328,1200,1200,1200,1200,0.40,649,11.91,1.91,0.84,-74.25,-1.31,1.62,10.69,1.3,-1.5,-42.8
202328,1200,1200,1200,1200,0.42,651,11.89,1.86,0.98,-76.41,-0.57,0.66,7.65,-0.1,2.6,-43.0
202328,1200,1200,1200,1200,0.39,648,11.90,1.94,0.84,-78.62,0.19,0.60,7.27,-0.5,7.0,-43.8
202328,1200,1200,1200,1200,0.39,648,11.90,1.84,0.81,-80.79,-0.23,1.51,11.03,0.7,4.9,-43.2
202328,1200,1200,1200,1200,0.43,653,11.90,1.97,0.89,-82.92,-0.33,-1.31,12.83,0.7,0.5,-43.2
202328,1200,1200,1200,1200,0.42,651,11.90,1.84,1.36,-84.97,4.96,-0.82,5.23,1.6,2.4,-42.4
202328,1200,1200,1200,1200,0.41,650,11.92,2.12,1.47,-87.08,-1.46,3.31,10.58,2.3,9.8,-42.5
202328,1200,1200,1200,1200,0.42,651,11.90,2.04,1.78,-89.11,10.08,2.74,6.29,1.9,7.6,-41.3
202328,1200,1200,1200,1200,0.41,650,11.92,2.06,1.29,-91.13,-0.53,3.25,10.59,2.7,-11.5,-40.5
202328,1200,1200,1200,1200,0.45,655,11.90,2.05,1.36,-93.13,8.24,2.67,0.76,1.5,6.5,-39.4
202328,1200,1200,1200,1200,0.44,654,11.92,2.16,1.05,-95.13,-9.48,-1.99,16.92,3.1,-6.3,-39.6
202328,1200,1200,1200,1200,0.41,650,11.91,2.33,1.70,-97.13,-6.86,4.34,13.36,-1.2,-2.4,-38.0
202328,1200,1200,1200,1200,0.42,652,11.90,2.21,1.58,-99.14,-0.06,0.22,9.12,0.2,3.1,-40.0
202328,1200,1200,1200,1200,0.42,651,11.89,2.05,2.08,-101.12,8.78,0.11,6.17,2.4,8.1,-39.1
202328,1200,1200,1200,1200,0.43,653,11.89,2.00,2.00,-103.14,1.06,-2.83,9.16,1.6,-4.6,-41.2
202328,1200,1200,1200,1200,0.43,653,11.92,1.98,1.99,-105.17,2.83,2.10,6.29,1.0,10.1,-42.4
202328,1200,1200,1200,1200,0.44,654,11.92,2.15,2.16,-107.25,-2.16,0.01,13.43,2.9,-6.8,-42.1
202329,1200,1200,1200,1200,0.43,653,11.90,2.49,2.25,-109.35,13.49,-2.06,-1.62,0.6,6.8,-41.0
202329,1200,1200,1200,1200,0.46,656,11.91,2.27,1.96,-111.42,-0.83,-2.54,8.41,2.1,4.0,-42.1
202329,1200,1200,1200,1200,0.45,655,11.89,2.17,1.65,-113.60,-18.38,1.31,11.79,1.3,-12.0,-42.7
202329,1200,1200,1200,1200,0.42,651,11.90,2.39,2.43,-115.82,0.80,2.70,5.99,1.8,7.1,-44.8
202329,1200,1200,1200,1200,0.45,655,11.90,2.36,2.21,-118.00,-1.55,-0.68,6.00,1.0,2.2,-43.6
202329,1200,1200,1200,1200,0.42,652,11.91,2.53,2.81,-120.22,11.03,-1.50,4.68,4.4,6.1,-45.9
202329,1200,1200,1200,1200,0.42,652,11.90,2.37,2.35,-122.46,6.93,-1.66,11.84,3.5,2.4,-45.7
202329,1200,1200,1200,1200,0.47,657,11.91,2.06,2.49,-124.71,3.80,3.33,5.93,1.6,2.8,-46.3
202329,1200,1200,1200,1200,0.45,655,11.90,1.80,2.75,-126.98,-6.12,5.72,15.24,0.0,-6.1,-44.6
202329,1200,1200,1200,1200,0.44,654,11.92,2.00,3.38,-129.20,10.46,0.61,7.93,-0.3,7.4,-46.4
202329,1200,1200,1200,1200,0.46,656,11.90,1.86,3.20,-131.50,-0.70,-0.24,7.64,-2.1,0.5,-45.8
202329,1200,1200,1200,1200,0.47,657,11.90,1.69,3.51,-133.84,-6.56,-1.92,16.71,-1.5,-0.5,-47.9
202329,1200,1200,1200,1200,0.47,657,11.90,1.49,3.94,-136.25,-5.26,7.36,7.24,-0.2,-1.1,-46.8
202329,1200,1200,1200,1200,0.48,658,11.91,1.35,3.59,-138.53,-4.38,-2.59,4.86,2.3,2.9,-46.6
202329,1200,1200,1200,1200,0.48,658,11.90,1.38,4.07,-140.83,6.87,1.03,1.00,1.3,7.4,-45.5
202329,1200,1200,1200,1200,0.50,660,11.90,0.96,3.93,-143.12,4.26,-3.95,14.00,-0.9,7.4,-45.3
202329,1200,1200,1200,1200,0.46,656,11.91,0.91,3.80,-145.33,5.80,-1.04,6.72,-0.2,5.4,-43.5
202329,1200,1200,1200,1200,0.45,655,11.89,0.52,2.96,-147.55,-2.32,-2.26,8.70,0.5,-4.5,-42.9
202329,1200,1200,1200,1200,0.48,658,11.89,0.05,3.22,-149.70,-10.83,0.63,14.42,-0.4,-3.2,-41.1
202329,1200,1200,1200,1200,0.49,659,11.91,0.09,3.06,-151.82,-9.94,-0.17,10.33,-1.9,-8.3,-42.4
202330,1200,1200,1200,1200,0.49,659,11.91,-0.54,2.30,-153.94,1.78,-0.06,9.85,-2.5,2.0,-40.5
202330,1200,1200,1200,1200,0.45,655,11.90,-0.67,2.53,-155.99,6.51,0.43,6.63,0.8,-3.4,-41.3
202330,1200,1200,1200,1200,0.46,656,11.90,-0.99,2.10,-158.09,-9.16,0.12,12.05,0.8,-6.5,-41.0
202330,1200,1200,1200,1200,0.49,659,11.89,-1.09,2.56,-160.17,-0.25,-3.22,12.47,-1.0,-7.1,-41.0
202330,1200,1200,1200,1200,0.48,658,11.90,-1.49,2.24,-162.30,-14.50,-3.90,17.75,-1.5,6.9,-43.2
202330,1200,1200,1200,1200,0.50,660,11.89,-1.56,2.67,-164.48,18.81,-1.64,3.15,2.0,11.0,-41.1
202330,1200,1200,1200,1200,0.53,663,11.90,-1.61,2.00,-166.56,-8.10,-3.20,13.26,2.3,-1.6,-42.2
202330,1200,1200,1200,1200,0.49,659,11.90,-1.36,2.69,-168.62,8.96,0.35,3.80,2.1,10.9,-38.1
202330,1200,1200,1200,1200,0.52,662,11.90,-1.27,2.76,-170.59,3.19,0.10,4.77,3.1,7.0,-39.4
202330,1200,1200,1200,1200,0.47,657,11.91,-1.40,2.31,-172.58,-1.52,-4.04,12.69,5.4,7.8,-38.9
202330,1200,1200,1200,1200,0.47,657,11.91,-1.04,2.68,-174.49,3.40,4.08,9.44,4.4,3.4,-38.8
202330,1200,1200,1200,1200,0.52,662,11.91,-0.91,2.43,-176.33,-9.84,0.54,10.84,5.7,0.8,-36.4
202330,1200,1200,1200,1200,0.46,656,11.91,-0.66,2.91,-178.10,2.71,-1.62,9.41,4.7,2.7,-38.1
202330,1200,1200,1200,1200,0.47,657,11.91,-0.54,2.44,-179.89,5.25,-2.60,9.55,5.6,6.3,-33.5
202330,1200,1200,1200,1200,0.48,658,11.88,-0.33,2.76,178.48,3.97,0.27,3.23,6.2,13.2,-32.5
202330,1200,1200,1200,1200,0.48,658,11.89,0.04,2.28,176.82,-10.26,2.00,11.40,5.1,-5.4,-32.3
202330,1200,1200,1200,1200,0.53,663,11.88,0.32,2.87,175.20,4.38,1.63,7.98,5.1,0.4,-32.3
202330,1200,1200,1200,1200,0.44,654,11.89,0.63,2.75,173.60,6.84,0.66,2.64,2.5,6.0,-32.3
202330,1200,1200,1200,1200,0.53,663,11.91,0.50,2.32,172.02,3.61,-4.22,6.51,1.5,-3.2,-32.1
202330,1200,1200,1200,1200,0.52,662,11.92,0.45,2.15,170.48,1.45,-3.23,8.19,-0.3,4.0,-29.8
202331,1200,1200,1200,1200,0.52,662,11.90,0.33,2.20,169.03,1.60,3.46,8.27,0.4,-3.1,-29.2
202331,1200,1200,1200,1200,0.50,660,11.89,0.67,2.37,167.64,8.90,0.87,6.90,-2.2,0.3,-25.8
202331,1200,1200,1200,1200,0.45,655,11.89,0.47,1.82,166.31,-2.41,-1.45,8.80,-2.7,-3.6,-26.2
202331,1200,1200,1200,1200,0.46,656,11.89,0.14,1.64,165.00,-0.88,3.16,6.15,-0.7,2.3,-25.3
202331,1200,1200,1200,1200,0.51,661,11.88,-0.00,1.65,163.68,-0.87,-1.28,9.78,0.1,-7.0,-26.4
202331,1200,1200,1200,1200,0.50,660,11.90,0.05,1.59,162.36,-9.41,1.91,17.75,2.6,-3.2,-25.1
202331,1200,1200,1200,1200,0.47,657,11.89,0.10,1.40,161.09,1.76,-5.74,10.37,1.2,2.0,-24.9
202331,1200,1200,1200,1200,0.50,660,11.90,0.08,1.49,159.77,-1.48,5.17,8.86,4.7,-0.8,-27.1
202331,1200,1200,1200,1200,0.49,659,11.88,0.60,1.89,158.50,-0.18,2.47,5.89,3.4,2.9,-24.4
202331,1200,1200,1200,1200,0.51,661,11.90,0.74,1.87,157.20,7.22,1.54,10.35,2.8,9.2,-25.6
202331,1200,1200,1200,1200,0.50,660,11.89,0.87,1.86,156.07,3.81,0.68,7.31,1.6,-0.9,-21.4
202331,1200,1200,1200,1200,0.51,661,11.88,0.99,1.42,154.97,-4.28,-1.68,12.41,3.2,6.0,-23.1
202331,1200,1200,1200,1200,0.50,660,11.89,1.16,1.83,153.80,11.91,-2.04,4.27,2.6,14.6,-22.5
202331,1200,1200,1200,1200,0.45,655,11.90,0.91,1.55,152.63,-5.30,1.51,11.65,3.2,-8.4,-22.4
202331,1200,1200,1200,1200,0.51,661,11.90,0.84,1.95,151.49,-3.32,-2.55,6.16,2.2,-6.5,-22.5
202331,1200,1200,1200,1200,0.47,657,11.90,0.82,1.99,150.31,3.80,0.85,6.76,2.9,10.7,-23.8
202331,1200,1200,1200,1200,0.48,658,11.90,1.13,1.88,149.23,3.83,-2.63,6.09,2.9,3.9,-20.5
202331,1200,1200,1200,1200,0.51,661,11.90,1.29,1.55,148.21,0.39,1.06,1.53,2.9,8.2,-21.6
202331,1200,1200,1200,1200,0.46,656,11.89,1.06,1.34,147.04,-4.63,-2.47,12.28,1.8,-3.5,-25.3
202331,1200,1200,1200,1200,0.48,658,11.89,0.93,1.54,145.92,13.77,3.80,1.41,2.0,9.9,-23.4
202332,1200,1200,1200,1200,0.50,660,11.90,0.83,0.85,144.81,-0.77,-1.07,8.44,3.2,1.6,-22.8
202332,1200,1200,1200,1200,0.47,657,11.90,1.12,1.52,143.69,8.50,-1.13,5.10,1.6,4.9,-22.3
202332,1200,1200,1200,1200,0.49,659,11.89,1.40,1.05,142.53,-7.52,3.57,5.95,2.4,-6.2,-23.2
202332,1200,1200,1200,1200,0.48,658,11.90,1.93,1.13,141.32,2.14,-4.49,8.71,2.1,-4.0,-24.2
202332,1200,1200,1200,1200,0.49,659,11.89,2.05,1.21,140.13,-2.94,-5.07,9.07,0.8,-4.8,-24.8
202332,1200,1200,1200,1200,0.49,659,11.89,2.06,1.02,138.80,2.43,-0.91,8.13,-0.9,-0.7,-25.8
202332,1200,1200,1200,1200,0.48,658,11.89,1.97,0.18,137.53,-1.39,6.35,6.44,-0.1,-0.9,-24.7
202332,1200,1200,1200,1200,0.47,657,11.91,2.00,0.11,136.26,-0.93,3.34,11.40,0.2,0.2,-26.6
202332,1200,1200,1200,1200,0.43,653,11.89,2.03,-0.23,134.93,-4.65,-3.69,9.87,-2.0,-1.2,-27.3
202332,1200,1200,1200,1200,0.49,659,11.89,1.93,-0.33,133.58,-5.29,-1.55,9.96,-3.2,3.8,-27.8
202332,1200,1200,1200,1200,0.50,660,11.91,1.95,-0.74,132.18,4.69,-6.35,8.98,-4.0,-3.1,-27.3
202332,1200,1200,1200,1200,0.48,658,11.89,2.02,-0.01,130.82,-3.84,1.81,11.09,-2.2,-0.7,-25.4
202332,1200,1200,1200,1200,0.48,658,11.88,2.03,-0.53,129.48,2.83,-5.08,6.19,-0.4,-3.2,-25.1
202332,1200,1200,1200,1200,0.50,660,11.90,2.11,-0.41,128.17,-4.71,2.94,12.52,-2.6,6.5,-25.1
202332,1200,1200,1200,1200,0.43,653,11.88,2.12,-0.07,126.84,2.21,1.10,7.69,2.1,6.6,-26.0
202332,1200,1200,1200,1200,0.46,656,11.88,2.32,-0.21,125.50,-3.49,-1.94,10.46,3.5,2.3,-27.2
202332,1200,1200,1200,1200,0.45,655,11.89,2.23,0.15,124.16,9.59,-0.88,3.91,2.3,3.4,-25.3
202332,1200,1200,1200,1200,0.48,658,11.91,2.11,-0.13,122.88,-7.73,-3.86,16.55,0.1,-0.1,-25.7
202332,1200,1200,1200,1200,0.47,657,11.89,2.16,0.31,121.71,-3.60,2.06,9.32,2.3,5.9,-23.4
202332,1200,1200,1200,1200,0.46,656,11.90,1.97,1.06,120.52,-3.35,4.04,5.65,2.8,10.1,-22.6
202333,1200,1200,1200,1200,0.49,659,11.90,1.73,0.95,119.33,7.82,-1.56,5.86,1.0,10.0,-23.4
202333,1200,1200,1200,1200,0.48,658,11.91,1.95,1.76,118.17,2.17,1.33,1.24,1.0,10.3,-22.5
202333,1200,1200,1200,1200,0.46,656,11.89,2.07,1.56,117.02,-5.68,-3.43,8.69,1.0,-9.1,-22.0
202333,1200,1200,1200,1200,0.43,653,11.90,1.93,1.93,115.88,0.55,1.36,5.90,2.6,11.1,-24.2
202333,1200,1200,1200,1200,0.43,653,11.88,2.10,1.91,114.62,-1.86,5.57,10.36,5.2,1.5,-26.2
202333,1200,1200,1200,1200,0.47,657,11.89,2.64,2.25,113.53,2.16,-3.56,8.40,3.4,3.7,-20.4
202333,1200,1200,1200,1200,0.48,658,11.89,2.46,1.50,112.41,3.07,-0.82,4.01,3.8,-0.9,-24.2
202333,1200,1200,1200,1200,0.46,656,11.88,2.27,1.27,111.18,-5.80,0.45,11.26,6.5,-10.4,-22.5
202333,1200,1200,1200,1200,0.43,653,11.90,2.57,1.26,110.06,-0.84,3.42,7.66,3.1,2.6,-22.6
202333,1200,1200,1200,1200,0.45,655,11.89,2.64,0.91,108.96,5.30,1.49,10.60,3.2,-5.7,-23.1
202333,1200,1200,1200,1200,0.45,655,11.90,3.03,0.81,107.79,3.72,-3.07,-0.21,2.4,5.2,-25.4
202333,1200,1200,1200,1200,0.43,653,11.89,2.99,0.87,106.71,3.50,-3.00,6.15,3.1,0.1,-19.5
202333,1200,1200,1200,1200,0.46,656,11.89,3.12,0.75,105.76,7.87,4.35,3.14,2.9,0.0,-20.8
202333,1200,1200,1200,1200,0.45,655,11.88,3.31,-0.04,104.65,3.35,2.59,5.94,4.4,-0.5,-23.6
202333,1200,1200,1200,1200,0.42,652,11.88,3.83,-0.45,103.54,-2.38,-1.21,8.44,4.2,-4.3,-22.0
202333,1200,1200,1200,1200,0.47,657,11.88,3.59,-0.16,102.51,-7.78,0.51,14.61,3.0,-3.2,-19.2
202333,1200,1200,1200,1200,0.42,651,11.88,3.55,-0.66,101.55,-1.27,0.54,11.67,3.8,-8.2,-19.5
202333,1200,1200,1200,1200,0.42,652,11.88,3.62,-0.99,100.57,-6.18,2.02,8.57,1.8,-9.1,-18.0
202333,1200,1200,1200,1200,0.43,653,11.90,3.80,-1.09,99.64,-0.30,3.74,9.25,2.4,6.6,-18.4
202333,1200,1200,1200,1200,0.43,653,11.89,3.99,-1.29,98.75,6.96,-0.38,5.64,0.4,6.6,-17.5
202334,1200,1200,1200,1200,0.43,653,11.90,4.09,-1.08,97.86,-9.68,-2.96,14.35,0.1,-8.5,-17.9
202334,1200,1200,1200,1200,0.42,652,11.88,4.25,-0.75,96.97,9.75,0.59,5.57,0.0,9.2,-17.7
202334,1200,1200,1200,1200,0.42,651,11.88,4.56,-0.92,96.09,-10.29,-0.93,14.01,1.7,-8.2,-17.8
202334,1200,1200,1200,1200,0.41,650,11.89,4.63,-0.69,95.05,4.81,3.34,3.88,-2.2,7.4,-22.3
202334,1200,1200,1200,1200,0.38,647,11.89,4.56,-0.56,94.03,-4.30,2.21,10.51,-2.4,-0.8,-18.4
202334,1200,1200,1200,1200,0.40,649,11.88,4.45,-0.40,93.03,3.79,-0.47,5.71,-0.9,4.2,-21.0
202334,1200,1200,1200,1200,0.40,649,11.90,4.21,-0.12,92.02,-1.58,1.44,11.77,-2.1,-5.1,-19.3
202334,1200,1200,1200,1200,0.40,649,11.90,4.27,0.24,91.00,10.80,-2.50,1.84,-1.8,9.4,-22.3
202334,1200,1200,1200,1200,0.39,648,11.90,3.89,0.23,89.86,-3.93,-0.37,15.12,-0.4,0.8,-23.8
202334,1200,1200,1200,1200,0.38,647,11.89,3.63,0.18,88.62,-0.31,1.34,12.97,-2.2,8.1,-25.7
202334,1200,1200,1200,1200,0.39,648,11.88,3.52,0.85,87.36,-7.59,1.63,12.28,-1.5,-0.4,-26.9
202334,1200,1200,1200,1200,0.37,646,11.88,3.52,0.00,86.04,-1.56,0.54,8.33,2.1,-4.9,-27.0
202334,1200,1200,1200,1200,0.39,648,11.88,3.51,-0.08,84.72,-4.08,2.03,8.90,2.4,-0.1,-25.1
