time,pwm1,pwm2,pwm3,pwm4,depth,press,voltage,roll,pitch,yaw,a_x,a_y,a_z,w_row,w_pitch,w_yaw
205924,1100,1100,1100,1100,0.02,613,11.94,6.65,1.28,-21.72,-0.20,0.98,8.68,-1.2,2.7,-1.2
205924,1100,1100,1100,1100,-0.01,610,11.92,6.59,1.41,-21.76,-0.35,0.95,8.57,-0.7,1.6,-1.2
205924,1100,1100,1100,1100,0.02,613,11.92,6.58,1.49,-21.81,-0.15,0.96,8.33,1.1,1.3,-0.9
205924,1100,1100,1100,1100,0.01,612,11.90,6.66,1.63,-21.84,-2.76,-1.72,6.47,2.9,8.6,-1.6
205924,1202,1202,1202,1202,0.01,612,11.85,6.80,1.79,-21.87,-3.48,-1.89,8.99,0.4,8.5,-3.1
205924,1202,1202,1202,1202,0.00,611,11.81,6.65,2.74,-21.97,3.60,1.57,6.00,-3.1,1.3,-4.0
205924,1202,1202,1202,1202,0.07,618,11.81,6.75,2.52,-22.20,-5.22,-2.60,12.65,-6.8,-6.8,-7.3
205924,1202,1202,1202,1202,0.06,617,11.78,6.19,2.45,-22.80,-3.07,-2.60,5.17,-6.4,-12.9,-13.8
205924,1202,1202,1202,1202,0.11,623,11.80,5.94,1.69,-23.42,7.30,4.12,5.88,-6.8,-12.6,-8.8
205924,1202,1202,1202,1202,0.08,619,11.78,5.84,0.63,-24.00,0.73,3.37,5.12,-9.1,-7.9,-10.4
205924,1202,1202,1202,1202,0.11,623,11.78,5.56,-0.02,-24.67,1.04,-0.34,14.84,-8.1,-6.0,-14.2
205924,1202,1202,1202,1202,0.12,624,11.80,5.20,-0.08,-25.47,-4.57,6.91,12.10,-9.6,-9.3,-16.0
205924,1202,1202,1202,1202,0.14,626,11.79,4.78,-0.47,-26.33,-6.04,-3.00,12.99,-9.4,-8.2,-17.2
205924,1202,1202,1202,1202,0.10,622,11.78,4.32,-0.47,-27.33,2.74,-0.35,6.75,-8.2,-6.2,-22.0
205924,1202,1202,1202,1202,0.14,626,11.78,4.20,-0.89,-28.41,-3.20,3.21,9.46,-7.3,-10.8,-21.9
205924,1202,1202,1202,1202,0.16,628,11.78,4.16,-1.85,-29.61,0.31,-2.40,7.28,-7.6,-7.1,-25.3
205924,1202,1202,1202,1202,0.13,625,11.79,3.52,-1.41,-30.87,-1.91,0.87,8.18,-6.5,-5.4,-25.1
205924,1202,1202,1202,1202,0.11,623,11.78,3.13,-2.13,-32.13,-2.24,3.36,4.06,-7.1,-2.0,-25.8
205924,1202,1202,1202,1202,0.17,629,11.79,2.84,-1.91,-33.47,-4.39,-0.99,13.95,-4.2,-6.2,-27.0
205924,1202,1202,1202,1202,0.20,632,11.80,2.40,-2.03,-34.82,-1.16,5.53,7.57,-1.8,-2.4,-27.3
205925,1202,1202,1202,1202,0.14,626,11.79,2.76,-1.90,-36.18,0.92,2.44,7.89,-0.6,4.4,-28.5
205925,1202,1202,1202,1202,0.17,629,11.80,2.66,-1.81,-37.59,-2.89,-4.84,4.68,2.8,-2.9,-28.0
205925,1202,1202,1202,1202,0.21,633,11.78,2.35,-1.47,-39.01,3.65,-1.18,4.96,2.0,-0.1,-29.7
205925,1202,1202,1202,1202,0.21,633,11.79,2.81,-2.20,-40.57,-1.34,-2.39,9.08,5.8,-1.8,-31.7
205925,1202,1202,1202,1202,0.15,627,11.79,2.97,-1.80,-42.13,-5.53,3.48,9.56,5.1,-0.4,-29.2
205925,1202,1202,1202,1202,0.21,633,11.78,3.15,-1.89,-43.58,-2.32,2.83,9.93,4.0,1.1,-28.6
205925,1202,1202,1202,1202,0.21,633,11.78,3.69,-2.00,-45.03,3.08,4.04,7.42,4.7,1.0,-28.3
205925,1202,1202,1202,1202,0.22,634,11.77,3.96,-1.97,-46.51,-9.68,4.85,16.36,3.7,2.3,-28.5
205925,1202,1202,1202,1202,0.23,635,11.78,4.34,-2.26,-48.02,6.21,0.29,2.11,5.2,2.2,-31.4
205925,1202,1202,1202,1202,0.24,636,11.78,4.33,-2.37,-49.63,-9.49,-0.76,11.29,3.1,4.7,-32.9
205925,1202,1202,1202,1202,0.24,636,11.77,4.76,-2.15,-51.33,7.71,0.55,5.39,6.1,-2.6,-35.7
205925,1202,1202,1202,1202,0.24,636,11.78,4.60,-1.24,-53.08,-4.46,1.31,10.60,3.4,5.2,-36.1
205925,1202,1202,1202,1202,0.27,640,11.78,4.83,-0.92,-54.81,3.31,1.84,5.50,3.6,7.4,-34.6
205925,1202,1202,1202,1202,0.22,634,11.79,4.82,-0.93,-56.44,6.50,0.25,2.40,3.6,8.8,-32.6
205925,1202,1202,1202,1202,0.25,637,11.78,5.15,-0.81,-58.12,6.30,3.62,11.06,5.2,5.8,-34.1
205925,1202,1202,1202,1202,0.24,636,11.79,5.61,-0.57,-59.82,2.93,-6.99,3.60,5.5,6.7,-33.3
205925,1202,1202,1202,1202,0.23,635,11.80,5.48,-0.68,-61.46,2.02,1.39,7.16,3.8,0.1,-32.7
205925,1202,1202,1202,1202,0.25,638,11.81,5.53,-0.62,-63.08,6.00,-0.52,9.77,4.4,7.6,-33.3
205925,1202,1202,1202,1202,0.26,639,11.79,5.77,-0.59,-64.78,9.45,0.12,3.00,4.0,0.1,-34.9
205925,1202,1202,1202,1202,0.23,635,11.79,6.12,-0.21,-66.57,4.57,-3.34,9.69,2.6,6.0,-37.6
205926,1202,1202,1202,1202,0.26,639,11.78,6.25,-0.17,-68.38,-7.97,-1.11,15.36,3.1,1.1,-38.0
205926,1202,1202,1202,1202,0.23,635,11.78,6.09,0.62,-70.24,-2.63,1.62,10.73,2.0,3.1,-39.7
205926,1202,1202,1202,1202,0.25,637,11.78,6.04,0.95,-72.16,4.69,-5.66,9.08,2.1,-1.0,-39.9
205926,1202,1202,1202,1202,0.27,640,11.79,5.88,0.88,-74.11,0.16,0.62,5.21,0.9,-3.6,-39.6
205926,1202,1202,1202,1202,0.30,643,11.78,5.80,1.07,-76.07,7.87,0.63,6.21,-1.0,0.4,-38.4
205926,1202,1202,1202,1202,0.29,642,11.78,5.90,0.23,-78.02,-6.09,-0.35,10.64,-2.6,-3.3,-39.2
205926,1202,1202,1202,1202,0.30,643,11.78,5.57,0.38,-80.07,11.15,-2.27,7.58,-1.9,-0.8,-39.6
205926,1202,1202,1202,1202,0.32,645,11.79,5.43,-0.02,-82.04,0.90,-0.98,9.87,-2.6,0.4,-39.6
205926,1202,1202,1202,1202,0.28,641,11.77,5.24,0.32,-84.03,-1.53,-2.87,10.89,0.6,-2.3,-39.6
205926,1202,1202,1202,1202,0.28,641,11.78,4.94,0.55,-86.04,4.56,0.30,7.79,-1.4,0.0,-41.1
205926,1202,1202,1202,1202,0.32,645,11.79,4.82,0.70,-88.01,3.45,-2.83,4.82,0.4,3.4,-41.5
205926,1202,1202,1202,1202,0.27,640,11.78,4.75,0.75,-90.06,2.48,-1.17,12.94,-1.3,4.8,-42.3
205926,1202,1202,1202,1202,0.31,644,11.78,4.54,0.54,-92.17,-3.76,5.07,9.31,-0.7,4.5,-42.2
205926,1202,1202,1202,1202,0.27,640,11.79,4.64,0.51,-94.27,0.34,5.01,3.23,2.5,-4.6,-41.9
205926,1202,1202,1202,1202,0.31,644,11.79,4.74,0.25,-96.36,-0.28,-1.77,12.62,-0.6,-2.0,-40.9
205926,1202,1202,1202,1202,0.32,645,11.78,4.48,0.26,-98.42,3.41,2.75,4.57,0.0,0.2,-41.2
205926,1202,1202,1202,1202,0.31,644,11.78,4.65,0.05,-100.48,2.28,1.08,9.22,-2.1,7.1,-39.5
205926,1202,1202,1202,1202,0.30,643,11.78,4.48,0.35,-102.50,9.12,0.05,-1.30,-1.9,3.1,-39.7
205926,1202,1202,1202,1202,0.33,646,11.78,4.67,-0.13,-104.54,-9.97,0.74,15.14,0.5,10.0,-42.2
205926,1202,1202,1202,1202,0.30,643,11.78,4.52,-0.45,-106.61,-8.10,3.62,12.02,0.9,3.2,-41.9
205927,1202,1202,1202,1202,0.36,649,11.79,4.59,0.67,-108.70,-0.64,-4.33,9.16,0.3,4.6,-43.7
205927,1202,1202,1202,1202,0.32,645,11.78,4.01,0.93,-110.83,3.71,6.50,5.09,-1.8,6.2,-43.6
205927,1202,1202,1202,1202,0.32,645,11.78,4.24,0.60,-112.98,-8.41,-0.02,11.92,-1.3,-1.4,-44.7
205927,1202,1202,1202,1202,0.34,647,11.78,4.06,1.44,-115.22,2.88,-1.18,12.33,-1.0,5.9,-44.2
205927,1202,1202,1202,1202,0.37,650,11.78,3.58,1.51,-117.36,-4.64,0.79,14.51,-2.4,-0.1,-41.7
205927,1202,1202,1202,1202,0.36,649,11.79,3.15,2.09,-119.56,2.39,-1.29,2.41,-2.9,5.3,-43.9
205927,1202,1202,1202,1202,0.35,648,11.77,2.62,2.02,-121.69,-2.62,0.75,15.20,0.4,6.3,-42.1
205927,1202,1202,1202,1202,0.35,648,11.78,2.33,2.75,-123.83,2.28,5.04,6.22,0.9,4.3,-44.4
205927,1202,1202,1202,1202,0.37,650,11.79,2.66,1.54,-126.01,6.81,-5.46,5.57,-0.5,-0.1,-45.4
205927,1202,1202,1202,1202,0.33,646,11.78,2.32,2.48,-128.25,-11.04,4.44,16.41,1.2,-4.6,-45.7
205927,1202,1202,1202,1202,0.36,649,11.77,2.21,3.39,-130.42,14.71,-0.72,-0.83,0.2,2.8,-44.4
205927,1202,1202,1202,1202,0.42,655,11.79,2.06,2.64,-132.58,-1.40,3.07,9.76,0.2,4.3,-43.4
205927,1202,1202,1202,1202,0.36,649,11.79,1.99,3.07,-134.77,1.94,-3.13,11.54,-0.7,6.5,-43.4
205927,1202,1202,1202,1202,0.37,650,11.78,1.74,3.63,-136.94,2.60,-0.32,8.18,-0.4,6.8,-41.4
205927,1202,1202,1202,1202,0.33,646,11.77,1.93,3.50,-139.03,5.04,-3.95,5.89,-2.3,0.3,-41.3
205927,1202,1202,1202,1202,0.39,652,11.77,1.45,3.16,-141.13,-3.95,4.30,6.85,1.4,4.1,-41.1
205927,1202,1202,1202,1202,0.36,649,11.78,1.72,3.04,-143.18,-2.44,-1.86,12.39,2.3,1.6,-41.1
205927,1202,1202,1202,1202,0.39,652,11.78,1.43,3.31,-145.19,8.71,-2.49,10.38,3.9,6.7,-39.5
205927,1202,1202,1202,1202,0.41,654,11.77,1.69,2.85,-147.14,-6.84,4.01,14.40,5.0,-3.7,-39.6
205927,1202,1202,1202,1202,0.39,652,11.78,1.61,3.68,-149.06,-1.84,-2.26,15.01,4.9,7.5,-37.5
205928,1202,1202,1202,1202,0.38,651,11.77,1.59,3.90,-150.88,8.02,-0.89,5.92,2.4,3.8,-35.3
205928,1202,1202,1202,1202,0.41,654,11.78,1.72,4.11,-152.67,0.41,-6.85,12.17,3.2,-1.9,-36.0
205928,1202,1202,1202,1202,0.38,651,11.77,1.33,3.88,-154.59,-5.67,5.67,11.55,1.6,-3.7,-36.4
205928,1202,1202,1202,1202,0.39,652,11.78,1.65,3.44,-156.39,7.04,5.51,0.70,1.0,0.9,-38.1
205928,1202,1202,1202,1202,0.38,651,11.77,1.63,3.42,-158.24,3.60,-2.98,9.68,2.5,-3.7,-37.2
205928,1202,1202,1202,1202,0.39,652,11.78,1.50,3.55,-160.11,3.32,1.97,-0.01,2.7,0.4,-38.9
205928,1202,1202,1202,1202,0.39,652,11.78,1.90,2.81,-161.93,-3.42,-3.28,9.56,1.5,5.4,-38.4
205928,1202,1202,1202,1202,0.41,654,11.77,1.70,2.54,-163.74,10.07,2.76,9.94,2.6,3.8,-37.2
205928,1202,1202,1202,1202,0.32,645,11.78,1.47,2.73,-165.52,-4.07,4.52,10.68,0.9,4.2,-36.6
205928,1202,1202,1202,1202,0.42,656,11.77,1.52,2.60,-167.27,-2.78,-2.34,11.58,-2.3,4.2,-34.9
205928,1202,1202,1202,1202,0.38,651,11.77,1.49,2.91,-168.99,4.48,2.20,10.46,-0.1,3.2,-34.0
205928,1202,1202,1202,1202,0.41,654,11.78,1.45,2.65,-170.60,-2.44,0.51,10.03,-1.4,0.7,-31.1
205928,1202,1202,1202,1202,0.39,652,11.77,1.39,2.44,-172.17,-4.02,-0.97,8.74,1.8,4.7,-30.1
205928,1202,1202,1202,1202,0.39,652,11.77,1.66,2.48,-173.61,2.17,0.70,12.97,1.2,7.4,-29.3
205928,1202,1202,1202,1202,0.41,654,11.78,1.58,2.30,-175.10,-3.42,2.28,6.54,0.1,0.6,-28.6
205928,1202,1202,1202,1202,0.39,652,11.78,1.59,2.63,-176.51,4.75,-2.09,8.00,2.4,3.5,-27.2
205928,1202,1202,1202,1202,0.40,653,11.79,1.57,2.30,-177.81,-9.49,-0.14,12.68,3.5,5.2,-26.1
205928,1202,1202,1202,1202,0.41,654,11.78,1.88,2.54,-179.04,2.78,-4.28,7.56,6.0,5.7,-24.8
205928,1202,1202,1202,1202,0.41,654,11.77,1.91,2.50,179.76,0.60,0.20,15.08,3.5,4.8,-23.9
205928,1202,1202,1202,1202,0.39,652,11.77,2.05,2.17,178.63,-2.76,2.04,11.16,5.1,1.2,-20.8
205929,1202,1202,1202,1202,0.44,658,11.77,2.37,1.77,177.59,-2.67,-1.09,5.47,3.9,1.8,-21.8
205929,1202,1202,1202,1202,0.42,655,11.77,2.27,1.93,176.46,-4.73,1.93,9.42,3.6,-1.1,-21.5
205929,1202,1202,1202,1202,0.42,655,11.79,2.26,1.90,175.37,8.35,1.70,3.30,1.0,0.6,-19.0
205929,1202,1202,1202,1202,0.42,655,11.78,2.20,1.55,174.38,-10.39,1.46,14.11,2.2,3.0,-21.4
205929,1202,1202,1202,1202,0.40,653,11.78,2.20,1.92,173.29,2.33,-0.16,8.48,4.1,-0.1,-22.6
205929,1202,1202,1202,1202,0.45,659,11.77,2.23,1.30,172.20,-0.77,2.27,5.14,2.3,0.5,-21.5
205929,1202,1202,1202,1202,0.42,655,11.77,2.45,0.92,171.09,-0.04,4.70,10.21,1.5,0.5,-22.4
205929,1202,1202,1202,1202,0.39,652,11.77,2.16,1.24,170.01,-0.23,-2.09,6.31,1.8,1.6,-20.9
205929,1202,1202,1202,1202,0.42,656,11.77,2.48,0.69,168.97,-1.34,3.87,6.51,4.3,3.5,-21.8
205929,1202,1202,1202,1202,0.41,654,11.77,2.52,1.09,167.95,4.41,-0.69,0.84,2.7,3.7,-19.9
205929,1202,1202,1202,1202,0.42,656,11.76,2.39,1.11,166.98,-17.42,-1.71,19.60,4.0,-0.5,-17.1
205929,1202,1202,1202,1202,0.42,656,11.75,2.34,1.96,166.17,-0.57,3.79,0.71,4.9,4.9,-17.2
205929,1202,1202,1202,1202,0.41,654,11.77,2.54,1.74,165.35,-4.00,5.25,11.86,4.6,1.7,-17.1
205929,1202,1202,1202,1202,0.42,655,11.77,2.75,1.73,164.51,-3.34,-5.73,15.61,6.0,-5.2,-17.6
205929,1202,1202,1202,1202,0.42,655,11.77,2.40,1.94,163.59,3.64,0.83,0.45,2.4,0.2,-16.9
205929,1202,1202,1202,1202,0.42,656,11.78,2.72,1.55,162.78,-0.65,-3.07,9.86,2.5,-0.5,-16.4
205929,1202,1202,1202,1202,0.42,655,11.77,2.83,1.71,161.94,-2.34,-2.22,12.55,2.7,0.1,-17.2
205929,1202,1202,1202,1202,0.41,654,11.77,2.93,1.56,161.09,3.12,5.11,8.83,3.3,-4.8,-16.6
205929,1202,1202,1202,1202,0.42,655,11.76,3.03,1.63,160.18,-1.54,-3.38,18.50,3.4,0.4,-18.0
205929,1202,1202,1202,1202,0.40,653,11.77,2.95,1.35,159.23,9.65,5.04,8.24,3.8,-0.5,-17.6
205930,1202,1202,1202,1202,0.42,656,11.77,3.16,1.53,158.35,-5.01,-0.55,13.01,3.2,-4.5,-19.3
205930,1202,1202,1202,1202,0.40,653,11.77,3.16,1.12,157.40,-2.58,1.11,7.63,-0.4,2.2,-18.6
205930,1202,1202,1202,1202,0.41,654,11.76,3.35,1.01,156.47,2.93,3.55,8.81,0.2,-2.6,-18.9
205930,1202,1202,1202,1202,0.38,651,11.76,3.26,1.05,155.53,0.83,-0.02,8.55,1.6,-3.1,-19.5
205930,1202,1202,1202,1202,0.41,654,11.78,3.11,1.08,154.46,1.08,3.07,1.86,0.2,-2.8,-21.6
205930,1202,1202,1202,1202,0.42,655,11.76,3.68,0.53,153.38,2.01,-1.68,9.52,-0.9,-1.1,-21.8
205930,1202,1202,1202,1202,0.39,652,11.78,3.53,0.60,152.22,-11.02,2.00,17.06,-1.0,1.8,-23.0
205930,1202,1202,1202,1202,0.40,653,11.78,3.21,1.14,151.04,2.86,-5.01,8.84,1.5,-1.1,-23.2
205930,1202,1202,1202,1202,0.42,656,11.78,3.02,0.98,149.82,-3.68,2.30,10.64,1.2,3.2,-24.3
205930,1202,1202,1202,1202,0.42,656,11.77,3.21,1.10,148.57,9.34,-3.08,7.32,0.4,1.5,-26.8
205930,1202,1202,1202,1202,0.40,653,11.77,2.95,1.01,147.26,-9.31,-0.71,16.85,2.6,1.8,-27.8
205930,1202,1202,1202,1202,0.40,653,11.77,2.85,1.20,146.03,12.67,2.98,2.15,2.2,-1.4,-24.5
205930,1202,1202,1202,1202,0.39,652,11.76,2.90,1.01,144.78,-6.40,3.31,16.53,-1.0,1.8,-25.2
205930,1202,1202,1202,1202,0.39,652,11.77,2.67,1.32,143.48,4.88,0.67,2.97,-2.2,-0.1,-27.7
205930,1202,1202,1202,1202,0.38,651,11.76,3.06,1.21,142.11,-9.00,0.22,13.94,-1.0,-2.6,-28.6
205930,1202,1202,1202,1202,0.39,652,11.76,2.74,1.89,140.73,-9.56,-0.62,10.01,-1.3,-1.9,-27.0
205930,1202,1202,1202,1202,0.38,651,11.77,2.33,1.75,139.35,-5.84,-1.37,12.53,-1.9,-2.3,-27.4
205930,1202,1202,1202,1202,0.38,651,11.76,2.22,1.73,137.94,2.25,-1.54,7.77,-3.1,7.3,-28.4
205930,1202,1202,1202,1202,0.38,651,11.77,2.18,1.80,136.43,2.61,-0.20,8.57,0.6,-2.1,-30.3
205930,1202,1202,1202,1202,0.38,651,11.77,2.15,1.13,134.83,4.17,0.11,6.37,0.4,2.9,-33.6
205931,1202,1202,1202,1202,0.38,651,11.77,2.23,1.31,133.29,-5.74,0.95,11.39,-1.4,4.2,-29.7
205931,1202,1202,1202,1202,0.37,650,11.78,1.78,1.35,131.79,-5.06,-0.34,16.32,-0.1,-2.0,-29.1
205931,1202,1202,1202,1202,0.38,651,11.76,1.43,1.85,130.33,-2.01,-4.44,7.97,-1.5,0.6,-28.4
205931,1202,1202,1202,1202,0.37,650,11.76,0.96,1.88,128.89,-1.48,-1.26,11.99,0.6,0.4,-28.0
205931,1202,1202,1202,1202,0.35,648,11.75,0.92,1.72,127.51,5.52,-0.54,5.35,-0.8,1.0,-27.3
205931,1202,1202,1202,1202,0.38,651,11.77,0.92,1.58,126.20,-1.46,-1.29,12.63,0.0,-0.2,-22.5
205931,1202,1202,1202,1202,0.36,649,11.77,0.80,1.23,124.93,-2.83,7.10,9.22,-0.1,3.5,-26.4
205931,1202,1202,1202,1202,0.36,649,11.76,0.85,1.59,123.51,-3.28,-0.25,12.82,0.1,4.1,-27.6
205931,1202,1202,1202,1202,0.34,647,11.76,0.70,1.51,122.19,-2.22,1.37,11.24,1.0,2.3,-24.8
205931,1202,1202,1202,1202,0.32,645,11.75,0.98,1.50,120.80,0.22,-0.62,7.03,4.8,-1.4,-31.1
205931,1202,1202,1202,1202,0.38,651,11.75,0.90,1.06,119.30,-1.66,-2.12,12.81,1.2,3.6,-28.1
205931,1202,1202,1202,1202,0.33,646,11.76,0.71,0.96,117.86,4.99,-3.79,6.90,0.1,-1.6,-29.5
205931,1202,1202,1202,1202,0.36,649,11.76,0.55,0.51,116.45,-13.29,0.82,8.80,-1.5,2.8,-27.3
205931,1202,1202,1202,1202,0.34,647,11.77,0.52,0.80,115.07,5.70,0.06,8.94,-0.1,3.9,-28.4
205931,1202,1202,1202,1202,0.33,646,11.76,0.35,0.60,113.60,-8.28,-0.75,5.75,0.2,7.5,-29.1
205931,1202,1202,1202,1202,0.33,646,11.77,0.41,0.78,112.21,-1.51,-0.68,11.54,1.6,8.2,-26.7
205931,1202,1202,1202,1202,0.30,643,11.75,0.30,1.45,110.86,8.93,3.79,-1.38,3.1,5.0,-27.5
205931,1202,1202,1202,1202,0.30,643,11.77,0.31,1.30,109.48,-4.80,4.79,9.49,2.3,4.6,-28.0
205931,1202,1202,1202,1202,0.31,644,11.76,0.23,1.76,108.12,-3.23,5.45,2.59,2.2,11.5,-27.0
205931,1202,1202,1202,1202,0.34,647,11.77,0.67,1.80,106.90,-6.74,-1.05,14.62,3.4,2.2,-25.1
205932,1202,1202,1202,1202,0.33,646,11.76,0.67,1.41,105.73,7.80,7.01,0.74,2.9,-0.4,-22.5
205932,1202,1202,1202,1202,0.28,641,11.77,0.81,1.67,104.67,-11.43,-0.97,16.08,4.5,3.5,-20.6
205932,1202,1202,1202,1202,0.30,643,11.77,1.08,1.10,103.79,4.38,-1.92,-0.48,6.7,-0.7,-16.2
205932,1202,1202,1202,1202,0.31,644,11.76,1.36,0.89,102.95,-7.35,0.25,8.94,6.7,2.0,-15.0
205932,1202,1202,1202,1202,0.27,640,11.76,1.44,0.88,102.15,1.19,1.69,6.77,7.6,2.1,-16.5
205932,1202,1202,1202,1202,0.30,643,11.77,1.88,0.92,101.31,-0.37,2.00,5.84,7.5,-0.3,-15.3
205932,1202,1202,1202,1202,0.32,645,11.77,2.17,0.74,100.62,0.87,2.50,6.83,3.5,4.8,-13.5
205932,1202,1202,1202,1202,0.30,643,11.76,2.37,0.36,100.08,1.21,0.65,5.32,4.0,3.7,-10.4
205932,1202,1202,1202,1202,0.27,640,11.75,2.58,0.60,99.65,-0.27,4.99,7.35,4.9,6.6,-7.1
205932,1202,1202,1202,1202,0.27,640,11.76,3.04,0.60,99.31,-1.86,3.18,6.07,3.4,4.0,-5.4
205932,1202,1202,1202,1202,0.26,639,11.76,3.26,1.14,99.01,9.26,-0.69,7.53,1.6,4.7,-5.2
205932,1202,1202,1202,1202,0.23,635,11.76,3.15,0.99,98.76,-2.96,1.18,9.60,-1.0,-0.2,-4.1
205932,1202,1202,1202,1202,0.28,641,11.76,3.19,0.96,98.52,12.13,0.42,2.16,0.8,0.7,-3.7
205932,1202,1202,1202,1202,0.25,638,11.76,3.41,0.84,98.27,-15.73,1.69,9.43,0.1,-2.0,-5.1
205932,1202,1202,1202,1202,0.27,640,11.76,3.75,1.02,97.94,-3.89,2.98,8.63,2.0,-4.3,-5.8
205932,1202,1202,1202,1202,0.25,637,11.76,3.72,0.65,97.66,16.12,1.83,1.07,1.6,-3.6,-4.6
205932,1202,1202,1202,1202,0.25,637,11.76,3.92,-0.08,97.36,-3.00,4.47,8.66,1.8,-4.9,-7.4
205932,1202,1202,1202,1202,0.23,635,11.76,4.20,-0.73,96.97,5.38,2.82,5.48,2.7,-6.3,-7.8
205932,1202,1202,1202,1202,0.24,636,11.76,4.28,-1.66,96.50,-9.11,-1.15,9.94,4.0,-5.2,-10.4
205932,1202,1202,1202,1202,0.19,631,11.77,4.68,-1.43,95.97,-0.13,2.91,8.64,4.4,-5.3,-8.7
205933,1202,1202,1202,1202,0.19,631,11.77,4.72,-1.40,95.35,-1.87,-7.44,11.09,2.2,-0.8,-14.8
205933,1202,1202,1202,1202,0.21,633,11.76,4.78,-1.70,94.64,-0.88,0.63,7.22,3.5,0.7,-13.7
205933,1202,1202,1202,1202,0.24,636,11.75,4.82,-1.50,93.89,9.72,5.29,3.70,0.4,-1.3,-15.9
205933,1202,1202,1202,1202,0.25,637,11.76,4.99,-1.55,93.03,7.71,4.42,6.96,-3.0,-0.7,-17.8
205933,1202,1202,1202,1202,0.24,636,11.74,4.87,-0.89,92.18,-6.96,1.78,10.19,-2.5,1.7,-18.0
205933,1202,1202,1202,1202,0.20,632,11.78,4.56,-1.39,91.25,-5.06,-3.60,16.56,-8.1,-1.0,-21.5
205933,1202,1202,1202,1202,0.23,635,11.76,4.08,-0.22,90.13,-0.03,0.00,10.13,-6.3,10.2,-25.1
205933,1202,1202,1202,1202,0.21,633,11.76,3.69,-0.02,88.85,1.48,2.86,1.88,-7.3,11.2,-28.7
205933,1202,1202,1202,1202,0.20,632,11.75,3.52,0.51,87.37,6.40,3.39,5.87,-6.0,12.1,-32.8
205933,1202,1202,1202,1202,0.23,635,11.77,3.18,1.04,85.76,3.44,-5.24,6.51,-7.9,10.4,-34.5
205933,1202,1202,1202,1202,0.23,635,11.76,2.78,1.80,84.03,7.70,0.65,-0.56,-2.4,14.6,-37.7
205933,1202,1202,1202,1202,0.22,634,11.75,2.42,2.75,82.15,-5.23,-2.51,8.73,-1.0,13.6,-38.3
205933,1202,1202,1202,1202,0.22,634,11.75,2.36,3.72,80.28,13.98,0.16,3.30,3.2,15.4,-39.2
205933,1202,1202,1202,1202,0.20,632,11.76,2.32,4.56,78.35,-9.40,-1.17,12.99,3.5,17.8,-39.2
205933,1202,1202,1202,1202,0.19,631,11.76,2.17,6.41,76.36,7.91,-3.45,9.64,6.6,21.2,-40.7
205933,1202,1202,1202,1202,0.23,635,11.75,1.83,7.35,74.29,3.38,5.96,3.66,4.3,19.4,-41.2
205933,1202,1202,1202,1202,0.18,630,11.76,2.03,7.41,72.29,-5.51,-0.55,7.39,6.3,15.2,-41.4
