time,pwm1,pwm2,pwm3,pwm4,depth,press,voltage,roll,pitch,yaw,a_x,a_y,a_z,w_row,w_pitch,w_yaw
202959,1100,1100,1100,1100,-0.02,614,12.24,6.44,1.15,-58.99,-0.16,0.99,8.64,0.4,-0.5,-0.7
202959,1100,1100,1100,1100,-0.03,613,12.21,6.59,0.96,-59.03,6.91,1.15,4.09,3.2,5.6,-1.8
202959,1198,1198,1198,1198,0.01,617,12.18,6.91,0.26,-59.07,2.78,-0.21,4.83,5.6,14.3,-1.6
202959,1198,1198,1198,1198,-0.06,610,12.11,7.14,1.11,-59.15,17.48,-1.31,13.10,5.6,31.2,-4.9
202959,1198,1198,1198,1198,0.00,616,12.11,6.93,2.48,-59.37,-6.61,-2.27,17.18,-14.0,19.7,-10.6
202959,1198,1198,1198,1198,-0.04,612,12.10,6.09,2.96,-60.01,-0.11,1.93,8.24,-11.2,-3.2,-17.3
203000,1198,1198,1198,1198,0.05,621,12.09,5.47,2.40,-60.92,2.25,9.13,9.83,-7.6,-13.2,-16.4
203000,1198,1198,1198,1198,0.07,623,12.10,5.38,2.36,-61.70,-6.13,3.34,12.75,-7.3,-17.3,-15.9
203000,1198,1198,1198,1198,0.08,624,12.10,5.02,2.34,-62.46,1.48,1.47,7.26,-6.3,-16.5,-16.5
203000,1198,1198,1198,1198,0.08,625,12.09,4.54,2.45,-63.25,-2.11,2.72,11.26,-7.0,-19.5,-14.6
203000,1198,1198,1198,1198,0.07,623,12.08,4.44,1.88,-64.05,13.86,-3.13,0.71,-7.1,-14.0,-15.9
203000,1198,1198,1198,1198,0.08,624,12.07,3.86,-0.03,-64.97,11.39,-1.76,10.70,-5.6,-11.5,-15.9
203000,1198,1198,1198,1198,0.13,630,12.08,3.28,-0.77,-65.89,-4.38,-2.65,14.25,-3.4,-13.4,-17.3
203000,1198,1198,1198,1198,0.07,623,12.08,3.09,-0.84,-66.88,-3.98,-1.91,13.60,-0.9,-14.6,-19.5
203000,1198,1198,1198,1198,0.11,628,12.09,3.19,-0.84,-67.90,12.85,0.79,6.71,0.1,-2.9,-20.0
203000,1198,1198,1198,1198,0.09,626,12.09,3.15,-1.43,-69.00,7.32,-2.76,5.40,-1.5,1.0,-24.0
203000,1198,1198,1198,1198,0.10,627,12.09,3.27,-1.97,-70.14,-19.60,3.27,19.60,-0.1,-9.3,-22.5
203000,1198,1198,1198,1198,0.11,628,12.08,3.38,-1.60,-71.24,15.09,1.18,-3.40,0.0,2.4,-21.4
203000,1198,1198,1198,1198,0.15,632,12.08,3.09,-1.62,-72.34,10.15,1.94,4.23,-1.7,0.3,-21.5
203000,1198,1198,1198,1198,0.15,632,12.08,3.10,-1.83,-73.55,-19.60,2.41,19.60,-0.1,-9.0,-22.9
203000,1198,1198,1198,1198,0.16,633,12.11,2.94,-1.78,-74.82,2.84,-3.22,4.86,-2.0,7.8,-26.1
203000,1198,1198,1198,1198,0.19,636,12.08,2.87,-2.02,-76.17,9.13,-0.11,11.00,-1.8,2.0,-26.4
203000,1198,1198,1198,1198,0.18,635,12.08,2.88,-2.20,-77.52,-5.09,-2.39,9.24,-0.6,-14.0,-26.7
203000,1198,1198,1198,1198,0.17,634,12.08,2.70,-3.46,-78.85,12.33,-0.60,-0.65,-1.2,-11.2,-27.0
203000,1198,1198,1198,1198,0.21,638,12.09,2.54,-3.57,-80.22,1.98,-0.47,7.90,0.0,1.3,-28.6
203000,1198,1198,1198,1198,0.21,638,12.08,2.40,-3.23,-81.61,-8.41,4.31,16.17,-0.4,-15.9,-26.9
203001,1198,1198,1198,1198,0.20,637,12.08,2.46,-3.42,-82.98,11.12,-3.57,2.33,0.1,5.6,-27.1
203001,1198,1198,1198,1198,0.20,637,12.08,2.40,-4.16,-84.33,11.06,-2.06,3.66,0.1,5.2,-26.4
203001,1198,1198,1198,1198,0.20,637,12.08,2.71,-4.30,-85.71,-4.89,4.44,15.87,2.3,-3.8,-27.0
203001,1198,1198,1198,1198,0.21,638,12.08,2.95,-3.68,-87.08,-2.74,-1.61,9.65,3.9,0.1,-28.7
203001,1198,1198,1198,1198,0.22,639,12.08,3.09,-3.85,-88.43,-9.14,1.95,15.17,3.7,-5.1,-27.6
203001,1198,1198,1198,1198,0.21,638,12.10,3.42,-3.18,-89.83,-12.18,0.71,15.91,2.8,3.7,-29.1
203001,1198,1198,1198,1198,0.22,639,12.08,3.61,-2.62,-91.15,-13.04,1.18,15.76,2.7,-0.9,-27.7
203001,1198,1198,1198,1198,0.22,639,12.08,3.95,-2.39,-92.50,4.01,-5.29,6.36,2.9,2.3,-27.0
203001,1198,1198,1198,1198,0.23,640,12.08,3.92,-2.63,-93.81,7.85,-0.70,8.06,2.6,6.5,-26.8
203001,1198,1198,1198,1198,0.22,639,12.08,4.15,-2.39,-95.05,-1.86,0.21,11.27,3.5,0.6,-25.1
203001,1198,1198,1198,1198,0.25,642,12.08,4.15,-2.03,-96.26,-5.41,-2.36,5.07,0.4,0.2,-25.5
203001,1198,1198,1198,1198,0.27,645,12.09,3.99,-1.26,-97.49,6.36,1.81,2.22,0.2,4.6,-24.5
203001,1198,1198,1198,1198,0.25,642,12.11,3.60,-1.44,-98.69,-4.43,1.04,11.05,0.5,3.9,-23.9
203001,1198,1198,1198,1198,0.30,648,12.10,3.54,-1.64,-99.83,8.16,-1.63,4.53,1.3,1.6,-21.7
203001,1198,1198,1198,1198,0.25,643,12.08,3.57,-1.75,-100.90,2.31,-1.00,5.03,2.7,8.5,-20.8
203001,1198,1198,1198,1198,0.25,643,12.10,3.55,-0.92,-101.84,0.88,-0.41,8.39,2.6,-0.3,-17.2
203001,1198,1198,1198,1198,0.30,648,12.08,3.67,-0.82,-102.71,1.78,0.02,5.83,2.0,7.8,-17.5
203001,1198,1198,1198,1198,0.25,643,12.09,3.66,-0.57,-103.52,-2.00,4.54,9.66,2.3,4.0,-15.2
203001,1198,1198,1198,1198,0.26,644,12.09,3.57,-0.54,-104.29,1.86,0.18,7.81,2.6,7.9,-16.5
203001,1198,1198,1198,1198,0.26,644,12.07,3.70,-1.05,-104.98,3.96,1.97,4.02,4.5,4.3,-12.6
203002,1198,1198,1198,1198,0.28,646,12.09,4.01,-1.15,-105.62,10.53,-7.76,8.74,1.8,5.9,-14.3
203002,1198,1198,1198,1198,0.27,645,12.07,3.96,-0.73,-106.29,-7.02,0.80,9.99,2.7,3.0,-12.5
203002,1198,1198,1198,1198,0.27,645,12.09,3.89,-0.44,-106.92,-18.41,1.89,16.32,2.3,-9.0,-12.2
203002,1198,1198,1198,1198,0.29,647,12.07,3.78,0.07,-107.48,10.71,1.63,0.95,2.4,5.2,-10.6
203002,1198,1198,1198,1198,0.29,647,12.08,3.93,0.25,-108.04,6.12,-0.52,9.11,2.3,8.9,-12.3
203002,1198,1198,1198,1198,0.35,653,12.08,4.15,0.64,-108.59,11.86,4.94,3.95,2.1,5.4,-9.6
203002,1198,1198,1198,1198,0.30,648,12.10,4.08,0.29,-109.05,2.67,-2.92,11.62,2.5,7.6,-10.1
203002,1198,1198,1198,1198,0.36,654,12.08,3.97,0.18,-109.53,-4.91,0.03,9.89,2.1,0.9,-10.4
203002,1198,1198,1198,1198,0.37,655,12.08,3.99,0.24,-109.99,-4.04,1.33,9.66,2.0,5.6,-11.9
203002,1198,1198,1198,1198,0.34,652,12.09,4.12,0.53,-110.40,11.14,-3.38,8.82,2.1,1.0,-8.1
203002,1198,1198,1198,1198,0.34,652,12.08,4.14,0.80,-110.75,-14.84,5.66,16.19,3.4,-5.0,-6.3
203002,1198,1198,1198,1198,0.33,651,12.09,4.53,1.49,-111.08,1.28,3.65,2.29,2.3,-0.4,-5.0
203002,1198,1198,1198,1198,0.35,653,12.08,4.49,0.97,-111.41,-4.39,-6.24,8.42,1.2,-3.7,-5.4
203002,1198,1198,1198,1198,0.38,656,12.09,4.26,0.47,-111.76,4.81,-0.89,7.03,1.8,-4.3,-6.5
203002,1198,1198,1198,1198,0.33,651,12.08,4.52,-0.05,-112.12,-5.60,-0.45,14.39,0.8,-4.0,-9.3
203002,1198,1198,1198,1198,0.36,654,12.08,4.56,0.04,-112.53,17.06,2.40,-7.12,0.5,4.2,-11.0
203002,1198,1198,1198,1198,0.39,657,12.08,4.68,-0.13,-113.04,0.56,-1.82,6.32,0.2,-5.2,-9.9
203002,1198,1198,1198,1198,0.37,655,12.08,4.54,-0.29,-113.42,-2.09,5.67,8.72,-0.2,-2.1,-7.2
203002,1198,1198,1198,1198,0.35,653,12.08,4.39,-0.28,-113.84,8.08,2.65,3.34,-3.6,0.4,-7.9
203002,1198,1198,1198,1198,0.36,654,12.08,4.10,-1.00,-114.19,10.06,2.46,0.72,-1.0,2.4,-5.5
203003,1198,1198,1198,1198,0.36,654,12.08,3.99,-1.10,-114.47,-7.14,5.15,11.59,-4.2,-3.7,-3.6
203003,1198,1198,1198,1198,0.40,658,12.08,4.11,-0.52,-114.69,-5.80,3.49,15.36,-0.8,-11.0,-3.5
203003,1198,1198,1198,1198,0.39,657,12.08,4.05,-0.45,-115.00,-3.57,1.54,8.84,-1.9,-0.1,-6.7
203003,1198,1198,1198,1198,0.42,661,12.07,4.13,-0.45,-115.34,-5.88,0.78,17.16,1.0,-2.9,-5.7
203003,1198,1198,1198,1198,0.40,658,12.06,4.10,0.08,-115.60,-3.63,3.92,9.42,-2.0,8.0,-7.3
203003,1198,1198,1198,1198,0.36,654,12.08,4.02,-0.06,-115.80,-9.12,1.55,15.79,-0.7,-6.5,-5.6
203003,1198,1198,1198,1198,0.37,655,12.07,4.08,0.56,-116.03,-1.84,-1.26,12.82,-0.1,-3.0,-3.5
203003,1198,1198,1198,1198,0.41,659,12.08,4.12,0.20,-116.18,-1.28,1.23,11.03,0.7,1.0,-4.2
203003,1198,1198,1198,1198,0.44,663,12.09,4.02,0.01,-116.43,-0.36,-0.69,10.20,0.5,-10.6,-4.8
203003,1198,1198,1198,1198,0.40,658,12.07,3.94,-0.98,-116.68,1.98,-2.50,6.19,-0.7,3.1,-5.2
203003,1198,1198,1198,1198,0.44,663,12.08,3.91,-0.92,-116.99,-4.75,-0.90,7.46,1.8,-4.0,-6.7
203003,1198,1198,1198,1198,0.42,660,12.06,3.98,-0.89,-117.39,-11.39,-3.23,16.97,1.3,1.7,-8.9
203003,1198,1198,1198,1198,0.42,661,12.06,4.10,-0.06,-117.90,11.27,-0.72,1.68,1.3,3.2,-12.1
203003,1198,1198,1198,1198,0.44,663,12.10,3.78,-0.57,-118.49,15.52,-0.68,5.78,2.5,7.2,-14.8
203003,1198,1198,1198,1198,0.44,663,12.07,3.67,-0.56,-119.13,-13.54,3.73,19.60,-1.4,-4.8,-13.0
203003,1198,1198,1198,1198,0.45,664,12.08,3.69,0.01,-119.83,1.06,4.67,10.96,0.4,8.0,-14.2
203003,1198,1198,1198,1198,0.44,663,12.09,3.43,0.31,-120.59,9.83,0.49,1.98,0.6,10.5,-13.3
203003,1198,1198,1198,1198,0.42,660,12.08,3.56,0.35,-121.31,-19.04,-4.63,18.11,-0.7,3.5,-13.5
203003,1198,1198,1198,1198,0.41,659,12.07,3.39,1.15,-122.10,10.35,2.70,0.17,1.5,8.7,-14.6
203003,1198,1198,1198,1198,0.44,663,12.08,3.50,1.23,-122.91,-10.79,-2.14,15.07,1.5,-2.9,-16.2
203004,1198,1198,1198,1198,0.42,661,12.08,3.30,1.79,-123.66,9.00,1.08,5.37,1.2,6.8,-16.4
203004,1198,1198,1198,1198,0.46,665,12.08,3.32,1.55,-124.45,-7.44,1.79,9.80,0.7,4.3,-17.9
203004,1198,1198,1198,1198,0.48,667,12.07,3.50,2.26,-125.22,-1.55,1.20,12.08,2.7,4.9,-17.1
203004,1198,1198,1198,1198,0.47,666,12.08,3.46,1.93,-125.98,0.78,0.48,6.48,2.0,9.6,-15.9
203004,1198,1198,1198,1198,0.45,664,12.08,3.75,2.22,-126.59,4.28,-0.24,11.44,2.0,7.2,-12.8
203004,1198,1198,1198,1198,0.42,660,12.08,3.71,2.44,-127.22,-0.22,3.71,8.38,1.1,7.2,-11.1
203004,1198,1198,1198,1198,0.48,667,12.09,3.62,2.32,-127.79,-9.55,-1.80,8.72,2.4,2.7,-12.0
203004,1198,1198,1198,1198,0.45,664,12.07,3.42,2.53,-128.41,-5.92,5.74,14.25,1.8,2.8,-13.1
203004,1198,1198,1198,1198,0.48,667,12.08,3.38,2.95,-129.06,-12.75,1.98,10.46,1.6,-7.2,-12.7
203004,1198,1198,1198,1198,0.44,663,12.08,3.51,3.56,-129.68,4.60,-0.11,10.14,-0.7,7.1,-12.7
203004,1198,1198,1198,1198,0.51,670,12.07,3.32,3.35,-130.26,8.70,0.39,6.69,-1.6,-2.4,-11.0
203004,1198,1198,1198,1198,0.48,667,12.08,2.97,2.51,-130.81,8.17,-4.38,4.54,-1.5,10.9,-12.1
203004,1198,1198,1198,1198,0.47,666,12.08,2.81,2.59,-131.35,-6.32,3.81,15.57,0.9,4.2,-9.4
203004,1198,1198,1198,1198,0.43,662,12.08,3.05,2.53,-131.87,-1.22,1.09,7.35,1.7,0.0,-9.2
203004,1198,1198,1198,1198,0.47,666,12.07,3.11,2.08,-132.34,0.52,0.17,8.66,2.2,1.2,-7.8
203004,1198,1198,1198,1198,0.49,668,12.08,2.99,2.11,-132.74,4.14,4.04,5.81,1.7,0.5,-6.2
203004,1198,1198,1198,1198,0.46,665,12.07,3.04,2.83,-133.11,-4.19,2.52,8.21,2.4,4.2,-7.9
203004,1198,1198,1198,1198,0.49,668,12.08,3.21,3.43,-133.55,9.51,-0.66,5.11,4.0,1.5,-9.0
203004,1198,1198,1198,1198,0.45,664,12.06,3.10,2.85,-133.98,-1.84,1.68,10.61,4.3,-2.3,-8.2
203004,1198,1198,1198,1198,0.48,667,12.07,3.35,3.18,-134.34,8.52,-2.13,4.57,5.0,3.1,-7.8
203005,1198,1198,1198,1198,0.50,669,12.09,3.59,3.04,-134.60,-5.12,0.61,10.48,5.4,-4.4,-5.0
203005,1198,1198,1198,1198,0.47,666,12.07,3.72,3.09,-134.83,2.46,0.15,2.48,4.7,-4.3,-4.8
203005,1198,1198,1198,1198,0.52,671,12.06,4.12,2.22,-134.99,0.78,0.45,3.61,5.6,0.4,-2.4
203005,1198,1198,1198,1198,0.48,667,12.08,4.38,2.17,-135.09,-5.69,4.66,9.03,5.6,-3.9,-2.2
203005,1198,1198,1198,1198,0.46,665,12.08,4.68,1.99,-135.16,8.71,-2.36,5.31,4.6,-0.9,-0.5
203005,1198,1198,1198,1198,0.52,671,12.07,4.73,1.71,-135.28,-8.90,1.60,14.76,4.0,-5.8,-3.1
203005,1198,1198,1198,1198,0.49,668,12.07,4.93,1.69,-135.46,5.88,5.54,1.53,1.3,-2.4,-3.5
203005,1198,1198,1198,1198,0.51,670,12.09,4.99,1.83,-135.64,-14.91,0.06,15.38,1.1,-8.5,-4.7
203005,1198,1198,1198,1198,0.52,671,12.07,4.81,1.37,-135.94,-8.51,-0.76,10.53,-0.3,3.2,-5.4
203005,1198,1198,1198,1198,0.48,667,12.06,4.93,2.07,-136.28,-6.01,0.91,7.76,0.8,3.8,-6.3
203005,1198,1198,1198,1198,0.51,670,12.08,4.52,1.96,-136.69,4.31,0.63,5.50,-0.4,-7.4,-7.3
203005,1198,1198,1198,1198,0.50,669,12.08,4.57,2.63,-137.16,-10.89,3.97,15.20,-1.5,-11.0,-9.0
203005,1198,1198,1198,1198,0.50,669,12.08,4.64,2.97,-137.65,3.99,-3.10,6.48,-2.1,2.3,-8.4
203005,1198,1198,1198,1198,0.51,670,12.07,4.38,2.29,-138.13,-7.78,4.38,14.90,-2.0,6.3,-9.3
203005,1198,1198,1198,1198,0.57,676,12.07,4.13,2.78,-138.69,8.94,-2.33,1.29,-2.1,0.4,-11.9
203005,1198,1198,1198,1198,0.52,671,12.07,3.78,2.29,-139.40,-5.30,-0.84,12.72,-2.3,-6.1,-16.2
203005,1198,1198,1198,1198,0.54,673,12.08,3.45,2.36,-140.13,-2.95,0.82,12.79,-0.8,-4.2,-15.0
203005,1198,1198,1198,1198,0.52,671,12.06,3.18,1.82,-140.92,-6.22,0.94,15.56,-0.6,3.7,-16.1
203005,1198,1198,1198,1198,0.53,672,12.08,3.45,2.48,-141.72,-7.24,-0.54,13.06,-0.4,-14.5,-15.4
203005,1198,1198,1198,1198,0.55,674,12.08,3.51,2.25,-142.49,-2.41,2.11,11.81,-0.2,-4.5,-14.8
203006,1198,1198,1198,1198,0.56,675,12.06,3.29,1.67,-143.30,0.93,-1.40,9.10,0.2,-3.7,-16.4
203006,1198,1198,1198,1198,0.53,672,12.06,3.20,1.09,-144.13,-7.76,-0.03,14.91,1.1,-7.7,-16.0
203006,1198,1198,1198,1198,0.56,675,12.08,3.24,1.93,-144.94,5.31,3.51,8.78,-1.3,4.6,-17.6
203006,1198,1198,1198,1198,0.59,679,12.07,3.24,1.91,-145.82,3.70,-3.49,7.53,0.1,2.4,-19.5
203006,1198,1198,1198,1198,0.54,673,12.07,3.14,1.81,-146.69,5.80,-1.42,7.51,-1.3,3.2,-20.1
203006,1198,1198,1198,1198,0.58,677,12.06,3.15,1.67,-147.64,10.08,-1.26,10.20,1.2,-4.6,-20.3
203006,1198,1198,1198,1198,0.58,677,12.07,2.95,1.54,-148.64,9.03,5.71,3.45,0.2,-0.9,-20.0
203006,1198,1198,1198,1198,0.52,671,12.07,3.15,1.73,-149.67,-6.91,5.04,8.73,-0.1,-6.5,-19.3
203006,1198,1198,1198,1198,0.57,676,12.07,3.19,1.73,-150.69,3.88,-2.39,8.17,-0.8,3.4,-19.2
203006,1198,1198,1198,1198,0.50,669,12.07,3.07,2.14,-151.82,-6.45,3.32,14.91,-1.6,-4.9,-21.6
203006,1198,1198,1198,1198,0.49,668,12.06,2.78,2.27,-152.93,-2.77,3.12,3.85,-0.5,-5.4,-22.0
203006,1198,1198,1198,1198,0.53,672,12.06,2.99,1.76,-154.05,-3.90,0.88,9.77,-1.0,-6.2,-23.5
203006,1198,1198,1198,1198,0.52,671,12.07,2.91,1.97,-155.21,0.79,2.47,8.82,-1.8,1.8,-24.5
203006,1198,1198,1198,1198,0.57,676,12.06,2.51,1.76,-156.41,13.45,-1.93,2.42,-4.4,2.7,-23.3
203006,1198,1198,1198,1198,0.56,675,12.05,2.27,1.56,-157.57,-11.49,0.30,17.91,-1.7,-10.2,-21.1
203006,1198,1198,1198,1198,0.51,670,12.05,2.26,1.27,-158.67,19.60,-5.84,3.94,-0.1,-1.3,-20.9
203006,1198,1198,1198,1198,0.58,678,12.07,1.97,-0.13,-159.79,-16.71,-2.17,13.03,-1.5,-3.4,-18.9
203006,1198,1198,1198,1198,0.51,670,12.05,1.99,0.27,-160.86,-5.63,0.81,16.44,-2.4,4.8,-19.6
203006,1198,1198,1198,1198,0.58,678,12.05,1.81,0.72,-161.89,3.86,-7.15,4.60,-1.5,3.4,-22.2
203006,1198,1198,1198,1198,0.55,674,12.06,1.64,-0.11,-162.91,-11.42,1.37,19.60,1.8,-7.7,-20.0
203007,1198,1198,1198,1198,0.51,670,12.06,1.35,0.21,-163.91,3.31,-0.74,2.62,2.3,6.3,-22.8
203007,1198,1198,1198,1198,0.59,679,12.07,1.57,0.39,-164.94,-9.33,2.21,13.52,0.6,1.0,-21.9
203007,1198,1198,1198,1198,0.54,673,12.07,1.45,1.23,-165.90,3.79,0.41,15.74,-0.1,12.6,-19.2
203007,1198,1198,1198,1198,0.51,670,12.07,1.27,1.29,-166.95,-5.60,-0.25,5.46,1.7,10.4,-21.9
203007,1198,1198,1198,1198,0.60,680,12.07,1.13,1.15,-167.96,-0.53,-3.96,10.28,1.4,13.5,-18.6
203007,1198,1198,1198,1198,0.59,679,12.07,1.30,1.74,-168.88,4.56,-2.00,5.76,2.3,5.1,-17.0
203007,1198,1198,1198,1198,0.57,676,12.05,0.97,2.68,-169.71,6.24,-2.42,6.45,3.4,7.4,-15.5
203007,1198,1198,1198,1198,0.59,679,12.07,0.90,2.80,-170.46,-6.57,5.44,4.03,1.6,11.0,-13.6
203007,1198,1198,1198,1198,0.55,674,12.06,1.39,3.13,-171.04,-6.99,-0.39,19.60,5.1,8.7,-11.7
203007,1198,1198,1198,1198,0.52,671,12.07,1.83,3.83,-171.64,4.78,-0.24,1.77,5.7,8.8,-13.7
203007,1198,1198,1198,1198,0.53,672,12.06,2.03,3.82,-172.23,1.61,-0.86,5.36,8.1,-0.1,-11.0
203007,1198,1198,1198,1198,0.55,674,12.09,2.41,4.30,-172.73,8.02,-2.15,5.10,6.0,-1.0,-7.6
203007,1198,1198,1198,1198,0.58,677,12.06,2.59,3.69,-173.18,-0.89,5.44,5.52,4.8,7.0,-9.0
203007,1198,1198,1198,1198,0.58,677,12.09,2.71,4.15,-173.64,-5.43,3.10,11.92,3.7,0.6,-8.4
203007,1198,1198,1198,1198,0.52,671,12.08,3.08,3.59,-174.17,7.36,-7.52,12.60,1.5,-3.4,-10.8
203007,1198,1198,1198,1198,0.52,671,12.08,2.82,3.55,-174.82,3.56,5.96,0.38,4.2,-5.7,-12.1
203007,1198,1198,1198,1198,0.54,673,12.05,3.15,3.43,-175.41,9.68,1.34,5.85,2.9,-9.0,-11.1
203007,1198,1198,1198,1198,0.53,672,12.06,3.21,3.04,-176.04,-3.41,-1.62,3.91,-1.8,2.4,-13.5
203007,1198,1198,1198,1198,0.56,675,12.06,3.16,3.65,-176.66,9.48,3.48,6.58,-1.5,3.9,-13.5
203007,1198,1198,1198,1198,0.53,672,12.06,2.83,2.37,-177.34,2.22,-3.92,6.56,-3.8,-3.1,-15.4
203008,1198,1198,1198,1198,0.50,669,12.04,2.54,1.99,-178.06,-3.58,3.22,15.21,-3.3,-3.2,-16.5
203008,1198,1198,1198,1198,0.48,667,12.07,2.69,2.48,-178.75,9.14,7.35,0.67,-4.4,0.7,-14.4
203008,1198,1198,1198,1198,0.55,674,12.06,2.22,1.54,-179.42,4.98,1.00,-3.03,-6.2,-3.3,-13.3
203008,1198,1198,1198,1198,0.52,671,12.05,2.35,0.91,179.33,-6.23,-4.01,19.60,12.5,-2.1,-33.0
203008,1198,1198,1198,1198,0.55,674,12.06,1.84,0.84,177.56,1.15,6.28,2.67,7.1,-6.3,-32.2
203008,1198,1198,1198,1198,0.55,674,12.06,2.16,0.47,175.99,-16.19,-2.43,13.97,7.9,-7.6,-30.6
203008,1198,1198,1198,1198,0.52,671,12.08,2.46,0.32,174.42,-12.13,-3.53,17.63,7.6,-12.4,-30.4
203008,1198,1198,1198,1198,0.57,676,12.07,2.63,0.67,172.94,-7.99,3.23,13.62,8.9,-7.1,-29.2
203008,1198,1198,1198,1198,0.54,673,12.06,3.14,0.74,171.52,3.90,-0.12,1.61,8.1,-0.9,-31.1
203008,1198,1198,1198,1198,0.55,674,12.07,3.31,-0.08,170.01,-1.35,2.36,9.57,4.4,0.2,-29.7
203008,1198,1198,1198,1198,0.60,680,12.04,3.76,0.39,168.52,-5.46,2.22,8.97,3.4,-3.3,-29.5
203008,1198,1198,1198,1198,0.58,678,12.07,3.67,0.86,166.96,5.27,3.80,5.16,1.8,-6.2,-32.9
203008,1198,1198,1198,1198,0.52,671,12.04,3.80,1.01,165.13,3.71,0.04,12.91,-1.7,3.9,-37.8
203008,1198,1198,1198,1198,0.50,669,12.06,3.29,1.02,163.20,2.72,-0.56,8.80,-1.6,-2.6,-40.1
203008,1198,1198,1198,1198,0.54,673,12.05,3.18,1.12,161.27,-9.68,-0.56,19.60,0.8,3.8,-33.9
203008,1198,1198,1198,1198,0.51,670,12.07,3.30,0.69,160.48,-4.22,-1.06,18.26,-0.9,7.4,-10.4
203008,1198,1198,1198,1198,0.48,667,12.05,3.50,-0.24,159.61,-0.11,-1.07,7.64,2.7,-0.2,-22.0
203008,1198,1198,1198,1198,0.54,673,12.07,3.54,-0.02,158.38,4.90,2.29,8.48,3.5,5.7,-26.7
203008,1198,1198,1198,1198,0.50,669,12.06,3.73,0.63,156.97,-3.31,1.17,8.58,-1.8,7.1,-29.6
203008,1198,1198,1198,1198,0.50,669,12.06,3.72,0.47,155.45,11.87,-1.90,7.91,-2.9,10.4,-32.1
203009,1198,1198,1198,1198,0.53,672,12.06,3.63,0.61,153.81,-13.61,5.85,18.51,-4.0,-8.5,-34.7
203009,1198,1198,1198,1198,0.52,671,12.08,3.22,0.59,152.00,14.01,-0.80,-3.78,-4.5,6.6,-38.8
203009,1198,1198,1198,1198,0.53,672,12.06,2.50,0.03,150.03,-19.60,0.34,16.58,-8.1,-3.7,-37.4
203009,1198,1198,1198,1198,0.51,670,12.07,2.25,0.85,148.29,14.50,-1.76,7.35,-5.5,21.7,-33.4
203009,1198,1198,1198,1198,0.50,669,12.05,1.44,-0.47,146.57,1.12,-1.53,4.27,-2.7,2.1,-37.8
203009,1198,1198,1198,1198,0.50,669,12.06,1.06,-1.15,144.71,-0.85,2.38,5.06,-1.2,1.3,-39.4
203009,1198,1198,1198,1198,0.53,672,12.06,1.15,-0.36,142.69,1.57,5.59,9.98,-1.3,-11.4,-41.7
203009,1198,1198,1198,1198,0.51,670,12.06,1.17,-0.56,140.50,4.43,1.84,3.59,-1.6,5.9,-45.5
203009,1198,1198,1198,1198,0.53,672,12.09,1.24,-0.89,138.22,-16.49,-0.62,18.16,-5.2,-5.6,-47.0
203009,1198,1198,1198,1198,0.49,668,12.06,1.02,-0.78,135.93,11.41,-4.17,5.71,-4.6,13.3,-48.8
